SALE TYPE,SOLD DATE,PROPERTY TYPE,ADDRESS,CITY,STATE OR PROVINCE,ZIP OR POSTAL CODE,PRICE,BEDS,BATHS,LOCATION,SQUARE FEET,LOT SIZE,YEAR BUILT,DAYS ON MARKET,$/SQUARE FEET,HOA/MONTH,STATUS,NEXT OPEN HOUSE START TIME,NEXT OPEN HOUSE END TIME,URL (SEE http://www.redfin.com/buy-a-home/comparative-market-analysis FOR INFO ON PRICING),SOURCE,MLS#,FAVORITE,INTERESTED,LATITUDE,LONGITUDE
MLS Listing,,Single Family Residential,1327 Big Stone Gap Rd,Duncanville,TX,75137,250000,4,3.0,Greene,2630,9453,1978,22,95,90,Active,,,http://www.redfin.com/TX/Duncanville/1327-Big-Stone-Gap-Rd-75137/home/31316583,NTREIS,14038350,N,Y,32.6423408,-96.9397211
MLS Listing,,Condo/Co-op,4829 N Central Expy #4829,Dallas,TX,75205,259000,2,1.5,Highland Oaks Condo,1138,71918,1957,36,228,325,Active,,,http://www.redfin.com/TX/Dallas/4829-N-Central-Expy-75206/unit-4829/home/147451918,NTREIS,14023787,N,Y,32.8258313,-96.7841011
MLS Listing,,Single Family Residential,1731 Lansford Ave,Dallas,TX,75224,255000,3,2.0,Elmwood 02,1385,7057,1947,52,184,,Active,March-30-2019 12:00 PM,March-30-2019 02:00 PM,http://www.redfin.com/TX/Dallas/1731-Lansford-Ave-75224/home/30843133,NTREIS,14017385,N,Y,32.7292372,-96.8488987
MLS Listing,,Single Family Residential,100 Brookwood Dr,Richardson,TX,75080,260000,3,2.0,Richardson Heights 10 Sec 01,1614,9104,1963,58,161,,Active,,,http://www.redfin.com/TX/Richardson/100-Brookwood-Dr-75080/home/31961625,NTREIS,14010413,N,Y,32.9514689,-96.7647693
MLS Listing,,Condo/Co-op,1001 Belleview St #403,Dallas,TX,75215,299000,2,2.0,Beat At The South Side Station,1127,41077,2007,124,265,404,Active,,,http://www.redfin.com/TX/Dallas/1001-Belleview-St-75215/unit-403/home/30788703,NTREIS,13972613,N,Y,32.769071,-96.7948718
MLS Listing,,Single Family Residential,3823 Ridgeoak Way,Farmers Branch,TX,75244,289900,3,2.0,Country Club Estates,2172,10498,1964,1,133,,Active,,,http://www.redfin.com/TX/Farmers-Branch/3823-Ridgeoak-Way-75244/home/31333755,NTREIS,14054788,N,Y,32.920711,-96.85259
MLS Listing,,Single Family Residential,8535 Strathmore Dr,Dallas,TX,75238,259900,4,3.0,Barkley Square,1859,8102,1963,1,140,,Active,,,http://www.redfin.com/TX/Dallas/8535-Strathmore-Dr-75238/home/31045444,NTREIS,14054283,N,Y,32.8655293,-96.6890848
MLS Listing,,Single Family Residential,7130 Hunnicut Cir,Dallas,TX,75227,296000,3,2.5,Buckner Terrace,2455,15072,1970,1,121,,Active,,,http://www.redfin.com/TX/Dallas/7130-Hunnicut-Cir-75227/home/30907907,NTREIS,14054207,N,Y,32.7851768,-96.7126514
MLS Listing,,Single Family Residential,549 Kirkwood Dr,Dallas,TX,75218,289900,3,1.0,Lake Highlands Estates,1152,8189,1954,1,252,,Active,,,http://www.redfin.com/TX/Dallas/549-Kirkwood-Dr-75218/home/30908515,NTREIS,14054363,N,Y,32.8520384,-96.7083153
MLS Listing,,Single Family Residential,5815 Smoke Glass Trl,Dallas,TX,75252,289000,3,2.0,Bent Trail Add Ph Two,1751,8712,1981,1,165,10,Active,,,http://www.redfin.com/TX/Dallas/5815-Smoke-Glass-Trl-75252/home/31848055,NTREIS,14054738,N,Y,33.0105911,-96.8079296
MLS Listing,,Condo/Co-op,3400 Welborn St #420,Dallas,TX,75219,257400,1,1.0,Wyndemere Condo,936,71569,1998,1,275,492,Active,,,http://www.redfin.com/TX/Dallas/3400-Welborn-St-75219/unit-420/home/32198809,NTREIS,14052835,N,Y,32.8099817,-96.8055298
MLS Listing,,Single Family Residential,1808 Lansford Ave,Dallas,TX,75224,259000,4,2.0,Elmwood 4,1210,15246,1950,1,214,,Active,,,http://www.redfin.com/TX/Dallas/1808-Lansford-Ave-75224/home/30850086,NTREIS,14054341,N,Y,32.7283839,-96.8498516
MLS Listing,,Condo/Co-op,3400 Welborn St #404,Dallas,TX,75219,259000,1,1.5,Wyndemere Condo,937,71569,1998,1,276,492,Active,,,http://www.redfin.com/TX/Dallas/3400-Welborn-St-75219/unit-404/home/32198881,NTREIS,14040356,N,Y,32.8099817,-96.8055298
MLS Listing,,Single Family Residential,8740 Coppertowne Ln,Dallas,TX,75243,259900,2,2.0,Copperfield Homes,1429,4138,1996,1,182,100,Active,,,http://www.redfin.com/TX/Dallas/8740-Coppertowne-Ln-75243/home/31152627,NTREIS,14054387,N,Y,32.898068,-96.721645
MLS Listing,,Single Family Residential,207 S Briscoe Blvd,Dallas,TX,75211,269000,2,1.0,Ravinia Heights,1260,7187,1928,1,213,,Active,,,http://www.redfin.com/TX/Dallas/207-S-Briscoe-Blvd-75211/home/30838647,NTREIS,14054015,N,Y,32.7438743,-96.8658005
MLS Listing,,Single Family Residential,2327 Salerno Dr,Dallas,TX,75224,250000,4,2.0,Wynnewood,2000,10716,1946,1,125,,Active,,,http://www.redfin.com/TX/Dallas/2327-Salerno-Dr-75224/home/30892677,NTREIS,14051015,N,Y,32.7195075,-96.8349115
MLS Listing,,Single Family Residential,9917 Windledge Dr,Dallas,TX,75238,250000,3,2.0,Lake North Estates,1601,8886,1962,1,156,,Active,March-30-2019 01:00 PM,March-30-2019 03:00 PM,http://www.redfin.com/TX/Dallas/9917-Windledge-Dr-75238/home/31061929,NTREIS,14050512,N,Y,32.8846133,-96.7151591
MLS Listing,,Single Family Residential,2539 Hillsboro Ave,Dallas,TX,75228,290000,4,2.5,Cloverdale 07,1438,7536,1957,1,202,,Active,March-30-2019 02:00 PM,March-30-2019 04:00 PM,http://www.redfin.com/TX/Dallas/2539-Hillsboro-Ave-75228/home/31002905,NTREIS,14046558,N,Y,32.8161975,-96.6716942
MLS Listing,,Single Family Residential,6203 Shannon Rd,Mesquite,TX,75181,274900,4,2.0,Sa Haught Abs 567,2241,43560,1950,2,123,,Active,,,http://www.redfin.com/TX/Mesquite/6203-Shannon-Rd-75181/home/32133471,NTREIS,14050972,N,Y,32.6970115,-96.5595107
MLS Listing,,Single Family Residential,13639 Willow Bend Rd,Dallas,TX,75240,285000,3,2.0,Spring Valley Park 03,1681,8494,1969,2,170,,Active,,,http://www.redfin.com/TX/Dallas/13639-Willow-Bend-Rd-75240/home/31026264,NTREIS,14053776,N,Y,32.9348414,-96.7704373
MLS Listing,,Single Family Residential,2840 Catherine St,Dallas,TX,75211,289000,2,1.5,Sunset View Rev,1388,11108,1935,2,208,,Active,,,http://www.redfin.com/TX/Dallas/2840-Catherine-St-75211/home/30846631,NTREIS,14053064,N,Y,32.7379729,-96.8679693
MLS Listing,,Single Family Residential,6083 Mapleshade Ln,Dallas,TX,75252,250000,2,2.0,Lloyd Add Tr 8,1448,3485,1992,2,173,,Active,March-31-2019 02:00 PM,March-31-2019 04:00 PM,http://www.redfin.com/TX/Dallas/6083-Mapleshade-Ln-75252/home/32052476,NTREIS,14050772,N,Y,33.0069184,-96.8002076
MLS Listing,,Single Family Residential,2841 W 12th St,Dallas,TX,75211,300000,3,2.0,Ravinia Heights,1578,7231,1926,2,190,,Active,March-30-2019 02:00 PM,March-30-2019 04:00 PM,http://www.redfin.com/TX/Dallas/2841-W-12th-St-75211/home/30838751,NTREIS,14048070,N,Y,32.7414907,-96.8672458
MLS Listing,,Single Family Residential,2527 Alden Ave,Dallas,TX,75211,269000,2,1.0,Kessler Plaza,1024,7100,1952,2,263,,Active,,,http://www.redfin.com/TX/Dallas/2527-Alden-Ave-75211/home/30847043,NTREIS,14051388,N,Y,32.7424648,-96.860165
MLS Listing,,Single Family Residential,18335 Justice Ln,Dallas,TX,75287,279900,3,2.0,Liberty Hill Addition,2016,5663,1993,2,139,,Active,March-30-2019 02:00 PM,March-30-2019 04:00 PM,http://www.redfin.com/TX/Dallas/18335-Justice-Ln-75287/home/32833127,NTREIS,14044555,N,Y,33.0026561,-96.8605012
MLS Listing,,Single Family Residential,942 Channing Cir,Dallas,TX,75224,260000,4,2.5,Southern Hills,2404,14549,1960,2,108,,Active,,,http://www.redfin.com/TX/Dallas/942-Channing-Cir-75224/home/30894573,NTREIS,14047213,N,Y,32.692301,-96.8389943
MLS Listing,,Single Family Residential,630 W Neely St,Dallas,TX,75208,285000,3,2.0,Terrace Gardens Rev,1415,5358,2004,2,201,,Active,,,http://www.redfin.com/TX/Dallas/630-W-Neely-St-75208/home/30829969,NTREIS,14053016,N,Y,32.7500836,-96.8329094
MLS Listing,,Single Family Residential,508 Brook Valley Ln,Dallas,TX,75232,294500,5,2.5,Glen Oaks,2316,12110,1962,2,127,,Active,,,http://www.redfin.com/TX/Dallas/508-Brook-Valley-Ln-75232/home/30953622,NTREIS,14052884,N,Y,32.6813578,-96.8322735
MLS Listing,,Single Family Residential,17924 Hillcrest Rd,Dallas,TX,75252,285000,3,2.0,Preston Road Highlands,1756,6970,1984,3,162,,Active,,,http://www.redfin.com/TX/Dallas/17924-Hillcrest-Rd-75252/home/32162416,NTREIS,14051215,N,Y,32.9954402,-96.7842224
MLS Listing,,Single Family Residential,18101 Justice Ln,Dallas,TX,75287,299900,3,2.5,Sheffield School Add,1887,9235,2016,3,159,,Active,,,http://www.redfin.com/TX/Dallas/18101-Justice-Ln-75287/home/59369094,NTREIS,14052415,N,Y,33.0006468,-96.8628052
MLS Listing,,Condo/Co-op,4040 AVONDALE #303,Dallas,TX,75219,285000,2,2.0,AVONDALE GARDENS,1262,,1985,3,226,350,Active,,,http://www.redfin.com/TX/Dallas/4040-Avondale-Ave-75219/unit-303/home/147470585,NTREIS,14052257,N,Y,32.8174953,-96.807442
MLS Listing,,Single Family Residential,8627 Charing Cross Ln,Dallas,TX,75238,259000,3,2.0,Barkley Square,1390,8886,1963,3,186,,Active,,,http://www.redfin.com/TX/Dallas/8627-Charing-Cross-Ln-75238/home/31044639,NTREIS,14052094,N,Y,32.8670713,-96.6894386
MLS Listing,,Condo/Co-op,4040 N Hall St #312,Dallas,TX,75219,300000,2,2.0,Haven Condos,1281,37549,2006,3,234,223,Active,,,http://www.redfin.com/TX/Dallas/4040-N-Hall-St-75219/unit-312/home/30783012,NTREIS,14051175,N,Y,32.8125031,-96.8103013
MLS Listing,,Single Family Residential,102 N Hampton Rd,Dallas,TX,75208,289000,3,2.0,Dean & Beckers Add,1368,5445,1950,4,211,,Active,,,http://www.redfin.com/TX/Dallas/102-N-Hampton-Rd-75208/home/30847342,NTREIS,14051532,N,Y,32.7453814,-96.8565113
MLS Listing,,Condo/Co-op,5816 Birchbrook Dr #223,Dallas,TX,75206,289000,2,2.0,Veneto 01 Condo,1225,138826,1970,4,236,,Active,,,http://www.redfin.com/TX/Dallas/5816-Birchbrook-Dr-75206/unit-223/home/30789215,NTREIS,14050809,N,Y,32.8472428,-96.7674
MLS Listing,,Single Family Residential,2020 Millmar Dr,Dallas,TX,75228,269000,4,3.0,Ferguson Heights 03 Sec 02,2110,7579,1958,4,127,,Active,,,http://www.redfin.com/TX/Dallas/2020-Millmar-Dr-75228/home/31014556,NTREIS,14049520,N,Y,32.8262931,-96.6809997
MLS Listing,,Single Family Residential,18922 Whitewater Ln,Dallas,TX,75287,295000,3,2.0,Northpointe,1997,5227,1983,4,148,,Active,March-30-2019 01:00 PM,March-30-2019 03:00 PM,http://www.redfin.com/TX/Dallas/18922-Whitewater-Ln-75287/home/31998465,NTREIS,14050447,N,Y,33.008619,-96.832432
MLS Listing,,Condo/Co-op,6109 Bandera Ave Unit 6109C,Dallas,TX,75225,258400,2,2.0,Park Deville Condo,1360,38159,1955,4,190,411,Active,March-31-2019 11:00 AM,March-31-2019 01:00 PM,http://www.redfin.com/TX/Dallas/6109-Bandera-Ave-75225/unit-6109C/home/30873535,NTREIS,14049377,N,Y,32.867616,-96.8030516
MLS Listing,,Condo/Co-op,6211 W Northwest Hwy Unit G511,Dallas,TX,75225,250000,1,1.0,Preston Tower Condo,758,,1966,4,330,575,Active,March-30-2019 02:00 PM,March-30-2019 04:00 PM,http://www.redfin.com/TX/Dallas/6211-West-Northwest-Hwy-75225/unit-G511/home/160758959,NTREIS,14051196,N,Y,32.8662169,-96.800016
MLS Listing,,Condo/Co-op,2222 N Moser Rd #103,Dallas,TX,75206,299900,1,1.5,Vibrant on Moser,1197,871,2018,4,251,145,Active,March-31-2019 01:00 PM,March-31-2019 03:00 PM,http://www.redfin.com/TX/Dallas/2222-Moser-Ave-75206/unit-103/home/160758556,NTREIS,14051072,N,Y,32.8133064,-96.7782076
MLS Listing,,Single Family Residential,9108 San Fernando Way,Dallas,TX,75218,289950,4,2.5,Broadvu Annex Add,1717,9365,1941,5,169,,Active,,,http://www.redfin.com/TX/Dallas/9108-San-Fernando-Way-75218/home/30861443,NTREIS,14050656,N,Y,32.8271396,-96.7061944
MLS Listing,,Vacant Land,4518 Newmore Ave,Dallas,TX,75209,250000,0,,Greenway Terrace,,7187,1945,5,,,Active,,,http://www.redfin.com/TX/Dallas/4518-Newmore-Ave-75209/home/30854177,NTREIS,14050710,N,Y,32.8492358,-96.832263
MLS Listing,,Condo/Co-op,3015 Bryan St Unit 3C,Dallas,TX,75204,275000,1,1.5,Bryan Street Station Condos,933,50486,2004,5,295,300,Active,,,http://www.redfin.com/TX/Dallas/3015-Bryan-St-75204/unit-3C/home/30745453,NTREIS,14050295,N,Y,32.7919019,-96.7881765
MLS Listing,,Single Family Residential,4263 S Cresthaven Rd,Dallas,TX,75209,295000,2,1.0,Airway Heights,1076,7100,1942,5,274,,Active,,,http://www.redfin.com/TX/Dallas/4263-S-Cresthaven-Rd-75209/home/30854252,NTREIS,14050136,N,Y,32.850186,-96.8372227
MLS Listing,,Single Family Residential,724 W 7th St,Dallas,TX,75208,300000,3,2.0,Bryan George J Rev,1666,5750,1930,5,180,,Active,,,http://www.redfin.com/TX/Dallas/724-W-7th-St-75208/home/30827527,NTREIS,14049859,N,Y,32.7487365,-96.835086
MLS Listing,,Single Family Residential,2203 Healey Dr,Dallas,TX,75228,275000,4,2.0,Ferguson Heights 03 Rev,1718,17250,1957,5,160,,Active,,,http://www.redfin.com/TX/Dallas/2203-Healey-Dr-75228/home/31014666,NTREIS,14049345,N,Y,32.8250951,-96.6787857
MLS Listing,,Single Family Residential,7921 Vista Hill Ln,Dallas,TX,75249,250000,4,2.5,Mountain Vista Sec B,2176,3703,2002,7,115,23,Active,,,http://www.redfin.com/TX/Dallas/7921-Vista-Hill-Ln-75249/home/32259310,NTREIS,14048813,N,Y,32.6558699,-96.9615548
MLS Listing,,Single Family Residential,630 N Casa Grande Cir,Duncanville,TX,75116,269000,4,2.5,Winona Gardens,2468,40685,1984,8,109,,Active,,,http://www.redfin.com/TX/Duncanville/630-N-Casa-Grande-Cir-75116/home/32114764,NTREIS,14048599,N,Y,32.6610802,-96.9376661
MLS Listing,,Condo/Co-op,1122 Jackson St #502,Dallas,TX,75202,289900,1,1.0,Soco Urban Loft Condo,1411,,1925,8,205,550,Active,,,http://www.redfin.com/TX/Dallas/1122-Jackson-St-75202/unit-502/home/30765024,NTREIS,14049194,N,Y,32.7782672,-96.8024429
MLS Listing,,Single Family Residential,1404 Michigan Ave,Dallas,TX,75216,299900,4,2.0,Cedar Oaks Add Sec 2,2210,8233,1939,8,136,5,Active,,,http://www.redfin.com/TX/Dallas/1404-Michigan-Ave-75216/home/30835332,NTREIS,14031573,N,Y,32.731089,-96.8165316
MLS Listing,,Single Family Residential,11215 Flamingo Ln,Dallas,TX,75218,259000,2,1.5,Lochwood,1176,7536,1955,8,220,,Active,,,http://www.redfin.com/TX/Dallas/11215-Flamingo-Ln-75218/home/30863796,NTREIS,14048144,N,Y,32.8538758,-96.6868901
MLS Listing,,Single Family Residential,8915 Flicker Ln,Dallas,TX,75238,289900,3,2.0,Lakeland Hills 02,1614,9670,1969,8,180,,Active,,,http://www.redfin.com/TX/Dallas/8915-Flicker-Ln-75238/home/31023811,NTREIS,14048615,N,Y,32.8699788,-96.689188
MLS Listing,,Single Family Residential,10815 Middle Knoll Dr,Dallas,TX,75238,299900,4,2.0,Kingsley Meadows 02 Rev,2109,6839,1973,8,142,,Active,,,http://www.redfin.com/TX/Dallas/10815-Middle-Knoll-Dr-75238/home/31022067,NTREIS,14033071,N,Y,32.8761663,-96.6972937
MLS Listing,,Single Family Residential,6220 N Jim Miller Rd,Dallas,TX,75228,289000,4,3.0,Buckner Terrace 06 Sec 03 Inst,3040,8625,1964,8,95,,Active,,,http://www.redfin.com/TX/Dallas/6220-N-Jim-Miller-Rd-75228/home/31103653,NTREIS,14047198,N,Y,32.800334,-96.6951
MLS Listing,,Single Family Residential,8064 Vista Hill Ln,Dallas,TX,75249,285000,4,2.5,Mountain Hollow Ph 01,3141,7579,2012,9,91,23,Active,,,http://www.redfin.com/TX/Dallas/8064-Vista-Hill-Ln-75249/home/30782171,NTREIS,14047276,N,Y,32.655344,-96.9664565
MLS Listing,,Single Family Residential,4906 Meadow Vista Pl,Garland,TX,75043,275000,3,2.0,Highcrest,1785,6926,1984,9,154,,Active,,,http://www.redfin.com/TX/Garland/4906-Meadow-Vista-Pl-75043/home/31405208,NTREIS,14046163,N,Y,32.8496171,-96.5568006
MLS Listing,,Single Family Residential,8706 Kingspoint Dr,Dallas,TX,75238,298000,3,2.0,Barkley Square,1666,7275,1963,9,179,,Active,,,http://www.redfin.com/TX/Dallas/8706-Kingspoint-Dr-75238/home/31044744,NTREIS,14048035,N,Y,32.8678654,-96.6856577
MLS Listing,,Single Family Residential,7215 Dalewood Ln,Dallas,TX,75214,289900,3,1.5,Mockingbird Meadows,1188,8973,1954,9,244,,Active,,,http://www.redfin.com/TX/Dallas/7215-Dalewood-Ln-75214/home/30823369,NTREIS,14047175,N,Y,32.848567,-96.7376285
MLS Listing,,Condo/Co-op,4040 N Hall St #113,Dallas,TX,75219,299000,2,2.0,Haven Condo,1431,37549,2006,9,209,256,Active,,,http://www.redfin.com/TX/Dallas/4040-N-Hall-St-75219/unit-113/home/30782954,NTREIS,14044506,N,Y,32.8125019,-96.8103024
MLS Listing,,Single Family Residential,4130 Rupert St,Dallas,TX,75212,250000,4,2.0,Colonia Weisenberger,2141,10019,2000,9,117,,Active,,,http://www.redfin.com/TX/Dallas/4130-Rupert-St-75212/home/32214831,NTREIS,14047352,N,Y,32.7915949,-96.8682513
MLS Listing,,Single Family Residential,1323 Bow Creek Dr,Duncanville,TX,75116,269000,4,2.5,Irwin Keasler Dev Red Bird 06,2644,22303,1974,9,102,,Active,,,http://www.redfin.com/TX/Duncanville/1323-Bow-Creek-Dr-75116/home/32077481,NTREIS,14045932,N,Y,32.6751899,-96.92475
MLS Listing,,Townhouse,7502 Woodthrush Dr #25,Dallas,TX,75230,295000,2,2.5,Pagewood townhouses,1530,,1969,10,193,113,Active,March-30-2019 12:00 PM,March-30-2019 02:00 PM,http://www.redfin.com/TX/Dallas/7502-Woodthrush-Dr-75230/unit-25/home/30990475,NTREIS,14046788,N,Y,32.8888449,-96.7767886
MLS Listing,,Single Family Residential,8728 Forest Green Dr,Dallas,TX,75243,265000,3,2.0,Northwood Heights,1565,7928,1964,10,169,,Active,,,http://www.redfin.com/TX/Dallas/8728-Forest-Green-Dr-75243/home/31027529,NTREIS,14047526,N,Y,32.9083758,-96.7521384
MLS Listing,,Single Family Residential,2543 Lewiston Ave,Dallas,TX,75227,250000,3,2.0,Scyene Park Estates,1948,11805,2019,10,128,,Active,,,http://www.redfin.com/TX/Dallas/2543-Lewiston-Ave-75227/home/30944311,NTREIS,14047519,N,Y,32.756816,-96.650665
MLS Listing,,Townhouse,2100 Azure Pointe,Richardson,TX,75080,284000,2,2.0,Lake Park Estates 01 & Univ Wrld R,1497,1437,2006,10,190,253,Active,,,http://www.redfin.com/TX/Richardson/2100-Azure-Pointe-75080/home/30779076,NTREIS,14046826,N,Y,32.9802776,-96.764866
MLS Listing,,Single Family Residential,1229 Ridgeway Dr,Richardson,TX,75080,284000,3,2.0,Richardson Heights Instl 07 Sec 04,1753,7492,1959,11,162,,Active,,,http://www.redfin.com/TX/Richardson/1229-Ridgeway-Dr-75080/home/31958441,NTREIS,14038241,N,Y,32.9431912,-96.7606703
MLS Listing,,Condo/Co-op,3225 Turtle Creek Blvd #420,Dallas,TX,75219,285000,2,2.0,Renaissance On Turtle Creek Condominiums,1154,154202,1998,11,247,669,Active,,,http://www.redfin.com/TX/Dallas/3225-Turtle-Creek-Blvd-75219/unit-420/home/30746061,NTREIS,14046486,N,Y,32.8066148,-96.8038366
MLS Listing,,Condo/Co-op,1122 Jackson St #512,Dallas,TX,75202,285000,1,1.0,Soco Urban Loft Condo,1097,,1925,11,260,427,Active,,,http://www.redfin.com/TX/Dallas/1122-Jackson-St-75202/unit-512/home/30765402,NTREIS,14046392,N,Y,32.7782672,-96.8024429
MLS Listing,,Single Family Residential,9807 Matchpoint Pl,Dallas,TX,75243,250000,3,2.0,Patio Homes Chimney Hill 01 Inst,2209,3615,1975,11,113,200,Active,March-31-2019 01:00 PM,March-31-2019 03:00 PM,http://www.redfin.com/TX/Dallas/9807-Matchpoint-Pl-75243/home/31109367,NTREIS,14045678,N,Y,32.9139401,-96.7302284
MLS Listing,,Single Family Residential,417 Easton Rd,Dallas,TX,75218,295000,3,1.0,Lake Highlands Estates,1117,8233,1954,12,264,,Active,March-30-2019 01:00 AM,March-30-2019 03:00 PM,http://www.redfin.com/TX/Dallas/417-Easton-Rd-75218/home/30908610,NTREIS,14045087,N,Y,32.8581628,-96.7059437
MLS Listing,,Single Family Residential,5621 Bandit Dr,Dallas,TX,75249,267000,4,2.0,Mountain Terrace,2628,7536,2004,12,102,23,Active,,,http://www.redfin.com/TX/Dallas/5621-Bandit-Dr-75249/home/30744500,NTREIS,14043429,N,Y,32.6578847,-96.9699673
MLS Listing,,Condo/Co-op,4605 Cedar Springs Rd #311,Dallas,TX,75219,255000,1,1.0,Westside Condos,1120,96180,2005,13,228,331,Active,,,http://www.redfin.com/TX/Dallas/4605-Cedar-Springs-Rd-75219/unit-311/home/30765825,NTREIS,14044760,N,Y,32.8174872,-96.8194223
MLS Listing,,Single Family Residential,5812 Elm Lawn St,Dallas,TX,75228,299900,3,2.0,Buckner Terrace 04 Sec 03 Inst,2087,8059,1964,14,144,,Active,April-6-2019 01:00 PM,April-6-2019 03:00 PM,http://www.redfin.com/TX/Dallas/5812-Elm-Lawn-St-75228/home/31102421,NTREIS,14034228,N,Y,32.7966222,-96.7025588
MLS Listing,,Single Family Residential,2243 Homeway Cir,Dallas,TX,75228,257000,3,2.0,Hillview Terrace Sec 02,1844,8320,1969,14,139,,Active,,,http://www.redfin.com/TX/Dallas/2243-Homeway-Cir-75228/home/31011022,NTREIS,14044413,N,Y,32.8095026,-96.67582
MLS Listing,,Single Family Residential,807 Napier Dr,Richardson,TX,75081,295000,4,2.0,Richland Manor Rep,2026,9017,1978,15,146,,Active,,,http://www.redfin.com/TX/Richardson/807-Napier-Dr-75081/home/31971386,NTREIS,14040337,N,Y,32.9327926,-96.7113348
MLS Listing,,Single Family Residential,3568 Virginia Blvd,Dallas,TX,75211,289900,3,2.0,Keiths Richmond Hill Add,1557,9278,1946,15,186,,Active,March-30-2019 02:00 PM,March-30-2019 03:00 PM,http://www.redfin.com/TX/Dallas/3568-Virginia-Blvd-75211/home/30847440,NTREIS,14042655,N,Y,32.7390454,-96.8790192
MLS Listing,,Single Family Residential,4729 Paradise Cv,Garland,TX,75043,297000,4,3.5,Highport Estates,3157,7405,2004,15,94,28,Active,March-30-2019 02:00 PM,March-30-2019 04:00 PM,http://www.redfin.com/TX/Garland/4729-Paradise-Cv-75043/home/30733993,NTREIS,14043588,N,Y,32.8611021,-96.5581973
MLS Listing,,Condo/Co-op,3617 Routh St Unit D,Dallas,TX,75219,274700,1,1.5,Soho Square Condos,1017,12632,1984,15,270,225,Active,,,http://www.redfin.com/TX/Dallas/3617-Routh-St-75219/unit-D/home/31186601,NTREIS,14043783,N,Y,32.8040194,-96.8116423
MLS Listing,,Single Family Residential,5712 Hudson St,Dallas,TX,75206,299900,3,1.0,Mary Street,1042,3877,1994,15,288,,Active,,,http://www.redfin.com/TX/Dallas/5712-Hudson-St-75206/home/31122713,NTREIS,14037116,N,Y,32.8098259,-96.7679022
MLS Listing,,Single Family Residential,3412 Old Colony Rd,Dallas,TX,75233,299900,3,2.5,Kimball Square,1822,10977,1962,16,165,,Active,,,http://www.redfin.com/TX/Dallas/3412-Old-Colony-Rd-75233/home/30901670,NTREIS,14042230,N,Y,32.6950221,-96.8763794
MLS Listing,,Single Family Residential,2104 Azure Pointe,Richardson,TX,75080,285000,2,2.0,Lake Park Estates 01 & Univ Wrld R,1485,1307,2006,16,192,217,Active,,,http://www.redfin.com/TX/Richardson/2104-Azure-Pointe-75080/home/30779077,NTREIS,14042332,N,Y,32.9804046,-96.7648648
MLS Listing,,Condo/Co-op,6211 W Northwest Hwy #906,Dallas,TX,75225,275000,2,2.0,Preston Tower Condo,1132,185478,1966,16,243,846,Active,,,http://www.redfin.com/TX/Dallas/6211-West-Northwest-Hwy-75225/unit-906/home/147434343,NTREIS,14042038,N,Y,32.8662185,-96.8000193
MLS Listing,,Single Family Residential,10244 Newcombe Dr,Dallas,TX,75228,299900,3,2.0,Eastridge Park,1668,7144,2019,17,180,,Active,,,http://www.redfin.com/TX/Dallas/10244-Newcombe-Dr-75228/home/30862976,NTREIS,14032089,N,Y,32.8327901,-96.6815324
MLS Listing,,Condo/Co-op,3225 Turtle Creek Blvd #607,Dallas,TX,75219,270000,2,2.0,Renaissance On Turtle Creek Condo,1162,154028,1998,17,232,672,Active,,,http://www.redfin.com/TX/Dallas/3225-Turtle-Creek-Blvd-75219/unit-607/home/146679372,NTREIS,14042278,N,Y,32.8067511,-96.8047905
MLS Listing,,Single Family Residential,9111 Clearwater Dr,Dallas,TX,75243,299000,3,2.0,Northwood Estates,1728,8712,1958,17,173,,Active,,,http://www.redfin.com/TX/Dallas/9111-Clearwater-Dr-75243/home/31028735,NTREIS,14031329,N,Y,32.9002707,-96.7520503
MLS Listing,,Single Family Residential,2606 Jim Loftin Rd,Dallas,TX,75224,250000,3,2.0,Summit Lawn,1455,9453,1948,17,172,,Active,,,http://www.redfin.com/TX/Dallas/2606-Jim-Loftin-Rd-75224/home/30898252,NTREIS,14034279,N,Y,32.7192038,-96.8404809
MLS Listing,,Single Family Residential,4220 Osborn Rd,Dallas,TX,75227,299900,4,3.0,Everglade Park 5th Sec,2716,7536,1989,17,110,,Active,,,http://www.redfin.com/TX/Dallas/4220-Osborn-Rd-75227/home/31139621,NTREIS,14042011,N,Y,32.7869386,-96.6940763
MLS Listing,,Condo/Co-op,4241 Buena Vista St #1,Dallas,TX,75205,289900,1,1.5,Buena Vista Street Condo 4241,1134,28009,1994,17,256,337,Active,,,http://www.redfin.com/TX/Dallas/4241-Buena-Vista-St-75205/unit-1/home/30729159,NTREIS,14036331,N,Y,32.8180758,-96.7946501
MLS Listing,,Condo/Co-op,6141 Bandera Ave Unit A,Dallas,TX,75225,275000,2,2.0,Park Soverign Condominiums,1384,13068,1957,18,199,506,Active,,,http://www.redfin.com/TX/Dallas/6141-Bandera-Ave-75225/unit-A/home/108459459,NTREIS,14039156,N,Y,32.86756,-96.8016825
MLS Listing,,Single Family Residential,911 S Waverly Dr,Dallas,TX,75208,295000,3,2.0,Sunset Hill Rev,1615,6970,1936,18,183,,Active,,,http://www.redfin.com/TX/Dallas/911-S-Waverly-Dr-75208/home/30830730,NTREIS,14041685,N,Y,32.73666,-96.8494327
MLS Listing,,Condo/Co-op,7640 W Greenway Blvd Unit 7K,Dallas,TX,75209,252500,2,2.0,Inwood Crossroads Condo,1137,100406,1983,18,222,404,Active,,,http://www.redfin.com/TX/Dallas/7640-W-Greenway-Blvd-75209/unit-7K/home/31173745,NTREIS,14041403,N,Y,32.8489337,-96.8188889
MLS Listing,,Condo/Co-op,3225 Turtle Creek Blvd #46,Dallas,TX,75219,269000,2,2.0,Renaissance On Turtle Creek Condo,1154,154028,1998,19,233,667,Active,,,http://www.redfin.com/TX/Dallas/3225-Turtle-Creek-Blvd-75219/unit-46/home/30745707,NTREIS,14040821,N,Y,32.8066148,-96.8038366
MLS Listing,,Single Family Residential,4004 Lawngate Dr,Dallas,TX,75287,290000,3,2.5,REGENCY PARK NO 2,2335,2178,1985,19,124,,Active,,,http://www.redfin.com/TX/Dallas/4004-Lawngate-Dr-75287/home/31923775,NTREIS,14040727,N,Y,33.0029719,-96.843182
MLS Listing,,Vacant Land,2800 Maple Springs Blvd,Dallas,TX,75235,295000,0,,Oak Lawn Heights,,24437,,19,,,Active,,,http://www.redfin.com/TX/Dallas/2800-Maple-Springs-Blvd-75235/home/30813553,NTREIS,14040456,N,Y,32.8165819,-96.8258479
MLS Listing,,Single Family Residential,3606 Marsh Lane Pl,Dallas,TX,75220,288000,4,2.5,Brownwood Park,2156,7187,1954,19,134,,Active,,,http://www.redfin.com/TX/Dallas/3606-Marsh-Ln-Pl-75220/home/30909357,NTREIS,14040258,N,Y,32.8796035,-96.8575899
MLS Listing,,Vacant Land,4902 Linnet Ln,Dallas,TX,75209,265000,0,,Shannon Estates,,8320,1948,20,,,Active,,,http://www.redfin.com/TX/Dallas/4902-Linnet-Ln-75209/home/30881434,NTREIS,14040203,N,Y,32.8430984,-96.8272072
MLS Listing,,Single Family Residential,2626 Alden Ave,Dallas,TX,75211,294999,3,2.0,Terry Heights,1423,8102,1958,20,207,,Active,,,http://www.redfin.com/TX/Dallas/2626-Alden-Ave-75211/home/30847652,NTREIS,14013734,N,Y,32.7420246,-96.8623356
MLS Listing,,Single Family Residential,18676 Park Grove Ln,Dallas,TX,75287,294500,3,2.0,Highlands Pkwy,1415,7405,1986,20,208,,Active,March-30-2019 01:00 PM,March-30-2019 03:00 PM,http://www.redfin.com/TX/Dallas/18676-Park-Grove-Ln-75287/home/32016208,NTREIS,14030010,N,Y,33.0045058,-96.8395596
MLS Listing,,Single Family Residential,2011 Morris St,Dallas,TX,75212,255000,3,2.5,Victory Gardens 05 Sec 02,1420,3180,2016,21,180,,Active,,,http://www.redfin.com/TX/Dallas/2011-Morris-St-75212/home/30976128,NTREIS,14039934,N,Y,32.7836439,-96.8540086
MLS Listing,,Single Family Residential,416 E Liberty St,Pilot Point,TX,76258,289950,3,2.5,Whites Add,1966,11021,2019,21,147,,Active,,,http://www.redfin.com/TX/Dallas/Liberty-St-Unknown/home/144102641,NTREIS,14037111,N,Y,32.790593,-96.788166
MLS Listing,,Single Family Residential,3217 Wake St,Dallas,TX,75212,288000,2,1.0,Heights Macarthur,922,5401,1952,21,312,,Active,,,http://www.redfin.com/TX/Dallas/3217-Wake-St-75212/home/30971931,NTREIS,14034840,N,Y,32.781211,-96.8294713
MLS Listing,,Single Family Residential,8540 Van Pelt Dr,Dallas,TX,75228,290000,3,2.0,White Rock Village 02,1960,7623,1976,22,148,,Active,,,http://www.redfin.com/TX/Dallas/8540-Van-Pelt-Dr-75228/home/31010460,NTREIS,14037615,N,Y,32.8033254,-96.6916739
MLS Listing,,Single Family Residential,3534 Peterborough Mews,Dallas,TX,75236,298340,3,2.0,Capella Park,1768,11021,2019,22,169,63,Active,,,http://www.redfin.com/TX/Dallas/3534-Peterborough-Mews-75236/home/30782467,NTREIS,14039448,N,Y,32.699455,-96.947625
MLS Listing,,Single Family Residential,8405 Creekwood Dr,Dallas,TX,75228,275000,3,2.0,Forest Oaks 01 Resub,1321,15115,1984,22,208,,Active,March-30-2019 02:00 PM,March-30-2019 04:00 PM,http://www.redfin.com/TX/Dallas/8405-Creekwood-Dr-75228/home/30966276,NTREIS,14031558,N,Y,32.8108697,-96.7085347
MLS Listing,,Single Family Residential,3714 Davila Dr,Dallas,TX,75220,299000,3,1.0,Ridgecrest Village Add,1148,7362,1950,22,260,,Active,March-31-2019 01:00 PM,March-31-2019 03:00 PM,http://www.redfin.com/TX/Dallas/3714-Davila-Dr-75220/home/30911087,NTREIS,14037192,N,Y,32.8679073,-96.8554327
MLS Listing,,Condo/Co-op,6138 Bandera Ave Unit 6138C,Dallas,TX,75225,295000,2,2.0,Villa Serena Condos,1736,,1958,22,170,634,Active,March-31-2019 01:00 PM,March-31-2019 02:30 PM,http://www.redfin.com/TX/Dallas/6138-Bandera-Ave-75225/unit-6138C/home/30873810,NTREIS,14039106,N,Y,32.867289,-96.8018705
MLS Listing,,Single Family Residential,1409 EASTON,Dallas,TX,75218,250900,2,2.0,CASA VALE,1272,7884,1950,22,197,,Active,,,http://www.redfin.com/TX/Dallas/1409-Easton-Rd-75218/home/30862532,NTREIS,14038843,N,Y,32.8409726,-96.6886866
MLS Listing,,Condo/Co-op,4017 Buena Vista St #118,Dallas,TX,75204,299000,2,1.5,4017 Buena Vista,980,20996,1980,22,305,198,Active,,,http://www.redfin.com/TX/Dallas/4017-Buena-Vista-St-75204/unit-118/home/30798924,NTREIS,14037364,N,Y,32.8137819,-96.7968563
MLS Listing,,Single Family Residential,5814 Melville Ln,Forney,TX,75126,272345,4,2.5,Clements Ranch,2045,6098,2019,22,133,50,Active,,,http://www.redfin.com/TX/Forney/5814-Melville-LN-75126/home/160618934,NTREIS,14038822,N,Y,32.79037,-96.489904
MLS Listing,,Single Family Residential,619 S Barnett Ave,Dallas,TX,75211,259000,3,2.0,Bronx Park,1221,6795,1942,22,212,,Active,,,http://www.redfin.com/TX/Dallas/619-S-Barnett-Ave-75211/home/30846744,NTREIS,14030218,N,Y,32.7395747,-96.8717706
MLS Listing,,Single Family Residential,1908 N Willomet Ave,Dallas,TX,75208,280000,3,1.0,Robinson,6400,6403,1940,23,44,,Active,,,http://www.redfin.com/TX/Dallas/1908-N-Willomet-Ave-75208/home/30839268,NTREIS,14038627,N,Y,32.7697148,-96.839099
MLS Listing,,Single Family Residential,3735 Bolivar Dr,Dallas,TX,75220,259000,3,2.0,Hilltop Homes,1228,7928,1951,23,211,,Active,,,http://www.redfin.com/TX/Dallas/3735-Bolivar-Dr-75220/home/30856043,NTREIS,14038498,N,Y,32.865628,-96.8545924
MLS Listing,,Condo/Co-op,2149 Portofino Dr,Rockwall,TX,75032,270000,2,2.0,Watersedge At Lake Ray Hubbard,1248,2526,2006,23,216,268,Active,,,http://www.redfin.com/TX/Rockwall/2149-Portofino-75032/home/33882187,NTREIS,14026760,N,Y,32.8865021,-96.4818097
MLS Listing,,Single Family Residential,5691 Mountain Hollow Dr,Dallas,TX,75249,259900,3,2.0,Mountain Hollow Ph 1,1844,5706,2009,23,141,23,Active,March-31-2019 01:00 PM,March-31-2019 03:00 PM,http://www.redfin.com/TX/Dallas/5691-Mountain-Hollow-Dr-75249/home/30782232,NTREIS,14037236,N,Y,32.658055,-96.9649405
MLS Listing,,Single Family Residential,5807 Melville Ln,Forney,TX,75126,258065,3,2.0,Clements Ranch,1882,6098,2018,23,137,50,Active,,,http://www.redfin.com/TX/Forney/5807-Melville-LN-75126/home/160613590,NTREIS,14038218,N,Y,32.790037,-96.489904
MLS Listing,,Single Family Residential,6008 Barrington Ct,Dallas,TX,75252,299000,2,2.5,Lloyd Tract 8,2134,,1992,23,140,,Active,,,http://www.redfin.com/TX/Dallas/6008-Barrington-Ct-75252/home/32052485,NTREIS,14038177,N,Y,33.007285,-96.8007098
MLS Listing,,Townhouse,7333 Valley View Ln #707,Dallas,TX,75240,299900,2,2.5,White Rock Trail,1350,610,2019,23,222,165,Active,,,http://www.redfin.com/TX/Dallas/7333-Valley-View-Ln-75240/unit-707/home/160613436,NTREIS,14036340,N,Y,32.9269459,-96.7790762
MLS Listing,,Single Family Residential,6931 Chapelridge,Dallas,TX,75249,259214,4,3.0,Summit Parc Ph 02,2816,6403,2003,23,92,27,Active,,,http://www.redfin.com/TX/Dallas/6931-Chapelridge-Dr-75249/home/30731114,NTREIS,14032134,N,Y,32.6576327,-96.9450616
MLS Listing,,Single Family Residential,3379 Sam Rayburn Run,Carrollton,TX,75007,258500,3,2.0,Countryside Sec 1,1895,7100,1978,23,136,,Active,,,http://www.redfin.com/TX/Carrollton/3379-Sam-Rayburn-Run-75007/home/32954859,NTREIS,14037677,N,Y,33.0083039,-96.8676648
MLS Listing,,Single Family Residential,4404 Bessie Dr,Dallas,TX,75211,272500,4,2.0,Las Haciendas 03,1850,9627,1998,24,147,,Active,,,http://www.redfin.com/TX/Dallas/4404-Bessie-Dr-75211/home/31138127,NTREIS,14037414,N,Y,32.7284089,-96.8928483
MLS Listing,,Condo/Co-op,5609 Smu Blvd #407,Dallas,TX,75206,299900,2,2.0,Shelby Residences,1025,28793,2008,24,293,262,Active,,,http://www.redfin.com/TX/Dallas/5609-SMU-Blvd-75206/unit-407/home/110137533,NTREIS,14037360,N,Y,32.842467,-96.7722361
MLS Listing,,Single Family Residential,301 Point Royal Dr,Rowlett,TX,75087,292500,3,2.5,Point Royal,2937,14113,1985,24,100,,Active,March-30-2019 01:00 PM,March-30-2019 03:00 PM,http://www.redfin.com/TX/Rockwall/301-Point-Royal-Dr-75087/home/33918251,NTREIS,14037034,N,Y,32.911121,-96.5056013
MLS Listing,,Vacant Land,1135 Kings Hwy,Dallas,TX,75208,284900,0,,Oak Cliff Annex,,7318,,24,,,Active,,,http://www.redfin.com/TX/Dallas/1135-Kings-Hwy-75208/home/160359137,NTREIS,14035177,N,Y,32.7511436,-96.8404243
MLS Listing,,Single Family Residential,2017 S Tyler St,Dallas,TX,75224,295000,3,2.0,Tyler,1324,9409,1952,25,223,,Active,,,http://www.redfin.com/TX/Dallas/2017-S-Tyler-St-75224/home/30857918,NTREIS,14036592,N,Y,32.72552,-96.8381777
MLS Listing,,Single Family Residential,2117 Seevers Ave,Dallas,TX,75216,269900,5,3.0,Trinity Heights 01,2684,7579,1986,25,101,,Active,,,http://www.redfin.com/TX/Dallas/2117-Seevers-Ave-75216/home/30833393,NTREIS,14035028,N,Y,32.7220561,-96.8219739
MLS Listing,,Condo/Co-op,6211 W Northwest Hwy #506,Dallas,TX,75225,299000,1,2.0,Preston Tower Condo,1132,185522,1966,25,264,863,Active,,,http://www.redfin.com/TX/Dallas/6211-W-Northwest-Hwy-75225/unit-506/home/30874298,NTREIS,14033987,N,Y,32.8657656,-96.8003968
MLS Listing,,Condo/Co-op,1200 Main St #2608,Dallas,TX,75202,269900,2,1.0,Metropolitan 1200 Main Street Condo,880,44997,1974,25,307,420,Active,,,http://www.redfin.com/TX/Dallas/1200-Main-St-75202/unit-2608/home/30776443,NTREIS,14036223,N,Y,32.7800759,-96.8011658
MLS Listing,,Condo/Co-op,2525 Turtle Creek Blvd #111,Dallas,TX,75219,299900,2,2.0,Turtle Creek Gardens Condo,1231,203991,1961,25,244,1005,Active,,,http://www.redfin.com/TX/Dallas/2525-Turtle-Creek-Blvd-75219/unit-111/home/30794624,NTREIS,14034741,N,Y,32.8019809,-96.8091682
MLS Listing,,Single Family Residential,511 Mayrant Dr,Dallas,TX,75224,299900,3,2.5,Wynnewood,1933,12284,1953,25,155,,Active,March-31-2019 02:00 PM,March-31-2019 04:00 PM,http://www.redfin.com/TX/Dallas/511-Mayrant-Dr-75224/home/30892199,NTREIS,14035980,N,Y,32.7310913,-96.8318129
MLS Listing,,Condo/Co-op,12680 Hillcrest Rd #4102,Dallas,TX,75230,298000,3,2.5,Williamsburg Condo Ph 01,1490,,1983,25,200,477,Active,,,http://www.redfin.com/TX/Dallas/12680-Hillcrest-Rd-75230/unit-4102/home/30746562,NTREIS,14022825,N,Y,32.9242563,-96.7859766
MLS Listing,,Single Family Residential,2305 Stone Glen Ln,Carrollton,TX,75007,300000,3,2.0,Highlands Of Carrollton Sec 1,2003,8364,1983,26,150,,Active,March-30-2019 08:00 AM,March-30-2019 08:00 PM,http://www.redfin.com/TX/Carrollton/2305-Stone-Glen-Ln-75007/home/33073002,NTREIS,14034317,N,Y,33.0125066,-96.8652768
MLS Listing,,Condo/Co-op,12660 Hillcrest Rd #3207,Dallas,TX,75230,275000,2,2.0,Williamsburg Condo Ph 02,1416,,1986,26,194,423,Active,,,http://www.redfin.com/TX/Dallas/12660-Hillcrest-Rd-75230/unit-3207/home/30746736,NTREIS,14034494,N,Y,32.9214423,-96.7860416
MLS Listing,,Single Family Residential,2646 Alden Ave,Dallas,TX,75211,289900,2,2.0,Oak Cliff,1614,6882,1959,26,180,,Active,March-30-2019 01:00 PM,March-30-2019 03:00 PM,http://www.redfin.com/TX/Dallas/2646-Alden-Ave-75211/home/30847582,NTREIS,14034755,N,Y,32.7419766,-96.8631822
MLS Listing,,Single Family Residential,2616 Pine St,Dallas,TX,75215,300000,3,2.5,Exline Ellis,2741,6186,2019,28,109,,Active,,,http://www.redfin.com/TX/Dallas/2616-Pine-St-75215/home/30803464,NTREIS,14034398,N,Y,32.757689,-96.758625
MLS Listing,,Townhouse,6859 Anglebluff Cir,Dallas,TX,75248,299000,2,2.0,Prestonwood Hillcrest Twnhs,1744,,1979,28,171,100,Active,April-7-2019 02:00 PM,April-7-2019 04:00 PM,http://www.redfin.com/TX/Dallas/6859-Anglebluff-Cir-75248/home/31080312,NTREIS,14033891,N,Y,32.9657341,-96.7892854
MLS Listing,,Condo/Co-op,4525 Rawlins St,Dallas,TX,75219,299950,2,2.5,Park Place Twnhms Condo,1355,110250,1968,28,221,746,Active,,,http://www.redfin.com/TX/Dallas/4525-Rawlins-St-75219/home/30810459,NTREIS,14034252,N,Y,32.8183744,-96.8155252
MLS Listing,,Condo/Co-op,4111 Cole Ave #38,Dallas,TX,75204,264900,2,2.0,4111 Cole Condos,1090,40859,1985,28,243,377,Active,,,http://www.redfin.com/TX/Dallas/4111-Cole-Ave-75204/unit-38/home/30761679,NTREIS,14029374,N,Y,32.8148043,-96.7935529
MLS Listing,,Single Family Residential,5611 Yellowstone Rd,Dallas,TX,75235,250000,3,2.0,Arlington Park Estate #4,2117,10062,1999,29,118,,Active,,,http://www.redfin.com/TX/Dallas/5611-Yellowstone-Rd-75235/home/30880379,NTREIS,14034141,N,Y,32.8153133,-96.8589094
MLS Listing,,Single Family Residential,2422 Sunset Ave,Dallas,TX,75211,289990,2,1.0,Kessler Plaza,1182,10019,1947,29,245,,Active,,,http://www.redfin.com/TX/Dallas/2422-Sunset-Ave-75211/home/30847074,NTREIS,14033466,N,Y,32.7442014,-96.8578203
MLS Listing,,Single Family Residential,4304 Spring Ave,Dallas,TX,75210,250000,4,3.0,Sunrise Heights 02,2198,7318,2019,29,114,,Active,,,http://www.redfin.com/TX/Dallas/4304-Spring-Ave-75210/home/30805598,NTREIS,14033583,N,Y,32.772384,-96.74458
MLS Listing,,Single Family Residential,623 S Vernon Ave,Dallas,TX,75208,299900,3,2.0,Ruthmede Place,1554,12023,1920,29,193,,Active,,,http://www.redfin.com/TX/Dallas/623-S-Vernon-Ave-75208/home/30827343,NTREIS,14032752,N,Y,32.7392273,-96.8363771
MLS Listing,,Condo/Co-op,6211 W Northwest Hwy #1004,Dallas,TX,75225,283900,2,2.0,Preston Tower Condominium,1130,185522,1966,29,251,846,Active,,,http://www.redfin.com/TX/Dallas/6211-W-Northwest-Hwy-75225/unit-1004/home/30874258,NTREIS,14032210,N,Y,32.8657656,-96.8003968
MLS Listing,,Single Family Residential,6702 La Costa Dr,Rowlett,TX,75088,265000,3,2.5,La Costa Rep,2388,8581,1978,29,111,60,Active,,,http://www.redfin.com/TX/Rowlett/6702-La-Costa-Dr-75088/home/32001988,NTREIS,14030237,N,Y,32.8821702,-96.5377705
MLS Listing,,Single Family Residential,8038 Mountain Knoll Ct,Dallas,TX,75249,289000,4,3.0,Mountain Hollow 01,2710,6534,2015,30,107,23,Active,,,http://www.redfin.com/TX/Dallas/8038-Mountain-Knoll-Ct-75249/home/30782200,NTREIS,14033263,N,Y,32.6560654,-96.9665691
MLS Listing,,Single Family Residential,12111 Amsterdam Rd,Farmers Branch,TX,75234,250000,3,1.5,Chapel Hill 03,1311,7710,1958,30,191,,Active,,,http://www.redfin.com/TX/Farmers-Branch/12111-Amsterdam-Rd-75234/home/31332949,NTREIS,14033045,N,Y,32.9173174,-96.8671621
MLS Listing,,Single Family Residential,7250 Summit Parc Dr,Dallas,TX,75249,265000,4,2.5,Summit Parc 04,2658,5924,2005,30,100,28,Active,March-30-2019 01:00 PM,March-30-2019 03:00 PM,http://www.redfin.com/TX/Dallas/7250-Summit-Parc-Dr-75249/home/30764069,NTREIS,14032453,N,Y,32.6515557,-96.9462642
MLS Listing,,Condo/Co-op,4517 Holland Ave #106,Dallas,TX,75219,259000,2,1.5,Holland Ave Condos 4517,1062,15987,1984,31,244,265,Active,,,http://www.redfin.com/TX/Dallas/4517-Holland-Ave-75219/unit-106/home/148367957,NTREIS,14029460,N,Y,32.8208156,-96.8127642
MLS Listing,,Condo/Co-op,6337 Diamond Head Cir Unit 6337d,Dallas,TX,75225,299000,2,2.0,Diamond Head Condos,2033,91520,1961,31,147,851,Active,,,http://www.redfin.com/TX/Dallas/6337-Diamond-Head-Cir-75225/unit-6337D/home/30873081,NTREIS,14032261,N,Y,32.8663913,-96.7976534
MLS Listing,,Condo/Co-op,15615 Preston Rd #1008,Dallas,TX,75248,263000,2,2.5,Preston Del Norte Villas Condos,1902,265106,1974,31,138,552,Active,,,http://www.redfin.com/TX/Dallas/15615-Preston-Rd-75248/unit-1008/home/31088144,NTREIS,14025127,N,Y,32.9611467,-96.8046857
MLS Listing,,Single Family Residential,1602 Lebanon Ave,Dallas,TX,75208,289000,4,2.0,Guerrants Suburban,1609,8102,1963,31,180,,Active,,,http://www.redfin.com/TX/Dallas/1602-Lebanon-Ave-75208/home/30842066,NTREIS,14031545,N,Y,32.7321914,-96.8470559
MLS Listing,,Condo/Co-op,5565 Preston Oaks Rd #117,Dallas,TX,75254,255900,2,2.0,Springstead Condos,1382,331317,1983,32,185,351,Active,,,http://www.redfin.com/TX/Dallas/5565-Preston-Oaks-Rd-75254/unit-117/home/31186706,NTREIS,14031080,N,Y,32.9432671,-96.8131092
MLS Listing,,Single Family Residential,4316 Cinnabar Dr,Dallas,TX,75227,281499,3,2.0,Buckner Terrace,1912,4182,1971,33,147,,Active,,,http://www.redfin.com/TX/Dallas/4316-Cinnabar-Dr-75227/home/30906257,NTREIS,14030491,N,Y,32.7894765,-96.69627
MLS Listing,,Townhouse,2008 Azure Pointe,Richardson,TX,75080,275000,2,2.0,Lake Park Estates 01 & Univ Wrld R,1485,1307,2006,33,185,267,Active,March-30-2019 08:00 AM,March-30-2019 08:00 PM,http://www.redfin.com/TX/Richardson/2008-Azure-Pointe-75080/home/30772674,NTREIS,14029372,N,Y,32.9798563,-96.7649262
MLS Listing,,Single Family Residential,1923 Lansford Ave,Dallas,TX,75224,284888,2,1.0,Elmwood 02,1325,6839,1950,35,215,,Active,,,http://www.redfin.com/TX/Dallas/1923-Lansford-Ave-75224/home/30843053,NTREIS,14029559,N,Y,32.7282841,-96.8510767
MLS Listing,,Single Family Residential,5514 Nueces Bay Dr,Rowlett,TX,75089,269900,4,2.0,Mariner Park Sec 01,2295,7492,1999,36,118,42,Active,,,http://www.redfin.com/TX/Rowlett/5514-Nueces-Bay-Dr-75089/home/32006931,NTREIS,14025618,N,Y,32.9148291,-96.5492129
MLS Listing,,Single Family Residential,3540 Burlingdell Ave,Dallas,TX,75211,295000,3,2.0,Richmond Hill,1435,9017,1963,36,206,,Active,,,http://www.redfin.com/TX/Dallas/3540-Burlingdell-Ave-75211/home/30847473,NTREIS,14012674,N,Y,32.7366334,-96.8789773
MLS Listing,,Single Family Residential,3043 Rotan Ln,Dallas,TX,75229,269500,3,2.0,Walnut Hills 3rd Inst,1500,8276,1954,36,180,,Active,,,http://www.redfin.com/TX/Dallas/3043-Rotan-Ln-75229/home/30933708,NTREIS,14028500,N,Y,32.8915519,-96.8762747
MLS Listing,,Single Family Residential,120 Cliffdale Ave,Dallas,TX,75211,259900,2,2.0,Ravina Terrace 05,1348,6490,1948,37,193,,Active,,,http://www.redfin.com/TX/Dallas/120-Cliffdale-Ave-75211/home/30847949,NTREIS,14024836,N,Y,32.7457024,-96.8680837
MLS Listing,,Condo/Co-op,3906 Buena Vista St #14,Dallas,TX,75204,299000,2,2.5,Buena Vista Condos 3910,1367,42079,1983,37,219,188,Active,,,http://www.redfin.com/TX/Dallas/3906-Buena-Vista-St-75204/unit-14/home/31163916,NTREIS,14018170,N,Y,32.8115126,-96.7975597
MLS Listing,,Single Family Residential,8620 Westfield Dr,Dallas,TX,75243,290000,3,2.0,Northwood Estates,1747,7928,1981,37,166,,Active,,,http://www.redfin.com/TX/Dallas/8620-Westfield-Dr-75243/home/31028697,NTREIS,14025836,N,Y,32.9004376,-96.7538487
MLS Listing,,Single Family Residential,6906 Prosper St,Dallas,TX,75209,250000,2,1.0,Mount Vernon Heights,823,6665,1944,37,304,,Active,,,http://www.redfin.com/TX/Dallas/6906-Prosper-St-75209/home/30855233,NTREIS,14027011,N,Y,32.8423708,-96.8282853
MLS Listing,,Single Family Residential,2727 San Marcus Ave,Dallas,TX,75228,269000,3,2.0,Andover Hill 03,1352,7623,1954,39,199,,Active,March-31-2019 02:00 PM,March-31-2019 04:00 PM,http://www.redfin.com/TX/Dallas/2727-San-Marcus-Ave-75228/home/30999737,NTREIS,14026112,N,Y,32.8314215,-96.6670905
MLS Listing,,Single Family Residential,8412 Birchcroft Dr,Dallas,TX,75243,299999,5,2.0,NORTHWOOD PARK,2511,,1962,39,119,,Active,,,http://www.redfin.com/TX/Dallas/8412-Birchcroft-Dr-75243/home/31027666,NTREIS,14020606,N,Y,32.9009979,-96.759907
MLS Listing,,Single Family Residential,1333 Wedgemere Dr,Dallas,TX,75232,269900,4,2.5,Oak Park North,2814,8364,1990,39,96,,Active,,,http://www.redfin.com/TX/Dallas/1333-Wedgemere-Dr-75232/home/31138895,NTREIS,14024828,N,Y,32.688843,-96.8460299
MLS Listing,,Single Family Residential,208 Scenic Dr,Heath,TX,75032,274900,3,2.5,Antigua Bay,1778,10062,1985,40,155,6,Active,,,http://www.redfin.com/TX/Heath/208-Scenic-Dr-75032/home/33899890,NTREIS,14025895,N,Y,32.8198568,-96.4947499
MLS Listing,,Single Family Residential,2816 Birmingham Ave,Dallas,TX,75215,300000,3,2.5,Winchester Place Rev,2037,6229,2019,40,147,,Active,,,http://www.redfin.com/TX/Dallas/2816-Birmingham-Ave-75215/home/30797767,NTREIS,14025817,N,Y,32.767354,-96.765226
MLS Listing,,Condo/Co-op,8639 Edgemere Rd Unit E2C,Dallas,TX,75225,299000,4,2.0,Villa Capri Condo,1844,21257,1957,40,162,568,Active,,,http://www.redfin.com/TX/Dallas/8639-Edgemere-Rd-75225/unit-E2C/home/31189212,NTREIS,14025490,N,Y,32.8678057,-96.7957266
MLS Listing,,Single Family Residential,1927 Berkley Ave,Dallas,TX,75224,289000,3,2.0,Elmwood Add,1921,6970,1951,40,150,,Active,March-30-2019 02:00 PM,March-30-2019 04:00 PM,http://www.redfin.com/TX/Dallas/1927-Berkley-Ave-75224/home/30849702,NTREIS,14012823,N,Y,32.7244883,-96.8522494
MLS Listing,,Single Family Residential,12107 High Meadow Dr,Dallas,TX,75234,299900,4,2.0,Highland Mdws Instl Add 03,1810,7971,1961,43,166,,Active,,,http://www.redfin.com/TX/Dallas/12107-High-Meadow-Dr-75234/home/30935633,NTREIS,14024724,N,Y,32.9138918,-96.8672812
MLS Listing,,Condo/Co-op,4040 Avondale Ave #103,Dallas,TX,75219,275000,2,2.0,Avondale Gardens Condos,1262,63031,1985,43,218,342,Active,,,http://www.redfin.com/TX/Dallas/4040-Avondale-Ave-75219/unit-103/home/145344628,NTREIS,14024006,N,Y,32.8174953,-96.807442
MLS Listing,,Single Family Residential,11306 Dalron Dr,Dallas,TX,75218,284000,3,2.0,Lochwood Estates #2,1214,9017,1961,43,234,,Active,,,http://www.redfin.com/TX/Dallas/11306-Dalron-Dr-75218/home/31046996,NTREIS,14023371,N,Y,32.8610303,-96.6851355
MLS Listing,,Single Family Residential,3755 La Joya Dr,Dallas,TX,75220,285000,3,2.0,North Davilla Drive Estates,1195,8276,1952,43,238,,Active,,,http://www.redfin.com/TX/Dallas/3755-La-Joya-Dr-75220/home/30911786,NTREIS,14021608,N,Y,32.8724246,-96.8537992
MLS Listing,,Condo/Co-op,458 Yacht Club Dr Unit C,Rockwall,TX,75032,300000,2,2.0,Cutter Hill #3,1816,2004,1990,43,165,167,Active,,,http://www.redfin.com/TX/Rockwall/458-Yacht-Club-Dr-75032/unit-C/home/33903525,NTREIS,14024037,N,Y,32.8790926,-96.4835166
MLS Listing,,Single Family Residential,3729 McBroom St,Dallas,TX,75212,279900,5,2.5,Eagle Ford Gardens,2063,4792,2019,44,136,,Active,,,http://www.redfin.com/TX/Dallas/3729-McBroom-St-75212/home/30980052,NTREIS,14023896,N,Y,32.7829509,-96.8819786
MLS Listing,,Condo/Co-op,4414 Buena Vista St #14,Dallas,TX,75205,279900,2,2.0,Parkwood Condo,1167,35501,1973,44,240,236,Active,,,http://www.redfin.com/TX/Dallas/4414-Buena-Vista-St-75205/unit-14/home/31178826,NTREIS,14023173,N,Y,32.8209432,-96.7927693
MLS Listing,,Single Family Residential,10314 Lynford Dr,Dallas,TX,75238,263000,3,1.0,Lake Highlands Estates 9,1212,7492,1954,44,217,,Active,,,http://www.redfin.com/TX/Dallas/10314-Lynford-Dr-75238/home/31005836,NTREIS,14022588,N,Y,32.8671733,-96.7088273
MLS Listing,,Single Family Residential,2337 Chart Dr,Dallas,TX,75228,299000,3,2.5,Hillridge Sec 02,1682,11761,1962,44,178,,Active,March-31-2019 03:00 PM,March-31-2019 05:00 PM,http://www.redfin.com/TX/Dallas/2337-Chart-Dr-75228/home/30968263,NTREIS,14023087,N,Y,32.8088885,-96.7045646
MLS Listing,,Single Family Residential,9919 Carnegie Dr,Dallas,TX,75228,279000,2,1.0,Alger Park Add,1020,8581,1951,44,274,,Active,,,http://www.redfin.com/TX/Dallas/9919-Carnegie-Dr-75228/home/30861711,NTREIS,14023288,N,Y,32.8317863,-96.6898564
MLS Listing,,Condo/Co-op,3100 Cole Ave #201,Dallas,TX,75204,285000,2,2.0,Sutton Place Condos,1150,42602,1984,45,248,457,Active,,,http://www.redfin.com/TX/Dallas/3100-Cole-Ave-75204/unit-201/home/32253565,NTREIS,14020732,N,Y,32.80288,-96.8015701
MLS Listing,,Single Family Residential,2755 Gladstone Dr,Dallas,TX,75211,289000,3,2.0,Sunset Summit,1767,7492,1923,46,164,,Active,,,http://www.redfin.com/TX/Dallas/2755-Gladstone-Dr-75211/home/30832449,NTREIS,14022177,N,Y,32.7404505,-96.8658005
MLS Listing,,Condo/Co-op,5200 Keller Springs Rd #537,Dallas,TX,75248,300000,2,2.0,Bonaventure Condo,1685,,1981,47,178,840,Active,,,http://www.redfin.com/TX/Dallas/5200-Keller-Springs-Rd-75248/unit-537/home/31129002,NTREIS,14011179,N,Y,32.9683918,-96.8197626
MLS Listing,,Single Family Residential,2107 Barberry Dr,Dallas,TX,75211,280000,3,2.0,Stevens Park Village,1237,8973,1941,47,226,,Active,,,http://www.redfin.com/TX/Dallas/2107-Barberry-Dr-75211/home/30850870,NTREIS,14000596,N,Y,32.763425,-96.8570244
MLS Listing,,Single Family Residential,4214 Cedar Creek Dr,Garland,TX,75043,257000,3,2.5,Hubbard Hill 02,2387,10193,1977,49,108,,Active,,,http://www.redfin.com/TX/Garland/4214-Cedar-Creek-Dr-75043/home/31411047,NTREIS,14020089,N,Y,32.8641654,-96.5700395
MLS Listing,,Townhouse,5707 Southern Cross Dr,Rockwall,TX,75032,279900,3,2.5,Chandlers Landing #17,1956,3572,1985,49,143,139,Active,,,http://www.redfin.com/TX/Rockwall/5707-Southern-Cross-Dr-75032/home/33901455,NTREIS,14019894,N,Y,32.8813662,-96.4853789
MLS Listing,,Single Family Residential,2827 Lenham Ln,Forney,TX,75126,253135,4,3.5,Clements Ranch,2218,4356,2019,49,114,50,Active,,,http://www.redfin.com/TX/Forney/2827-Lenham-Ln-75126/home/160443489,NTREIS,14020357,N,Y,32.79037,-96.489904
MLS Listing,,Single Family Residential,2750 Pease Dr,Forney,TX,75126,279090,4,3.5,Clements Ranch,2445,4356,2019,49,114,50,Active,,,http://www.redfin.com/TX/Forney/2750-Pease-Dr-75126/home/160443461,NTREIS,14020352,N,Y,32.79037,-96.489904
MLS Listing,,Single Family Residential,2749 Pease Dr,Forney,TX,75126,262135,4,3.5,Clements Ranch,2433,4356,2018,49,108,50,Active,,,http://www.redfin.com/TX/Forney/2749-Pease-Dr-75126/home/160443374,NTREIS,14020346,N,Y,32.79037,-96.489904
MLS Listing,,Single Family Residential,2833 Lenham Ln,Forney,TX,75126,254635,3,2.5,Clements Ranch,2206,4356,2018,49,115,50,Active,,,http://www.redfin.com/TX/Forney/2833-Lenham-Ln-75126/home/160443093,NTREIS,14020336,N,Y,32.79037,-96.489904
MLS Listing,,Single Family Residential,2447 Wilton Ave,Dallas,TX,75211,259900,3,2.0,Shady Wood,1780,5968,2018,50,146,,Active,,,http://www.redfin.com/TX/Dallas/2447-Wilton-Ave-75211/home/30851557,NTREIS,14020225,N,Y,32.7294362,-96.8589094
MLS Listing,,Single Family Residential,502 S Westmoreland Rd,Dallas,TX,75211,269900,2,1.0,Irwindell Add,1105,5881,1928,50,244,,Active,,,http://www.redfin.com/TX/Dallas/502-S-Westmoreland-Rd-75211/home/30838568,NTREIS,14019775,N,Y,32.7407761,-96.8738972
MLS Listing,,Condo/Co-op,3311 Blackburn #216,Dallas,TX,75204,265000,2,1.0,Colonnade At Turtle Creek,870,,1982,50,305,280,Active,,,http://www.redfin.com/TX/Dallas/3311-Blackburn-St-75204/unit-216/home/30745184,NTREIS,14018485,N,Y,32.8104065,-96.7979641
MLS Listing,,Single Family Residential,2730 Western Park Dr,Dallas,TX,75211,260000,4,3.0,Westhaven,1857,10846,1963,50,140,,Active,,,http://www.redfin.com/TX/Dallas/2730-Western-Park-Dr-75211/home/30959021,NTREIS,14020014,N,Y,32.7133643,-96.8925968
MLS Listing,,Single Family Residential,8005 Woodhue Rd,Dallas,TX,75228,264900,4,3.0,Buckner Terrace 2nd Sec 3rd Inst,2050,10367,1965,50,129,,Active,,,http://www.redfin.com/TX/Dallas/8005-Woodhue-Rd-75228/home/31102497,NTREIS,14013197,N,Y,32.7964088,-96.7073646
MLS Listing,,Vacant Land,3215 Wake St,Dallas,TX,75212,300000,0,,Heights Macarthur,,5401,1950,50,,,Active,,,http://www.redfin.com/TX/Dallas/3215-Wake-St-75212/home/30971930,NTREIS,14019671,N,Y,32.7810353,-96.8294722
MLS Listing,,Single Family Residential,9405 Barton Creek Dr,Rowlett,TX,75089,298000,4,2.5,GRAHAM ESTATES-REPLAT,2824,7536,1991,51,106,,Active,,,http://www.redfin.com/TX/Rowlett/9405-Barton-Creek-Dr-75089/home/33931859,NTREIS,14013738,N,Y,32.9229825,-96.510184
MLS Listing,,Single Family Residential,3882 Sam Cir,Dallas,TX,75233,275000,4,2.5,Trinity Temple Addition No. 3,1660,6490,2019,52,166,,Active,,,http://www.redfin.com/TX/Dallas/3882-Sam-Cir-75233/home/160403042,NTREIS,14018561,N,Y,32.699902,-96.883957
MLS Listing,,Single Family Residential,3535 Apple Valley Way,Dallas,TX,75227,259000,4,2.5,Parkway Village 02,1995,3398,1996,52,130,13,Active,,,http://www.redfin.com/TX/Dallas/3535-Apple-Valley-Way-75227/home/30774306,NTREIS,14018426,N,Y,32.7669568,-96.6521874
MLS Listing,,Single Family Residential,12425 Foothill Dr,Dallas,TX,75253,280000,3,1.0,Bradshaw Wn,1504,82154,1901,52,186,,Active,,,http://www.redfin.com/TX/Dallas/12425-Foothill-Dr-75253/home/31119497,NTREIS,14018450,N,Y,32.6713174,-96.6270921
MLS Listing,,Townhouse,3320 Augusta Blvd,Rockwall,TX,75087,274900,4,3.0,Lakeside Village #2,2084,4008,1980,52,132,125,Active,,,http://www.redfin.com/TX/Rockwall/3320-Augusta-Blvd-75087/home/33912705,NTREIS,14015860,N,Y,32.8992816,-96.4751972
MLS Listing,,Single Family Residential,3607 Cortez Dr,Dallas,TX,75220,269900,3,2.0,Walnut Hill Estates,1517,7754,1946,53,178,,Active,,,http://www.redfin.com/TX/Dallas/3607-Cortez-Dr-75220/home/30910019,NTREIS,14017343,N,Y,32.8666182,-96.8581554
MLS Listing,,Single Family Residential,1903 Newport Ave,Dallas,TX,75224,267500,3,1.5,Elmwood Add,1262,7405,1951,54,212,,Active,,,http://www.redfin.com/TX/Dallas/1903-Newport-Ave-75224/home/30849679,NTREIS,14016648,N,Y,32.725419,-96.8512861
MLS Listing,,Single Family Residential,1329 Thorne St,Dallas,TX,75217,255000,5,2.5,Brierwood Heights Ph 02,2700,8494,2017,54,94,,Active,,,http://www.redfin.com/TX/Dallas/1329-Thorne-St-75217/home/30743804,NTREIS,14016468,N,Y,32.6893118,-96.6532239
MLS Listing,,Single Family Residential,5412 Longleaf Ln,Dallas,TX,75232,265000,4,2.0,Glen Oaks,2158,11587,1962,55,123,,Active,,,http://www.redfin.com/TX/Dallas/5412-Longleaf-Ln-75232/home/30953750,NTREIS,14016023,N,Y,32.6798799,-96.834409
MLS Listing,,Single Family Residential,8124 Bambi St,Dallas,TX,75217,260000,3,4.0,Circle Estates,2700,7144,2018,57,96,,Active,,,http://www.redfin.com/TX/Dallas/8124-Bambi-St-75217/home/30925286,NTREIS,14015324,N,Y,32.7096003,-96.6822112
MLS Listing,,Single Family Residential,2308 Stone Glen Ln,Carrollton,TX,75007,259900,3,2.0,Highlands Of Carrollton Sec 1,1924,8407,1983,57,135,,Active,,,http://www.redfin.com/TX/Carrollton/2308-Stone-Glen-Ln-75007/home/32538797,NTREIS,14014817,N,Y,33.0121379,-96.864816
MLS Listing,,Single Family Residential,3531 Oak Creek Cir,Dallas,TX,75227,275000,4,2.0,Flanerys,2108,23740,1955,58,130,,Active,,,http://www.redfin.com/TX/Dallas/3531-Oak-Creek-Cir-75227/home/30885778,NTREIS,14014647,N,Y,32.7685912,-96.6945151
MLS Listing,,Single Family Residential,2411 Bonnywood Ln,Dallas,TX,75233,263000,4,2.5,Kiestwood Estates,2014,10542,1961,58,131,,Active,,,http://www.redfin.com/TX/Dallas/2411-Bonnywood-Ln-75233/home/30901462,NTREIS,14013823,N,Y,32.7020839,-96.8576947
MLS Listing,,Single Family Residential,4411 Kelton Dr,Dallas,TX,75209,275000,3,1.0,Greenway Terrace,1220,9191,1947,58,225,,Active,,,http://www.redfin.com/TX/Dallas/4411-Kelton-Dr-75209/home/30854348,NTREIS,14012905,N,Y,32.850553,-96.834694
MLS Listing,,Condo/Co-op,1022 Signal Ridge Pl #1022,Rockwall,TX,75032,279500,4,3.0,Signal Ridge #2a & 2b,1841,5445,1984,59,152,353,Active,,,http://www.redfin.com/TX/Rockwall/1022-Signal-Ridge-Pl-75032/unit-1022/home/160358560,NTREIS,14013138,N,Y,32.8853664,-96.4802485
MLS Listing,,Single Family Residential,948 Peavy Rd,Dallas,TX,75218,299900,2,2.0,Lake Gardens Rev,1320,10193,1956,60,227,,Active,March-31-2019 01:00 PM,March-31-2019 03:00 PM,http://www.redfin.com/TX/Dallas/948-Peavy-Rd-75218/home/30866916,NTREIS,14012013,N,Y,32.843979,-96.7021827
MLS Listing,,Single Family Residential,3446 Silverwood Ln,Dallas,TX,75233,299900,3,2.0,Westwood Park Add,2246,10106,1957,61,134,,Active,,,http://www.redfin.com/TX/Dallas/3446-Silverwood-Ln-75233/home/32193165,NTREIS,14011030,N,Y,32.7015693,-96.8751015
MLS Listing,,Single Family Residential,3932 Shelley Blvd,Dallas,TX,75211,264900,3,2.0,Bluebonnet Acres,1750,9060,2019,62,151,,Active,,,http://www.redfin.com/TX/Dallas/3932-Shelley-Blvd-75211/home/30857028,NTREIS,14011379,N,Y,32.7280979,-96.8849276
MLS Listing,,Condo/Co-op,1122 Jackson St #1016,Dallas,TX,75202,255000,1,1.0,Soco Urban Loft Condo,1181,42863,1925,62,216,460,Active,,,http://www.redfin.com/TX/Dallas/1122-Jackson-St-75202/unit-1016/home/30765502,NTREIS,14011231,N,Y,32.7782672,-96.8024429
MLS Listing,,Single Family Residential,3850 Davila Dr,Dallas,TX,75220,285000,3,2.0,Ridgecrest Village,1172,8364,1951,64,243,,Active,,,http://www.redfin.com/TX/Dallas/3850-Davila-Dr-75220/home/30911473,NTREIS,14010013,N,Y,32.8678966,-96.8508254
MLS Listing,,Single Family Residential,10353 Newcombe Dr,Dallas,TX,75228,259000,4,2.0,Eastridge Park,1509,8015,1952,64,172,,Active,,,http://www.redfin.com/TX/Dallas/10353-Newcombe-Dr-75228/home/30862797,NTREIS,14010485,N,Y,32.8354726,-96.6807909
MLS Listing,,Single Family Residential,8728 Coppertowne Ln,Dallas,TX,75243,299000,3,2.5,Copperfield Homes,2066,4356,1997,64,145,100,Active,,,http://www.redfin.com/TX/Dallas/8728-Coppertowne-Ln-75243/home/31152632,NTREIS,14009415,N,Y,32.8980888,-96.722013
MLS Listing,,Single Family Residential,5302 Alazan Bay Dr,Rowlett,TX,75089,276000,4,3.0,Mariner Park Sec 02,2710,8407,2000,65,102,42,Active,,,http://www.redfin.com/TX/Rowlett/5302-Alazan-Bay-Dr-75089/home/32006625,NTREIS,14009389,N,Y,32.9181832,-96.5512973
MLS Listing,,Multi-Family (2-4 Unit),6248 Winton St,Dallas,TX,75214,299500,2,2.0,Bel-Air,1223,3485,1984,66,245,,Active,March-30-2019 01:00 PM,March-30-2019 03:00 PM,http://www.redfin.com/TX/Dallas/6248-Winton-St-75214/home/30820914,NTREIS,14004734,N,Y,32.8352532,-96.756063
MLS Listing,,Single Family Residential,3039 Rambling Dr,Dallas,TX,75228,279000,4,2.0,Central Park East,2060,7841,1983,66,135,,Active,,,http://www.redfin.com/TX/Dallas/3039-Rambling-Dr-75228/home/31149322,NTREIS,14004445,N,Y,32.8079556,-96.691653
MLS Listing,,Condo/Co-op,2323 N Houston St #408,Dallas,TX,75219,299000,1,1.0,Terrace Condos,775,39727,2005,67,386,437,Active,,,http://www.redfin.com/TX/Dallas/2323-N-Houston-St-75219/unit-408/home/30765320,NTREIS,14008383,N,Y,32.7850316,-96.8100004
MLS Listing,,Single Family Residential,3202 Carlson Dr,Dallas,TX,75235,269900,3,1.0,Cherrywood,1192,7144,1947,67,226,,Active,,,http://www.redfin.com/TX/Dallas/3202-Carlson-Dr-75235/home/30881417,NTREIS,14008299,N,Y,32.8258798,-96.8276212
MLS Listing,,Single Family Residential,2206 Elmhurst St,Rowlett,TX,75088,279900,3,2.5,University Place,2667,10411,1984,67,105,,Active,,,http://www.redfin.com/TX/Rowlett/2206-Elmhurst-St-75088/home/32032785,NTREIS,14007937,N,Y,32.8900713,-96.5790268
MLS Listing,,Single Family Residential,6306 Lancashire Dr S,Rowlett,TX,75087,293000,4,3.0,Heritage On The Lake,2464,9453,1996,67,119,,Active,,,http://www.redfin.com/TX/Rockwall/6306-Lancashire-Dr-S-75087/home/33932688,NTREIS,13996839,N,Y,32.9162824,-96.5075177
MLS Listing,,Single Family Residential,6219 PARKSTONE Way,Dallas,TX,75249,265000,4,2.5,Mountain Creek Meadows II PH,2535,7405,1990,68,105,,Active,,,http://www.redfin.com/TX/Dallas/6219-Parkstone-Way-75249/home/31156542,NTREIS,14007645,N,Y,32.646218,-96.9660861
MLS Listing,,Single Family Residential,10229 Lanshire Dr,Dallas,TX,75238,289000,3,1.5,Lake Highlands Estates 9,1244,7667,1955,68,232,,Active,,,http://www.redfin.com/TX/Dallas/10229-Lanshire-Dr-75238/home/31005460,NTREIS,14007451,N,Y,32.8685013,-96.7094124
MLS Listing,,Single Family Residential,11201 Cotillion Dr,Dallas,TX,75228,264900,3,2.0,Braeburn Glen,2125,12023,1965,68,125,,Active,,,http://www.redfin.com/TX/Dallas/11201-Cotillion-Dr-75228/home/31105560,NTREIS,14007523,N,Y,32.8458934,-96.6531425
MLS Listing,,Single Family Residential,5510 Challenger Ct,Rockwall,TX,75032,255000,3,3.0,Chandlers Landing #17,2057,6665,2002,69,124,115,Active,,,http://www.redfin.com/TX/Rockwall/5510-Challenger-Ct-75032/home/33901416,NTREIS,14006557,N,Y,32.883406,-96.4807147
MLS Listing,,Single Family Residential,2619 Globe Ave,Dallas,TX,75228,267900,3,2.5,Cloverdale 08 Rev,1787,7928,1962,70,150,,Active,,,http://www.redfin.com/TX/Dallas/2619-Globe-Ave-75228/home/31002778,NTREIS,14006264,N,Y,32.8152943,-96.6700559
MLS Listing,,Single Family Residential,6818 Victoria Ave,Dallas,TX,75209,294900,3,2.0,Webster & Wood,1200,5706,1940,71,246,,Active,,,http://www.redfin.com/TX/Dallas/6818-Victoria-Ave-75209/home/30817054,NTREIS,14005867,N,Y,32.8415808,-96.8309426
MLS Listing,,Single Family Residential,101 S Tatum Ave,Dallas,TX,75211,289900,4,2.5,Arcadia Park,2200,17511,2019,72,132,,Active,,,http://www.redfin.com/TX/Dallas/101-S-Tatum-Ave-75211/home/31092933,NTREIS,13985566,N,Y,32.745888,-96.915659
MLS Listing,,Condo/Co-op,5806 Birchbrook Dr #205,Dallas,TX,75206,264500,2,2.0,Veneto 01 Condo,1274,138826,1970,72,208,265,Active,,,http://www.redfin.com/TX/Dallas/5806-Birchbrook-Dr-75206/unit-205/home/30789247,NTREIS,14002749,N,Y,32.8472437,-96.7675589
MLS Listing,,Single Family Residential,13660 Purple Sage Rd,Dallas,TX,75240,295000,3,2.0,Spring Valley Park 03,1986,7971,1964,73,149,,Active,,,http://www.redfin.com/TX/Dallas/13660-Purple-Sage-Rd-75240/home/31026210,NTREIS,14004901,N,Y,32.9335061,-96.7704164
MLS Listing,,Single Family Residential,1128 Bayshore Dr,Rockwall,TX,75087,269900,3,2.0,Northshore #1a,1887,9017,1983,73,143,,Active,,,http://www.redfin.com/TX/Rockwall/1128-Bayshore-Dr-75087/home/33916790,NTREIS,14004123,N,Y,32.9320028,-96.4753429
MLS Listing,,Single Family Residential,8444 Ridge Creek Dr,Dallas,TX,75249,269999,3,2.5,Mountain Creek Meadows Ph 02,2632,9453,2005,74,103,17,Active,,,http://www.redfin.com/TX/Dallas/8444-Ridge-Creek-Dr-75249/home/30744381,NTREIS,14003997,N,Y,32.6421587,-96.9699673
MLS Listing,,Single Family Residential,209 E 12th St,Dallas,TX,75203,295000,3,2.0,Oak Cliff Original,1853,11326,1945,75,159,,Active,,,http://www.redfin.com/TX/Dallas/209-E-12th-St-75203/home/30826220,NTREIS,14003296,N,Y,32.7432062,-96.8205505
MLS Listing,,Condo/Co-op,4508 Abbott Ave #15,Highland Park,TX,75205,279000,1,1.0,Abbott Terrace Condo,623,50007,1958,75,448,209,Active,,,http://www.redfin.com/TX/Dallas/4508-Abbott-Ave-75205/unit-15/home/32051681,NTREIS,14003247,N,Y,32.8228283,-96.7938536
MLS Listing,,Single Family Residential,915 S Beckley Ave,Dallas,TX,75203,250000,3,2.0,Seymour Place,1393,5881,1924,75,179,,Active,,,http://www.redfin.com/TX/Dallas/915-S-Beckley-Ave-75203/home/30828293,NTREIS,14003242,N,Y,32.7366581,-96.8231042
MLS Listing,,Single Family Residential,2538 Emmett St,Dallas,TX,75211,264999,3,2.0,Sunset,1712,6926,1925,77,155,,Active,,,http://www.redfin.com/TX/Dallas/2538-Emmett-St-75211/home/30835708,NTREIS,13996522,N,Y,32.7328451,-96.8607945
MLS Listing,,Single Family Residential,2405 Shorewood Ct,Rowlett,TX,75088,300000,4,3.0,Westwood Shores Ph 02,2727,9714,1999,78,110,,Active,,,http://www.redfin.com/TX/Rowlett/2405-Shorewood-Ct-75088/home/32029793,NTREIS,14001366,N,Y,32.8844235,-96.5771917
MLS Listing,,Single Family Residential,6733 Prosper St,Dallas,TX,75209,259000,2,2.0,Mount Vernon Heights,1242,6708,1944,79,209,,Active,,,http://www.redfin.com/TX/Dallas/6733-Prosper-St-75209/home/30855041,NTREIS,14000738,N,Y,32.8407358,-96.8287145
MLS Listing,,Single Family Residential,9301 Woodlake Dr,Rowlett,TX,75088,285000,4,3.0,Lakeshore Park Estates,2320,7057,1998,79,123,4,Active,,,http://www.redfin.com/TX/Rowlett/9301-Woodlake-Dr-75088/home/33931389,NTREIS,14000402,N,Y,32.9048247,-96.5107464
MLS Listing,,Single Family Residential,1709 Nolte Dr,Dallas,TX,75208,299999,4,2.5,Guerrants Sub,1689,9409,2009,80,178,,Active,,,http://www.redfin.com/TX/Dallas/1709-Nolte-Dr-75208/home/30836291,NTREIS,14000215,N,Y,32.7339412,-96.8483752
MLS Listing,,Single Family Residential,8133 Elam Rd,Dallas,TX,75217,267200,4,2.0,Mahogany Homes,2474,6578,2018,80,108,,Active,March-31-2019 02:00 PM,March-31-2019 04:00 PM,http://www.redfin.com/TX/Dallas/8133-Elam-Rd-75217/home/30740912,NTREIS,14000199,N,Y,32.719937,-96.681502
MLS Listing,,Single Family Residential,13731 Spring Grove Ave,Dallas,TX,75240,294900,3,2.0,Spring Valley Park 03,1809,10019,1965,80,163,,Active,,,http://www.redfin.com/TX/Dallas/13731-Spring-Grove-Ave-75240/home/31026115,NTREIS,13998683,N,Y,32.9355939,-96.7711066
MLS Listing,,Single Family Residential,3826 Lenel Dr,Dallas,TX,75220,274900,3,1.0,Berkshire,1328,9757,1950,80,207,,Active,,,http://www.redfin.com/TX/Dallas/3826-Lenel-Dr-75220/home/30856311,NTREIS,13999583,N,Y,32.8624097,-96.8517468
MLS Listing,,Single Family Residential,4006 Gulfview Dr,Rowlett,TX,75088,299000,3,2.5,Lakeside Village Estates Ph 2,2390,10237,1999,81,125,21,Active,,,http://www.redfin.com/TX/Rowlett/4006-Gulfview-Dr-75088/home/33934923,NTREIS,13993981,N,Y,32.8982044,-96.5157878
MLS Listing,,Condo/Co-op,5200 Keller Springs Rd #737,Dallas,TX,75248,275000,2,2.0,Bonaventure Condo,1685,331012,1981,82,163,776,Active,,,http://www.redfin.com/TX/Dallas/5200-Keller-Springs-Rd-75248/unit-737/home/31128795,NTREIS,13998421,N,Y,32.9683918,-96.8197626
MLS Listing,,Condo/Co-op,4242 Lomo Alto Dr Unit N46,Highland Park,TX,75219,274000,1,1.5,Crestpark in Highland Park Condo,1034,152765,1950,82,265,574,Active,,,http://www.redfin.com/TX/Dallas/4242-Lomo-Alto-Dr-75219/unit-N46/home/32239673,NTREIS,13997931,N,Y,32.8222355,-96.8128688
MLS Listing,,Single Family Residential,4532 Raleigh Dalton Rd,Dallas,TX,75227,269900,4,2.5,Chariot Village,2147,4400,2019,85,126,,Active,,,http://www.redfin.com/TX/Dallas/4532-Raleigh-St-75219/home/146215247,NTREIS,13997202,N,Y,32.783120581,-96.68877673
MLS Listing,,Single Family Residential,4541 Raleigh Dalton Rd,Dallas,TX,75227,255900,4,2.5,Chariot Village,1995,4400,2019,85,128,,Active,,,http://www.redfin.com/TX/Dallas/4541-Raleigh-St-75219/home/146215397,NTREIS,13997191,N,Y,32.8196261,-96.8181665
MLS Listing,,Single Family Residential,4526 Raleigh Dalton Rd,Dallas,TX,75227,255900,4,2.5,Chariot Village,1995,4400,2019,85,128,,Active,,,http://www.redfin.com/TX/Dallas/4526-Raleigh-St-75219/home/146215432,NTREIS,13997158,N,Y,32.8196261,-96.8181665
MLS Listing,,Single Family Residential,4525 Raleigh Dalton Rd,Dallas,TX,75227,255900,4,2.5,Chariot Village,1995,4400,2019,85,128,,Active,,,http://www.redfin.com/TX/Dallas/4525-Raleigh-St-75219/home/146215459,NTREIS,13997141,N,Y,32.8196261,-96.8181665
MLS Listing,,Single Family Residential,4509 Raleigh Dalton Rd,Dallas,TX,75227,255900,4,2.5,Chariot Village,1995,4400,2019,85,128,,Active,,,http://www.redfin.com/TX/Dallas/4509-Raleigh-St-75219/home/146215489,NTREIS,13997095,N,Y,32.8196261,-96.8181665
MLS Listing,,Single Family Residential,4517 Raleigh Dalton Rd,Dallas,TX,75227,269900,4,2.5,Chariot Village,2147,4400,2019,85,126,,Active,,,http://www.redfin.com/TX/Dallas/4517-Raleigh-St-75219/home/146215294,NTREIS,13996571,N,Y,32.8196261,-96.8181665
MLS Listing,,Single Family Residential,13532 Purple Sage Rd,Dallas,TX,75240,265000,3,2.0,Spring Valley Park 02,1300,8886,1960,86,204,,Active,,,http://www.redfin.com/TX/Dallas/13532-Purple-Sage-Rd-75240/home/31025172,NTREIS,13996060,N,Y,32.9317934,-96.7737212
MLS Listing,,Single Family Residential,6318 McCartney Ln,Garland,TX,75043,270000,4,2.0,0ak 6,2048,7405,2018,100,132,,Active,,,http://www.redfin.com/TX/Garland/6318-Mccartney-Ln-75043/home/31455296,NTREIS,13991974,N,Y,32.8377184,-96.5912483
MLS Listing,,Single Family Residential,2334 Southwood Dr,Dallas,TX,75224,299900,3,2.5,Druid Hills,1909,8538,1962,100,157,,Active,,,http://www.redfin.com/TX/Dallas/2334-Southwood-Dr-75224/home/30900456,NTREIS,13991557,N,Y,32.700953,-96.8554746
MLS Listing,,Single Family Residential,11075 Milhof Dr,Dallas,TX,75228,279900,3,2.5,Saint Andrews Add,2140,10367,1956,101,131,,Active,,,http://www.redfin.com/TX/Dallas/11075-Milhof-Dr-75228/home/31009071,NTREIS,13990961,N,Y,32.8419824,-96.6541029
MLS Listing,,Condo/Co-op,6004 Hudson St #105,Dallas,TX,75206,289900,1,1.5,Munger Place,1001,6578,2018,106,290,228,Active,,,http://www.redfin.com/TX/Dallas/6004-Hudson-St-75206/unit-105/home/148492197,NTREIS,13989325,N,Y,32.8099663,-96.7652652
MLS Listing,,Single Family Residential,311 Summit Ridge Dr,Rockwall,TX,75087,279900,4,3.0,Ridge Road Village,2485,13765,1985,107,113,,Active,,,http://www.redfin.com/TX/Rockwall/311-Summit-Ridge-Dr-75087/home/33918550,NTREIS,13987062,N,Y,32.9199793,-96.4670989
MLS Listing,,Single Family Residential,830 E 10th St,Dallas,TX,75203,299900,6,3.0,Diamonds Ewing,2800,4879,1925,107,107,,Active,,,http://www.redfin.com/TX/Dallas/830-E-10th-St-75203/home/30826503,NTREIS,13987131,N,Y,32.7484887,-96.8112943
MLS Listing,,Single Family Residential,11261 Mccree Rd,Dallas,TX,75238,250000,3,2.0,Highland Meadows 10,2021,9235,1972,108,124,,Active,,,http://www.redfin.com/TX/Dallas/11261-McCree-Rd-75238/home/31023687,NTREIS,13987673,N,Y,32.8727259,-96.6870155
MLS Listing,,Condo/Co-op,8616 Turtle Creek Blvd #218,Dallas,TX,75225,280000,1,1.5,Sorrento Condo,1050,61289,2006,109,267,535,Active,March-31-2019 02:00 PM,March-31-2019 04:00 PM,http://www.redfin.com/TX/Dallas/8616-Turtle-Creek-Blvd-75225/unit-218/home/30783179,NTREIS,13987280,N,Y,32.8661655,-96.7894867
MLS Listing,,Single Family Residential,3137 Santa Teresa Ave,Dallas,TX,75228,267500,4,2.0,Casa View Heights 09,1900,7667,1954,110,141,,Active,,,http://www.redfin.com/TX/Dallas/3137-Santa-Teresa-Ave-75228/home/31003854,NTREIS,13985353,N,Y,32.8297447,-96.6623294
MLS Listing,,Vacant Land,1839 Pollard St,Dallas,TX,75208,250000,0,,Campbells Resub,,7667,,110,,,Active,,,http://www.redfin.com/TX/Dallas/1839-Pollard-St-75208/home/30987351,NTREIS,13981790,N,Y,32.772004,-96.849608
MLS Listing,,Vacant Land,1835 Pollard St,Dallas,TX,75208,250000,0,,Campbells Resub,,7667,1935,110,,,Active,,,http://www.redfin.com/TX/Dallas/1835-Pollard-St-75208/home/30987352,NTREIS,13981776,N,Y,32.7719167,-96.8494013
MLS Listing,,Single Family Residential,10521 Vistadale Dr,Dallas,TX,75238,275000,4,2.0,Lake Highlands North,1931,8668,1962,114,142,,Active,,,http://www.redfin.com/TX/Dallas/10521-Vistadale-Dr-75238/home/31062734,NTREIS,13984331,N,Y,32.8855603,-96.7040422
MLS Listing,,Condo/Co-op,2305 Worthington St Unit 112A,Dallas,TX,75204,265000,1,1.0,Belvedere Condos,852,72527,1999,114,311,374,Active,,,http://www.redfin.com/TX/Dallas/2305-Worthington-St-75204/unit-112A/home/108487332,NTREIS,13983964,N,Y,32.7956949,-96.7991404
MLS Listing,,Single Family Residential,5210 Orlando Cir,Rowlett,TX,75088,299900,4,2.5,Harborview 03,2845,8146,1999,114,105,22,Active,,,http://www.redfin.com/TX/Rowlett/5210-Orlando-Cir-75088/home/31999659,NTREIS,13983742,N,Y,32.8826164,-96.5531317
MLS Listing,,Single Family Residential,8647 Kingspoint Dr,Dallas,TX,75238,250000,3,2.0,Barkley Square #5,1545,8625,1963,120,162,,Active,March-30-2019 08:00 AM,March-30-2019 08:00 PM,http://www.redfin.com/TX/Dallas/8647-Kingspoint-Dr-75238/home/31044708,NTREIS,13978263,N,Y,32.8671139,-96.6861799
MLS Listing,,Single Family Residential,9114 Barton Creek Dr,Rowlett,TX,75089,274900,4,3.0,Graham Estates-Replat,2632,7013,1992,121,104,,Active,,,http://www.redfin.com/TX/Rowlett/9114-Barton-Creek-Dr-75089/home/33931272,NTREIS,13976479,N,Y,32.922562,-96.512788
MLS Listing,,Single Family Residential,4878 Hazelhurst Ln,Dallas,TX,75227,269900,3,2.5,Buckner Terrace,2202,8712,1970,121,123,,Active,,,http://www.redfin.com/TX/Dallas/4878-Hazelhurst-Ln-75227/home/30907605,NTREIS,13980402,N,Y,32.7833433,-96.7075526
MLS Listing,,Single Family Residential,4055 S Ledbetter Dr,Dallas,TX,75236,264900,3,2.0,Ledbetter Hills,2566,17250,2018,124,103,,Active,,,http://www.redfin.com/TX/Dallas/4055-S-Ledbetter-Dr-75236/home/35592931,NTREIS,13971991,N,Y,32.693362,-96.923517
MLS Listing,,Condo/Co-op,3208 Cole Ave #1210,Dallas,TX,75204,284000,2,2.0,Bois Du Chene,1048,61768,1984,127,271,348,Active,,,http://www.redfin.com/TX/Dallas/3208-Cole-Ave-75204/unit-1210/home/31162650,NTREIS,13976391,N,Y,32.8035594,-96.8011203
MLS Listing,,Single Family Residential,2914 San Paula Ave,Dallas,TX,75228,259900,4,2.0,Casa View Crest,1768,7754,1955,132,147,,Active,,,http://www.redfin.com/TX/Dallas/2914-San-Paula-Ave-75228/home/31003755,NTREIS,13975135,N,Y,32.8319891,-96.6646682
MLS Listing,,Single Family Residential,5250 Freestone Cir,Dallas,TX,75227,284900,4,2.0,Buckner Terrace,2706,9017,1984,133,105,,Active,,,http://www.redfin.com/TX/Dallas/5250-Freestone-Cir-75227/home/30906757,NTREIS,13974631,N,Y,32.7898276,-96.6864097
MLS Listing,,Single Family Residential,1138 Newport Ave,Dallas,TX,75224,254900,3,2.0,Elmwood Add 01 Instl,1640,7667,1924,134,155,,Active,,,http://www.redfin.com/TX/Dallas/1138-Newport-Ave-75224/home/30842935,NTREIS,13974161,N,Y,32.7249768,-96.8416953
MLS Listing,,Condo/Co-op,2950 McKinney Ave #317,Dallas,TX,75204,289000,1,1.5,Mercer Square,850,65558,2006,135,340,281,Active,,,http://www.redfin.com/TX/Dallas/2950-McKinney-Ave-75204/unit-317/home/30776473,NTREIS,13973341,N,Y,32.8007306,-96.8005621
MLS Listing,,Single Family Residential,2437 Nicholson Dr,Dallas,TX,75224,255000,5,2.0,Wynnewood,2877,8364,1946,141,89,,Active,,,http://www.redfin.com/TX/Dallas/2437-Nicholson-Dr-75224/home/30892768,NTREIS,13970967,N,Y,32.7184606,-96.8347859
MLS Listing,,Single Family Residential,1027 Crow Ct,Dallas,TX,75051,259000,3,2.5,Skyline PH 1 COMM UNIT DEV,2932,7797,2007,141,88,,Active,,,http://www.redfin.com/TX/Grand-Prairie/1027-Crow-Ct-75051/home/30773946,NTREIS,13970934,N,Y,32.7338342,-96.991975
MLS Listing,,Single Family Residential,10123 Casa View Dr,Dallas,TX,75228,259900,2,2.0,San Juan Heights,1333,10280,1956,141,195,,Active,March-30-2019 02:00 PM,March-30-2019 04:00 PM,http://www.redfin.com/TX/Dallas/10123-Casa-View-Dr-75228/home/31014681,NTREIS,13969170,N,Y,32.8295877,-96.6809162
MLS Listing,,Vacant Land,708 W 10th St,Dallas,TX,75208,299990,0,,Dallas Land & Loan 03,,6360,,141,,,Active,,,http://www.redfin.com/TX/Dallas/708-W-10th-St-75208/home/30827365,NTREIS,13969916,N,Y,32.7448633,-96.8344509
MLS Listing,,Condo/Co-op,8616 Turtle Creek Blvd #206,Dallas,TX,75225,284500,1,1.5,Sorrento Condo,1050,61289,2006,143,271,536,Active,,,http://www.redfin.com/TX/Dallas/8616-Turtle-Creek-Blvd-75225/unit-206/home/30783187,NTREIS,13968360,N,Y,32.8661655,-96.7894867
MLS Listing,,Single Family Residential,11343 Rupley Ln,Dallas,TX,75218,298999,3,2.0,Lochwood Rev,1296,7710,1958,148,231,,Active,,,http://www.redfin.com/TX/Dallas/11343-Rupley-Ln-75218/home/30863957,NTREIS,13966228,N,Y,32.8551997,-96.6850937
MLS Listing,,Single Family Residential,3223 Kiestwood Dr,Dallas,TX,75233,267900,3,2.0,Kiestwood Estates,1794,10237,1956,151,149,,Active,March-31-2019 01:00 PM,March-31-2019 04:00 PM,http://www.redfin.com/TX/Dallas/3223-Kiestwood-Dr-75233/home/30900669,NTREIS,13964044,N,Y,32.70391,-96.8624282
MLS Listing,,Townhouse,4409 Travis St Unit 106F,Dallas,TX,75205,299999,2,1.5,Travis Ave Condo 4409,982,21301,1978,153,305,200,Active,,,http://www.redfin.com/TX/Dallas/4409-Travis-St-75205/unit-106F/home/30799310,NTREIS,13962573,N,Y,32.8209278,-96.7921308
MLS Listing,,Townhouse,2016 Azure Pointe,Richardson,TX,75080,299000,2,2.0,Lake Park Estates 01 & Univ Wrld R,1626,1133,2006,155,184,236,Active,,,http://www.redfin.com/TX/Richardson/2016-Azure-Pointe-75080/home/30772672,NTREIS,13961340,N,Y,32.9800868,-96.7649157
MLS Listing,,Condo/Co-op,2950 McKinney Ave #311,Dallas,TX,75204,274900,1,1.5,Mercer Square Condo,1105,65558,2006,155,249,378,Active,,,http://www.redfin.com/TX/Dallas/2950-McKinney-Ave-75204/unit-311/home/30776476,NTREIS,13949900,N,Y,32.8007306,-96.8005621
MLS Listing,,Single Family Residential,7166 Elliott Dr,Dallas,TX,75227,285000,4,3.0,Buckner Terrace,2890,8407,1979,156,99,,Active,,,http://www.redfin.com/TX/Dallas/7166-Elliott-Dr-75227/home/30906665,NTREIS,13960600,N,Y,32.7898916,-96.6884986
MLS Listing,,Condo/Co-op,2950 Mckinney Ave #418,Dallas,TX,75204,259900,1,1.0,Mercer Square Condo,805,65558,2006,157,323,263,Active,,,http://www.redfin.com/TX/Dallas/2950-McKinney-Ave-75204/unit-418/home/30776494,NTREIS,13949650,N,Y,32.8007306,-96.8005621
MLS Listing,,Townhouse,7603 Pebblestone Dr #11,Dallas,TX,75230,250000,2,2.0,Crest Meadow Estates,1116,4487,1971,158,224,263,Active,,,http://www.redfin.com/TX/Dallas/7603-Pebblestone-Dr-75230/unit-11/home/147802133,NTREIS,13958002,N,Y,32.8911896,-96.7761054
MLS Listing,,Single Family Residential,3364 Darvany Dr,Dallas,TX,75220,254000,3,2.0,Bradford Estates,1568,10454,1955,159,162,,Active,,,http://www.redfin.com/TX/Dallas/3364-Darvany-Dr-75220/home/30932786,NTREIS,13957751,N,Y,32.8778227,-96.8649328
MLS Listing,,Condo/Co-op,3030 Mckinney Ave #905,Dallas,TX,75204,299000,1,1.0,La Tour Condo,996,65601,1981,162,300,724,Active,,,http://www.redfin.com/TX/Dallas/3030-McKinney-Ave-75204/unit-905/home/31174594,NTREIS,13954512,N,Y,32.8016841,-96.8005017
MLS Listing,,Single Family Residential,922 Bayonne St,Dallas,TX,75212,299999,3,2.0,Z E Coombs West End,2183,5009,2010,162,137,,Active,,,http://www.redfin.com/TX/Dallas/922-Bayonne-St-75212/home/30988225,NTREIS,13955631,N,Y,32.7755206,-96.8380521
MLS Listing,,Single Family Residential,4824 Santa Fe Ave,Dallas,TX,75223,259900,4,2.5,R D Coldwells Add,1080,7231,1926,163,241,,Active,,,http://www.redfin.com/TX/Dallas/4824-Santa-Fe-Ave-75223/home/30795398,NTREIS,13956474,N,Y,32.7926015,-96.7618371
MLS Listing,,Single Family Residential,4610 Cowan Ave,Dallas,TX,75209,298000,3,1.5,Churchhill Downs,1428,8233,1944,169,209,,Active,,,http://www.redfin.com/TX/Dallas/4610-Cowan-Ave-75209/home/30855291,NTREIS,13952857,N,Y,32.8457605,-96.8307334
MLS Listing,,Single Family Residential,4719 Cowan Ave,Dallas,TX,75209,265000,2,1.0,Bluffview,1269,6273,1941,172,209,,Active,,,http://www.redfin.com/TX/Dallas/4719-Cowan-Ave-75209/home/147493053,NTREIS,13950524,N,Y,32.8461854,-96.8293007
MLS Listing,,Condo/Co-op,4414 Cedar Springs Rd #330,Dallas,TX,75219,250000,2,1.0,Tribeca,1015,88427,2003,174,246,311,Active,,,http://www.redfin.com/TX/Dallas/4414-Cedar-Springs-Rd-75219/unit-330/home/30746284,NTREIS,13940267,N,Y,32.8151633,-96.8161925
MLS Listing,,Single Family Residential,2923 W Colorado Blvd,Dallas,TX,75211,297000,3,2.0,Stevens Park West,1542,8712,1959,180,193,,Active,,,http://www.redfin.com/TX/Dallas/2923-W-Colorado-Blvd-75211/home/30911312,NTREIS,13944024,N,Y,32.7599511,-96.869969
MLS Listing,,Townhouse,4995 Thunder Rd,Dallas,TX,75244,295000,3,3.5,Silvertree Square Add,2150,3964,1973,180,137,,Active,,,http://www.redfin.com/TX/Dallas/4995-Thunder-Rd-75244/home/31099657,NTREIS,13945460,N,Y,32.9240951,-96.8214087
MLS Listing,,Single Family Residential,5312 Black Hawk St,Dallas,TX,75212,259990,4,2.0,Eagle Heights,2132,4487,2019,180,122,,Active,,,http://www.redfin.com/TX/Dallas/5312-Black-Hawk-St-75212/home/30987197,NTREIS,13943571,N,Y,32.767215,-96.9055209
MLS Listing,,Single Family Residential,5314 Somerset Dr,Rowlett,TX,75089,280000,4,3.0,Mariner Park Sec 02,2778,9975,2000,180,101,43,Active,March-30-2019 08:00 AM,March-30-2019 08:00 PM,http://www.redfin.com/TX/Rowlett/5314-Somerset-Dr-75089/home/32009824,NTREIS,13943682,N,Y,32.9172975,-96.5506303
MLS Listing,,Single Family Residential,610 W Page Ave,Dallas,TX,75208,300000,4,2.0,Ruthmede Rev,1800,7013,1925,182,167,,Active,,,http://www.redfin.com/TX/Dallas/610-W-Page-Ave-75208/home/30826950,NTREIS,13944395,N,Y,32.7399621,-96.832649
MLS Listing,,Single Family Residential,406 N Winnetka,Dallas,TX,75208,299000,3,2.0,Winnetka Heights,1663,7275,1928,183,180,,Active,,,http://www.redfin.com/TX/Dallas/406-N-Winnetka-Ave-75208/home/30827671,NTREIS,13941719,N,Y,32.748402,-96.841245
MLS Listing,,Single Family Residential,3510 Kiestcrest Dr,Dallas,TX,75233,264000,3,2.0,Kiest Forest,2178,10019,1962,189,121,,Active,,,http://www.redfin.com/TX/Dallas/3510-Kiestcrest-Dr-75233/home/147184840,NTREIS,13940047,N,Y,32.701424,-96.878935
MLS Listing,,Vacant Land,2016 Kessler Pkwy,Dallas,TX,75208,299000,0,,Buford Sub - Kessler Park,,12240,,190,,,Active,,,http://www.redfin.com/TX/Dallas/2016-Kessler-Pkwy-75208/home/31134426,NTREIS,13937966,N,Y,32.762604,-96.842187
MLS Listing,,Vacant Land,1923 POLLARD St,Dallas,TX,75208,250000,0,,Lyons,,8625,1942,192,,,Active,,,http://www.redfin.com/TX/Dallas/1923-Pollard-St-75208/home/30987205,NTREIS,13932394,N,Y,32.7718546,-96.8513218
MLS Listing,,Single Family Residential,6835 Tyree St,Dallas,TX,75209,275000,3,2.0,Webster & Woods North Park,1453,6011,1940,197,189,,Active,,,http://www.redfin.com/TX/Dallas/6835-Tyree-St-75209/home/30817089,NTREIS,13934710,N,Y,32.842155,-96.832441
MLS Listing,,Single Family Residential,3767 La Joya Dr,Dallas,TX,75220,275000,3,1.0,North Davilla Drive Estates,1188,9365,1952,198,231,,Active,,,http://www.redfin.com/TX/Dallas/3767-La-Joya-Dr-75220/home/30911783,NTREIS,13933030,N,Y,32.8719541,-96.8535425
MLS Listing,,Townhouse,3817 Rawlins St #106,Dallas,TX,75219,287500,2,2.5,Tall Tree Condo,1121,51009,1980,200,256,269,Active,,,http://www.redfin.com/TX/Dallas/3817-Rawlins-St-75219/unit-106/home/30795907,NTREIS,13927434,N,Y,32.8110104,-96.8069412
MLS Listing,,Vacant Land,11 Versailles Dr,Heath,TX,75032,265000,0,,The Promontory,,22216,,201,,,Active,,,http://www.redfin.com/TX/Heath/11-Versailles-Dr-75032/home/102286763,NTREIS,13931344,N,Y,32.872251,-96.476421
MLS Listing,,Single Family Residential,126 S Westmoreland Rd,Dallas,TX,75211,279500,3,2.0,Beverly Hill,1561,17424,1947,204,179,,Active,,,http://www.redfin.com/TX/Dallas/126-S-Westmoreland-Rd-75211/home/30841533,NTREIS,13930133,N,Y,32.7445746,-96.8738445
MLS Listing,,Single Family Residential,719 Melba St,Dallas,TX,75208,299000,4,3.0,Dallas Land & Loan 03,1499,5619,1930,205,199,,Active,,,http://www.redfin.com/TX/Dallas/719-Melba-St-75208/home/30827508,NTREIS,13920695,N,Y,32.7474372,-96.834744
MLS Listing,,Single Family Residential,11151 Cactus Ln Unit Sale,Dallas,TX,75238,269900,3,2.0,Barkley Square,1735,7797,1972,205,156,,Active,,,http://www.redfin.com/TX/Dallas/11151-Cactus-Ln-75238/unit-Sale/home/160543246,NTREIS,13929937,N,Y,32.8688186,-96.689564
MLS Listing,,Single Family Residential,3551 Ridgeoak Way,Farmers Branch,TX,75234,250000,3,2.0,Town North Estates,2100,8973,1959,212,119,,Active,,,http://www.redfin.com/TX/Farmers-Branch/3551-Ridgeoak-Way-75234/home/31343084,NTREIS,13921457,N,Y,32.9196247,-96.8586581
MLS Listing,,Single Family Residential,653 Turtle Cove Blvd,Rockwall,TX,75087,292000,4,2.5,Turtle Cove,2574,4487,1992,216,113,,Active,March-30-2019 08:00 AM,March-30-2019 08:00 PM,http://www.redfin.com/TX/Rockwall/653-Turtle-Cove-Blvd-75087/home/33928855,NTREIS,13921665,N,Y,32.9037783,-96.4692222
MLS Listing,,Vacant Land,115 W 9th St,Dallas,TX,75208,300000,0,,Dallas Land & Loan 02,,5837,,222,,,Active,,,http://www.redfin.com/TX/Dallas/115-W-9th-St-75208/home/30826849,NTREIS,13917969,N,Y,32.7465539,-96.8235042
MLS Listing,,Single Family Residential,1908 Pollard St,Dallas,TX,75208,250000,2,1.0,Oneal & Huffmans Rev,1146,7144,1925,224,218,,Active,,,http://www.redfin.com/TX/Dallas/1908-Pollard-St-75208/home/30987188,NTREIS,13916943,N,Y,32.7714923,-96.8507416
MLS Listing,,Condo/Co-op,5816 Birchbrook Dr #224,Dallas,TX,75206,259900,2,2.0,Veneto 01 Condo,1155,138826,1970,225,225,220,Active,,,http://www.redfin.com/TX/Dallas/5816-Birchbrook-Dr-75206/unit-224/home/30789216,NTREIS,13916513,N,Y,32.8472428,-96.7674
MLS Listing,,Condo/Co-op,1505 Elm St #802,Dallas,TX,75201,260000,1,1.5,1505 Elm Street Condos,1482,10019,1957,228,175,1093,Active,,,http://www.redfin.com/TX/Dallas/1505-Elm-St-75201/unit-802/home/30745203,NTREIS,13912266,N,Y,32.7814834,-96.7997122
MLS Listing,,Vacant Land,15 Terry Ln,Heath,TX,75032,282600,0,,Le Ruisseau,,82067,1968,240,,,Active,,,http://www.redfin.com/TX/Heath/15-Terry-Ln-75032/home/146450811,NTREIS,13897248,N,Y,32.8394653,-96.5001165
MLS Listing,,Single Family Residential,4305 Timberglen Rd,Dallas,TX,75287,300000,3,2.5,Parkway Village Sec Two,2079,6098,1988,244,144,33,Active,March-30-2019 08:00 AM,March-30-2019 08:00 PM,http://www.redfin.com/TX/Dallas/4305-Timberglen-Rd-75287/home/32028556,NTREIS,13901972,N,Y,33.0043069,-96.8367958
MLS Listing,,Single Family Residential,3208 Healey Dr,Dallas,TX,75228,260000,3,2.0,Shiloh Park 02,1631,8015,1955,259,159,,Active,,,http://www.redfin.com/TX/Dallas/3208-Healey-Dr-75228/home/31009372,NTREIS,13880249,N,Y,32.8233973,-96.6612436
MLS Listing,,Single Family Residential,621 Cristler Ave,Dallas,TX,75223,299900,3,2.0,Mount Auburn,1215,6490,1910,275,247,,Active,,,http://www.redfin.com/TX/Dallas/621-Cristler-Ave-75223/home/30801439,NTREIS,13875257,N,Y,32.8020412,-96.7462839
MLS Listing,,Single Family Residential,6914 Prosper St,Dallas,TX,75209,300000,2,2.0,Mount Vernon Heights,1768,6316,1944,277,170,,Active,,,http://www.redfin.com/TX/Dallas/6914-Prosper-St-75209/home/30855235,NTREIS,13875634,N,Y,32.8426466,-96.8282539
MLS Listing,,Single Family Residential,4309 Timberglen Rd,Dallas,TX,75287,290000,3,2.0,Parkway Village Sec Two,1724,5227,1988,288,168,63,Active,March-30-2019 08:00 AM,March-30-2019 08:00 PM,http://www.redfin.com/TX/Dallas/4309-Timberglen-Rd-75287/home/32028561,NTREIS,13867085,N,Y,33.004293,-96.8366493
MLS Listing,,Vacant Land,4700 W Davis St,Dallas,TX,75211,280000,0,,,,161956,,349,,,Active,,,http://www.redfin.com/TX/Dallas/4700-W-Davis-St-75211/home/31093194,NTREIS,13818889,N,Y,32.750101,-96.902856
MLS Listing,,Single Family Residential,1310 Duluth St,Dallas,TX,75212,300000,2,1.0,Cement City,980,7144,1948,376,306,,Active,,,http://www.redfin.com/TX/Dallas/1310-Duluth-St-75212/home/30987383,NTREIS,13797823,N,Y,32.7766271,-96.8427004
MLS Listing,,Vacant Land,4215 Memory Lane Blvd,Dallas,TX,75241,300000,0,,Pleasant View Plantations,,212486,,418,,,Active,,,http://www.redfin.com/TX/Dallas/4215-Memory-Ln-Blvd-75241/home/31089499,NTREIS,13770866,N,Y,32.663426,-96.753919
MLS Listing,,Vacant Land,1501 E Camp Wisdom Rd,Dallas,TX,75241,265000,0,,,,236095,,422,,,Active,,,http://www.redfin.com/TX/Dallas/1501-E-Camp-Wisdom-Rd-75232/home/106067028,NTREIS,13769052,N,Y,32.664037,-96.797539
MLS Listing,,Vacant Land,7 Vanguard Way,Dallas,TX,75243,275000,0,,Urban Reserve Add,,,,431,,133,Active,,,http://www.redfin.com/TX/Dallas/7-Vanguard-Way-75243/home/30763625,NTREIS,13760087,N,Y,32.904247,-96.763723
MLS Listing,,Single Family Residential,12210 High Meadow Dr,Dallas,TX,75234,275000,4,2.0,Forest Ridge North,1848,8712,1962,489,149,,Active,,,http://www.redfin.com/TX/Dallas/12210-High-Meadow-Dr-75234/home/31094527,NTREIS,13734929,N,Y,32.9146162,-96.862889
New Construction Home,,Single Family Residential,7432 Palisades Dr,Rowlett,TX,75088,297091,3,2.5,Bayside,1683,,2018,192,177,,Active,,,http://www.redfin.com/TX/Dallas/7432-Palisades-Dr-75088/home/147121312,NewHomeSource.com,1516939,N,Y,32.881291,-96.528853
New Construction Plan,,Single Family Residential,Waterford II FSW,Wylie,TX,75098,299950,3,2.0,Grayhawk Park,2027,,,,148,,Active,,,http://www.redfin.com/TX/Wylie/Grayhawk-Park/Waterford-II-FSW/home/145204892,NewHomeSource.com,Plan-81411358,N,Y,33.009722,-96.497074
New Construction Plan,,Single Family Residential,Sunnyvale,Wylie,TX,75098,298990,3,2.0,Grayhawk Park,2156,,,,139,,Active,,,http://www.redfin.com/TX/Unknown/Grayhawk-Park/Sunnyvale/home/160571624,NewHomeSource.com,Plan-71539494,N,Y,33.009401,-96.497083
