SALE TYPE,SOLD DATE,PROPERTY TYPE,ADDRESS,CITY,STATE OR PROVINCE,ZIP OR POSTAL CODE,PRICE,BEDS,BATHS,LOCATION,SQUARE FEET,LOT SIZE,YEAR BUILT,DAYS ON MARKET,$/SQUARE FEET,HOA/MONTH,STATUS,NEXT OPEN HOUSE START TIME,NEXT OPEN HOUSE END TIME,URL (SEE http://www.redfin.com/buy-a-home/comparative-market-analysis FOR INFO ON PRICING),SOURCE,MLS#,FAVORITE,INTERESTED,LATITUDE,LONGITUDE
MLS Listing,,Multi-Family (2-4 Unit),3619 Dorothy Ave,Dallas,TX,75209,590888,3,2.5,Blue Sky at West HP,2348,2570,2017,81,252,40,Active,,,http://www.redfin.com/TX/Dallas/3619-Dorothy-Ave-75209/home/143837949,NTREIS,13995592,N,Y,32.8283017,-96.8217255
Redfin Data,,Single Family Residential,4702 Belmont Ave,Dallas,TX,75204,575000,4,3.5,Dallas,2754,2178,2007,4,209,,Pre On-Market,,,http://www.redfin.com/TX/Dallas/4702-Belmont-Ave-75204/home/30809107,Coming Soon,29189,N,Y,32.810508,-96.78484
MLS Listing,,Condo/Co-op,2200 Victory Ave #1201,Dallas,TX,75219,575000,1,1.5,The House Condos,1540,53709,2007,1,373,1157,Active,March-31-2019 02:00 PM,March-31-2019 04:00 PM,http://www.redfin.com/TX/Dallas/2200-Victory-Ave-75219/unit-1201/home/30782378,NTREIS,14054327,N,Y,32.7849571,-96.8096512
MLS Listing,,Single Family Residential,5127 Mission Ave,Dallas,TX,75206,575000,3,2.5,Cochran Heights,2869,3485,2006,1,200,,Active,March-31-2019 02:00 PM,March-31-2019 04:00 PM,http://www.redfin.com/TX/Dallas/5127-Mission-Ave-75206/home/30808624,NTREIS,14054383,N,Y,32.816844,-96.782895
MLS Listing,,Single Family Residential,1323 N Edgefield Ave,Dallas,TX,75208,585000,2,2.5,Ruhl C L,1951,8538,1952,1,300,,Active,March-30-2019 01:00 PM,March-30-2019 03:00 PM,http://www.redfin.com/TX/Dallas/1323-N-Edgefield-Ave-75208/home/30836758,NTREIS,14054104,N,Y,32.7612081,-96.8437893
MLS Listing,,Single Family Residential,5960 Encore Dr,Dallas,TX,75240,559000,3,3.5,En Core,3020,8799,1983,1,185,33,Active,,,http://www.redfin.com/TX/Dallas/5960-Encore-Dr-75240/home/31149542,NTREIS,14032500,N,Y,32.9360772,-96.8045603
MLS Listing,,Single Family Residential,8634 San Fernando Way,Dallas,TX,75218,579900,3,2.0,Lake Crest Add,2036,8189,2013,2,285,,Active,,,http://www.redfin.com/TX/Dallas/8634-San-Fernando-Way-75218/home/50275810,NTREIS,14049064,N,Y,32.8225443,-96.7119768
MLS Listing,,Single Family Residential,7118 Debbe Dr,Dallas,TX,75252,550000,4,3.5,Highlands of Mckamy #5,3442,10890,1984,2,160,,Active,March-31-2019 02:00 PM,March-31-2019 04:00 PM,http://www.redfin.com/TX/Dallas/7118-Debbe-Dr-75252/home/32161522,NTREIS,14046304,N,Y,32.9935631,-96.7829045
MLS Listing,,Single Family Residential,8715 Arbor Park Dr,Dallas,TX,75243,599000,5,4.5,Little Town Creek,4035,10106,1979,2,148,,Active,April-7-2019 02:00 PM,April-7-2019 04:00 PM,http://www.redfin.com/TX/Dallas/8715-Arbor-Park-Dr-75243/home/31069437,NTREIS,14053297,N,Y,32.8954297,-96.7308764
MLS Listing,,Single Family Residential,11024 CREEKMERE Dr,Dallas,TX,75218,589900,4,3.0,LOCKWOOD,2551,10193,1964,2,231,,Active,,,http://www.redfin.com/TX/Dallas/11024-Creekmere-Dr-75218/home/30863899,NTREIS,14051905,N,Y,32.8516834,-96.689752
MLS Listing,,Single Family Residential,12455 High Meadow Dr,Dallas,TX,75244,550000,3,2.0,Meadow Park Inst 03 Rev,2732,10977,1965,2,201,,Active,March-31-2019 02:00 PM,March-31-2019 04:00 PM,http://www.redfin.com/TX/Dallas/12455-High-Meadow-Dr-75244/home/31094413,NTREIS,14049578,N,Y,32.9160396,-96.8533175
MLS Listing,,Townhouse,3931 N Hall St,Dallas,TX,75219,589000,3,3.5,Hall-Throckmorton,2569,2091,2001,3,229,,Active,March-30-2019 01:00 PM,March-30-2019 03:00 PM,http://www.redfin.com/TX/Dallas/3931-N-Hall-St-75219/home/32211934,NTREIS,14042568,N,Y,32.8115177,-96.8097455
MLS Listing,,Single Family Residential,5611 Twin Brooks Dr,Dallas,TX,75252,564900,4,3.0,Prestonwood West Section One Phase III,3065,10019,1981,3,184,9,Active,March-30-2019 01:00 PM,March-30-2019 03:00 PM,http://www.redfin.com/TX/Dallas/5611-Twin-Brooks-Dr-75252/home/31923713,NTREIS,14046734,N,Y,32.996343,-96.8086621
MLS Listing,,Single Family Residential,7816 Scotia Dr,Dallas,TX,75248,569900,4,3.5,Highlands North Sec 01,3457,10019,1975,3,165,,Active,March-31-2019 02:00 PM,March-31-2019 04:00 PM,http://www.redfin.com/TX/Dallas/7816-Scotia-Dr-75248/home/31083763,NTREIS,14052039,N,Y,32.9718993,-96.770521
MLS Listing,,Single Family Residential,8212 Bristlegrass Way,Dallas,TX,75252,599990,4,3.5,University Place,3094,7187,2019,4,194,54,Active,,,http://www.redfin.com/TX/Dallas/8212-Bristlegrass-Way-75080/home/160759998,NTREIS,14051435,N,Y,32.991273,-96.762177
MLS Listing,,Single Family Residential,923 Cordova,Dallas,TX,75223,599000,3,2.0,Hollywood,2327,7100,1929,5,257,,Active,March-31-2019 02:00 PM,March-31-2019 04:00 PM,http://www.redfin.com/TX/Dallas/923-Cordova-St-75223/home/30812995,NTREIS,14050846,N,Y,32.8021684,-96.7415555
MLS Listing,,Single Family Residential,1001 Sarasota Cir,Dallas,TX,75223,599000,3,2.5,Hollywood Heights,2466,14375,1941,5,243,,Active,,,http://www.redfin.com/TX/Dallas/1001-Sarasota-Cir-75223/home/30812945,NTREIS,14050107,N,Y,32.8011537,-96.7423951
MLS Listing,,Single Family Residential,5615 Covehaven Dr,Dallas,TX,75252,575000,4,3.0,Prestonwood West Sec One Ph III,3596,10019,1985,7,160,10,Active,,,http://www.redfin.com/TX/Dallas/5615-Covehaven-Dr-75252/home/31923745,NTREIS,14049525,N,Y,32.9973041,-96.808704
MLS Listing,,Condo/Co-op,6615 Bandera Ave Unit 2C,Dallas,TX,75225,576000,2,2.5,Drexel Park Hollow Condos Ph 01-2,2363,84376,2006,8,244,815,Active,,,http://www.redfin.com/TX/Dallas/6615-Bandera-Ave-75225/unit-2C/home/30788839,NTREIS,14040991,N,Y,32.8679553,-96.7906453
MLS Listing,,Single Family Residential,9712 Faircrest Dr,Dallas,TX,75238,588000,5,4.5,Royal Highlands,3869,11718,1977,8,152,2,Active,,,http://www.redfin.com/TX/Dallas/9712-Faircrest-Dr-75238/home/31064414,NTREIS,14049181,N,Y,32.8894316,-96.7185029
MLS Listing,,Townhouse,3915 N Hall St Unit B2,Dallas,TX,75219,580560,3,3.5,"The Alto Townhomes on Hall, LLC",1968,,2019,8,295,,Active,,,http://www.redfin.com/TX/Dallas/3915-N-Hall-St-75219/unit-B2/home/160724879,NTREIS,14049159,N,Y,32.8113851,-96.8095523
MLS Listing,,Townhouse,5235 Crestfield Pl,Dallas,TX,75206,582500,3,3.5,Crestfield Place,1960,1525,2018,8,297,,Active,March-30-2019 01:00 AM,March-30-2019 03:00 PM,http://www.redfin.com/TX/Dallas/2214-Moser-Ave-75206/home/147235374,NTREIS,14049108,N,Y,32.8131327,-96.778052
MLS Listing,,Single Family Residential,6709 Braeburn Dr,Dallas,TX,75214,559000,2,2.0,Caruth Terrace 05,1694,8625,1955,8,330,,Active,,,http://www.redfin.com/TX/Dallas/6709-Braeburn-Dr-75214/home/30822791,NTREIS,14048098,N,Y,32.8408975,-96.7452594
MLS Listing,,Single Family Residential,6723 Trammel Dr,Dallas,TX,75214,584900,3,2.5,Ridgewood Park Rev,2248,13939,1967,9,260,,Active,March-31-2019 02:00 PM,March-31-2019 04:00 PM,http://www.redfin.com/TX/Dallas/6723-Trammel-Dr-75214/home/30869560,NTREIS,14041411,N,Y,32.8470296,-96.7449854
MLS Listing,,Single Family Residential,10238 Gooding Dr,Dallas,TX,75229,600000,3,2.0,Midway Hills,2120,16379,1952,9,283,,Active,,,http://www.redfin.com/TX/Dallas/10238-Gooding-Dr-75229/home/30929246,NTREIS,14047489,N,Y,32.8856623,-96.8430199
MLS Listing,,Townhouse,5143 Brickellia Dr,Dallas,TX,75209,555208,3,3.5,Oak Park Villas,2019,,2018,10,275,100,Active,,,http://www.redfin.com/TX/Dallas/5143-Brickellia-Dr-75209/home/160390342,NTREIS,14047329,N,Y,32.827858,-96.821362
MLS Listing,,Single Family Residential,5342 Bowser Ave,Dallas,TX,75209,562000,3,3.5,Cityville 1,1899,1655,2016,10,296,100,Active,,,http://www.redfin.com/TX/Dallas/5342-Bowser-Ave-75209/home/110137177,NTREIS,14045013,N,Y,32.826977,-96.820955
MLS Listing,,Single Family Residential,1816 Peabody Ave,Dallas,TX,75215,575000,3,1.0,Edgewood Place,2092,8712,1926,10,275,,Active,,,http://www.redfin.com/TX/Dallas/1816-Peabody-Ave-75215/home/30795078,NTREIS,14045625,N,Y,32.7623198,-96.7740559
MLS Listing,,Single Family Residential,669 Aspen Valley Ln,Dallas,TX,75208,582552,4,3.0,Reserve at Kessler Heights,2951,4487,2019,11,197,125,Active,,,http://www.redfin.com/TX/Dallas/669-Aspen-Valley-Ln-75208/home/160523299,NTREIS,14046288,N,Y,32.75163,-96.852444
MLS Listing,,Single Family Residential,4057 Northaven Rd,Dallas,TX,75229,600000,3,3.0,Midway Hills 05,2690,15987,1962,12,223,,Active,March-31-2019 02:00 PM,March-31-2019 04:00 PM,http://www.redfin.com/TX/Dallas/4057-Northaven-Rd-75229/home/30927075,NTREIS,14034086,N,Y,32.9025121,-96.8422823
MLS Listing,,Condo/Co-op,2411 N Hall St #31,Dallas,TX,75204,569000,2,2.5,West Side At State Thomas Condos,1810,87425,2006,12,314,152,Active,,,http://www.redfin.com/TX/Dallas/2411-N-Hall-St-75204/unit-31/home/30783918,NTREIS,14044216,N,Y,32.8001035,-96.7948104
MLS Listing,,Single Family Residential,16834 Hunters Point Dr,Dallas,TX,75248,599900,4,3.0,Hillcrest Manor Sec 02,2594,10411,1978,15,231,,Active,March-31-2019 02:00 PM,March-31-2019 04:00 PM,http://www.redfin.com/TX/Dallas/16834-Hunters-Point-Dr-75248/home/31108132,NTREIS,14038906,N,Y,32.9806341,-96.7790553
MLS Listing,,Condo/Co-op,422 W 9th St,Dallas,TX,75208,565000,3,3.0,Dallas Land & Loan 02,2232,9801,2019,15,253,199,Active,,,http://www.redfin.com/TX/Dallas/422-W-9th-St-75208/home/30826776,NTREIS,14043863,N,Y,32.7461328,-96.8292797
MLS Listing,,Townhouse,4026 Travis St Unit E,Dallas,TX,75204,589000,2,2.5,Cityhomes-Regency,2348,697,2001,15,251,250,Active,March-31-2019 03:30 PM,March-31-2019 05:00 PM,http://www.redfin.com/TX/Dallas/4026-Travis-St-75204/unit-E/home/32251775,NTREIS,14043965,N,Y,32.813892,-96.7952058
MLS Listing,,Single Family Residential,6250 Glennox Ln,Dallas,TX,75214,575000,3,3.0,Lovers Lane East,2394,8407,1972,15,240,,Active,,,http://www.redfin.com/TX/Dallas/6250-Glennox-Ln-75214/home/30868905,NTREIS,14041183,N,Y,32.8497972,-96.7554841
MLS Listing,,Single Family Residential,4323 Creekmeadow Dr,Dallas,TX,75287,599000,4,3.5,Bent Tree West 4,3474,8276,1986,16,172,,Active,March-31-2019 03:00 PM,March-31-2019 05:00 PM,http://www.redfin.com/TX/Dallas/4323-Creekmeadow-Dr-75287/home/32028866,NTREIS,14042124,N,Y,32.9954782,-96.8357071
MLS Listing,,Single Family Residential,6622 Hillwood Ln,Dallas,TX,75248,575000,4,3.0,Preston Meadow Estates,2517,9453,1970,16,228,,Active,,,http://www.redfin.com/TX/Dallas/6622-Hillwood-Ln-75248/home/31077406,NTREIS,14042291,N,Y,32.9580915,-96.7957088
MLS Listing,,Single Family Residential,5017 Mill Run Rd,Dallas,TX,75244,569000,5,3.5,Inwood North Estates,2630,10280,1964,17,216,,Active,,,http://www.redfin.com/TX/Dallas/5017-Mill-Run-Rd-75244/home/31099608,NTREIS,14041889,N,Y,32.9231286,-96.8210528
MLS Listing,,Single Family Residential,18009 Lake Ray Hubbard Dr,Forney,TX,75126,569297,4,4.5,Travis Ranch Marina,3231,5227,2019,17,176,63,Active,,,http://www.redfin.com/TX/Forney/18009-Lake-Ray-Hubbard-Dr-75126/home/147851039,NTREIS,14042494,N,Y,32.807478,-96.489108
MLS Listing,,Single Family Residential,4907 Holly Tree Dr,Dallas,TX,75287,599000,5,3.5,Bent Tree North 4 Sec Two,3973,13068,1996,17,151,1,Active,,,http://www.redfin.com/TX/Dallas/4907-Holly-Tree-Dr-75287/home/32075802,NTREIS,14040341,N,Y,32.998795,-96.822027
MLS Listing,,Single Family Residential,9474 Sherwood Gln,Dallas,TX,75228,579900,4,3.5,Sherwood Glen Estates,3117,19863,1968,17,186,,Active,,,http://www.redfin.com/TX/Dallas/9474-Sherwood-Gln-75228/home/31013009,NTREIS,14041951,N,Y,32.82023,-96.6922588
MLS Listing,,Single Family Residential,6724 Belford Dr,Dallas,TX,75214,584500,3,2.0,Caruth Terrace,1932,8625,1955,18,303,,Active,,,http://www.redfin.com/TX/Dallas/6724-Belford-Dr-75214/home/30822802,NTREIS,14039860,N,Y,32.8415829,-96.7451548
MLS Listing,,Condo/Co-op,5200 Keller Springs Rd #1120,Dallas,TX,75248,599900,2,2.0,Bonaventure Condo,2272,331012,1981,18,264,1132,Active,,,http://www.redfin.com/TX/Dallas/5200-Keller-Springs-Rd-75248/unit-1120/home/31128868,NTREIS,14041470,N,Y,32.9683918,-96.8197626
MLS Listing,,Townhouse,3110 Oliver Ave Unit A,Dallas,TX,75205,575000,2,2.5,Oliver Street Lofts,1942,4879,2006,19,296,350,Active,,,http://www.redfin.com/TX/Dallas/3110-Oliver-St-75205/unit-A/home/30782788,NTREIS,14040636,N,Y,32.8198267,-96.7897875
MLS Listing,,Single Family Residential,15920 Windy Meadow Dr,Dallas,TX,75248,570000,4,3.0,Prestonwood,2593,8538,1975,19,220,,Active,,,http://www.redfin.com/TX/Dallas/15920-Windy-Meadow-Dr-75248/home/31080959,NTREIS,14036425,N,Y,32.9698069,-96.7852685
MLS Listing,,Vacant Land,1132 Pemberton Hill Rd,Dallas,TX,75217,600000,0,,Old Indiana Plantations Addition,,174240,,19,,,Active,,,http://www.redfin.com/TX/Dallas/1132-Pemberton-Hill-Rd-75217/home/30917649,NTREIS,14037309,N,Y,32.732124,-96.716506
MLS Listing,,Townhouse,3258 N Haskell Ave,Dallas,TX,75204,565000,2,2.5,Travis Terrace City Homes,2516,1699,2000,19,225,289,Active,,,http://www.redfin.com/TX/Dallas/3258-N-Haskell-Ave-75204/home/32212182,NTREIS,14038893,N,Y,32.8114435,-96.7961631
MLS Listing,,Single Family Residential,9644 Robin Meadow Dr,Dallas,TX,75243,569000,4,3.0,Town Creek,3447,9583,1974,19,165,,Active,March-31-2019 12:30 PM,March-31-2019 02:00 PM,http://www.redfin.com/TX/Dallas/9644-Robin-Meadow-Dr-75243/home/31070746,NTREIS,14039386,N,Y,32.8984601,-96.7299566
MLS Listing,,Townhouse,3726 Wycliff Ave,Dallas,TX,75219,580000,3,3.5,Carlton Corner II,2908,2265,1999,19,199,,Active,March-30-2019 02:00 PM,March-30-2019 04:00 PM,http://www.redfin.com/TX/Dallas/3726-Wycliff-Ave-75219/home/32211838,NTREIS,14038633,N,Y,32.8189165,-96.8085292
MLS Listing,,Single Family Residential,1007 N Edgefield Ave,Dallas,TX,75208,569000,4,3.0,Kessler Square,2213,7754,1925,21,257,,Active,,,http://www.redfin.com/TX/Dallas/1007-N-Edgefield-Ave-75208/home/30835574,NTREIS,14030141,N,Y,32.7556615,-96.8430878
MLS Listing,,Single Family Residential,6251 Danbury Ln,Dallas,TX,75214,559000,4,2.5,First Instl Lovers Lane East A,2799,8886,1968,22,200,,Active,March-31-2019 01:00 PM,March-31-2019 03:00 PM,http://www.redfin.com/TX/Dallas/6251-Danbury-Ln-75214/home/30868976,NTREIS,14036906,N,Y,32.8487338,-96.7556452
MLS Listing,,Single Family Residential,4215 Roseland Ave,Dallas,TX,75204,598000,2,2.5,Ross Ave Add,2272,3398,2015,22,263,,Active,March-30-2019 02:00 PM,March-30-2019 04:00 PM,http://www.redfin.com/TX/Dallas/4215-Roseland-Ave-75204/home/143837773,NTREIS,14039083,N,Y,32.8017121,-96.7840551
MLS Listing,,Single Family Residential,7844 La Cosa Dr,Dallas,TX,75248,559950,4,2.5,Spring Creek,2257,10759,1967,22,248,,Active,March-31-2019 01:00 PM,March-31-2019 03:00 PM,http://www.redfin.com/TX/Dallas/7844-La-Cosa-Dr-75248/home/31075311,NTREIS,14039300,N,Y,32.9593219,-96.7718387
MLS Listing,,Multi-Family (2-4 Unit),5609 Goodwin Ave,Dallas,TX,75206,599000,6,2.0,Vickery Place Add,2700,8015,1929,22,222,,Active,,,http://www.redfin.com/TX/Dallas/5609-Goodwin-Ave-75206/home/30810233,NTREIS,14037932,N,Y,32.8236976,-96.7718617
MLS Listing,,Vacant Land,10230 Marsh Ln,Dallas,TX,75229,599000,0,,MARSH LANE 300FR BRANCH,,52272,,22,,,Active,,,http://www.redfin.com/TX/Dallas/10230-Marsh-Ln-75229/home/30928865,NTREIS,14030723,N,Y,32.8857051,-96.8554327
MLS Listing,,Single Family Residential,17268 Yellow Bells Dr,Dallas,TX,75252,563665,4,3.0,University Place,3048,5750,2019,22,185,54,Active,,,http://www.redfin.com/TX/Dallas/17268-Yellow-Bells-Dr-Unknown/home/160500534,NTREIS,14038756,N,Y,32.991617,-96.766435
MLS Listing,,Single Family Residential,6510 Copper Creek Dr,Dallas,TX,75248,550000,4,3.5,Prestonwood,3248,8538,1980,22,169,,Active,,,http://www.redfin.com/TX/Dallas/6510-Copper-Creek-Dr-75248/home/31111953,NTREIS,14038195,N,Y,32.9681312,-96.7951438
MLS Listing,,Single Family Residential,3940 Clear Cove Ln,Dallas,TX,75244,589900,3,3.5,Glen Cove 01,2547,15856,1963,22,232,3,Active,,,http://www.redfin.com/TX/Dallas/3940-Clear-Cove-Ln-75244/home/30927571,NTREIS,14036642,N,Y,32.9099838,-96.8474748
MLS Listing,,Townhouse,4310 Buena Vista St #8,Dallas,TX,75205,595000,2,2.5,Morrison Condos,2375,56628,2000,22,251,520,Active,March-31-2019 01:00 PM,March-31-2019 03:00 PM,http://www.redfin.com/TX/Dallas/4310-Buena-Vista-St-75205/unit-8/home/32253494,NTREIS,14035730,N,Y,32.8191268,-96.7937377
MLS Listing,,Single Family Residential,10861 Lochspring Dr,Dallas,TX,75218,558900,4,2.5,Lochwood Meadows,2542,10803,1968,23,220,,Active,March-30-2019 01:00 PM,March-30-2019 04:00 PM,http://www.redfin.com/TX/Dallas/10861-Lochspring-Dr-75218/home/31045866,NTREIS,14038562,N,Y,32.8600902,-96.6977951
MLS Listing,,Townhouse,3930 Holland Ave Unit C,Dallas,TX,75219,579000,2,2.5,Elements Condo,1790,8015,2005,23,323,495,Active,,,http://www.redfin.com/TX/Dallas/3930-Holland-Ave-75219/unit-C/home/30782653,NTREIS,14037809,N,Y,32.8154192,-96.8055229
MLS Listing,,Single Family Residential,4415 Briargrove Ln,Dallas,TX,75287,579900,5,3.5,Bent Tree West Ph I,3280,10454,1978,23,177,,Active,,,http://www.redfin.com/TX/Dallas/4415-Briargrove-Ln-75287/home/31846364,NTREIS,14027631,N,Y,32.9924558,-96.832127
MLS Listing,,Single Family Residential,633 Courageous Dr,Rockwall,TX,75032,599000,4,3.5,Chandlers Landing #18 Sec 2,3248,5706,2017,23,184,106,Active,,,http://www.redfin.com/TX/Rockwall/633-Courageous-Dr-75032/home/113750910,NTREIS,14004752,N,Y,32.879213,-96.486014
MLS Listing,,Single Family Residential,4123 High Summit Dr,Dallas,TX,75244,565000,5,3.0,Glen Cove East Sec 03,2780,10193,1972,24,203,,Active,,,http://www.redfin.com/TX/Dallas/4123-High-Summit-Dr-75244/home/31095616,NTREIS,14037503,N,Y,32.919113,-96.8420094
MLS Listing,,Single Family Residential,4140 Brunswick Dr,Dallas,TX,75220,574900,3,1.5,Glenridge Estates,1784,9453,1951,24,322,,Active,March-31-2019 01:00 PM,March-31-2019 04:00 PM,http://www.redfin.com/TX/Dallas/4140-Brunswick-Dr-75220/home/30910126,NTREIS,14032673,N,Y,32.8742038,-96.8413184
MLS Listing,,Condo/Co-op,5656 N Central Expy #800,Dallas,TX,75206,575000,2,2.5,M Central Residences Condo,2124,170102,2005,25,271,1440,Active,March-31-2019 03:00 PM,March-31-2019 04:30 PM,http://www.redfin.com/TX/Dallas/5656-N-Central-Expy-75205/unit-800/home/30775762,NTREIS,14032669,N,Y,32.8355513,-96.7784876
MLS Listing,,Single Family Residential,4139 Valley Ridge Rd,Dallas,TX,75220,599000,3,2.0,Glenridge Estates,1954,8146,1956,25,307,,Active,,,http://www.redfin.com/TX/Dallas/4139-Valley-Ridge-Rd-75220/home/30910233,NTREIS,14031764,N,Y,32.8773301,-96.8410672
MLS Listing,,Multi-Family (2-4 Unit),5637 Vickery Blvd,Dallas,TX,75206,575000,3,1.0,Vickery Place,2824,8494,1940,25,204,,Active,,,http://www.redfin.com/TX/Dallas/5637-Vickery-Blvd-75206/home/30807286,NTREIS,14033284,N,Y,32.82267,-96.770675
MLS Listing,,Single Family Residential,9326 Shoreview Rd,Dallas,TX,75238,595000,4,2.5,Lake Ridge Estates,1857,10019,1959,26,320,,Active,,,http://www.redfin.com/TX/Dallas/9326-Shoreview-Rd-75238/home/30881719,NTREIS,14034275,N,Y,32.8683647,-96.7242086
MLS Listing,,Single Family Residential,6514 Covecreek Pl,Dallas,TX,75240,599000,4,3.0,Coterie 02,3553,13329,1979,26,169,,Active,,,http://www.redfin.com/TX/Dallas/6514-Covecreek-Pl-75240/home/31017383,NTREIS,14028963,N,Y,32.927553,-96.793721
MLS Listing,,Single Family Residential,4208 San Gabriel Dr,Dallas,TX,75229,580000,5,4.5,San Gabriel Estates,3167,16901,1963,28,183,,Active,,,http://www.redfin.com/TX/Dallas/4208-San-Gabriel-Dr-75229/home/30927278,NTREIS,14034584,N,Y,32.8988902,-96.8379683
MLS Listing,,Single Family Residential,3732 Vinecrest Dr,Dallas,TX,75229,585000,5,2.5,Royal North Estates,3076,16553,1963,28,190,,Active,,,http://www.redfin.com/TX/Dallas/3732-Vinecrest-Dr-75229/home/30931416,NTREIS,14034396,N,Y,32.897906,-96.8547416
MLS Listing,,Single Family Residential,703 Newell Ave,Dallas,TX,75223,569000,3,2.0,Santa Monica,1786,7144,1926,29,319,,Active,,,http://www.redfin.com/TX/Dallas/703-Newell-Ave-75223/home/30818269,NTREIS,14033825,N,Y,32.8058822,-96.7417679
MLS Listing,,Single Family Residential,6419 La Manga Dr,Dallas,TX,75248,565000,4,3.0,Prestonwood,3006,8364,1979,29,188,,Active,April-7-2019 02:00 PM,April-7-2019 04:00 PM,http://www.redfin.com/TX/Dallas/6419-La-Manga-Dr-75248/home/31111714,NTREIS,14030377,N,Y,32.9735374,-96.7956041
MLS Listing,,Single Family Residential,6957 Kenwood Ave,Dallas,TX,75214,550000,2,2.0,Bob O Links Downs,1446,8015,1951,29,380,,Active,,,http://www.redfin.com/TX/Dallas/6957-Kenwood-Ave-75214/home/30823734,NTREIS,14033765,N,Y,32.8335263,-96.7416424
MLS Listing,,Single Family Residential,2240 W Dutch Dr,Richardson,TX,75080,589900,4,3.0,Savoy Landing,3401,9322,2014,29,173,158,Active,,,http://www.redfin.com/TX/Richardson/2240-W-Dutch-Dr-75080/home/110135749,NTREIS,14032630,N,Y,32.9826386,-96.7578262
MLS Listing,,Townhouse,4030 Travis St Unit D,Dallas,TX,75204,595000,2,2.5,Cityhomes-Regency,2348,1742,2001,30,253,250,Active,March-31-2019 01:00 PM,March-31-2019 03:00 PM,http://www.redfin.com/TX/Dallas/4030-Travis-St-75204/unit-D/home/32251780,NTREIS,14032904,N,Y,32.81398,-96.794972
MLS Listing,,Single Family Residential,5418 Martel Ave,Dallas,TX,75206,595000,3,2.5,Mcmillan Heights,2630,3398,2006,30,226,,Active,,,http://www.redfin.com/TX/Dallas/5418-Martel-Ave-75206/home/30822431,NTREIS,14024198,N,Y,32.831527,-96.776496
MLS Listing,,Single Family Residential,10723 Rose Creek Ct,Dallas,TX,75238,599000,4,3.5,Rosewood Garden Estates,3853,8886,1997,30,155,,Active,March-30-2019 12:00 PM,March-30-2019 02:00 PM,http://www.redfin.com/TX/Dallas/10723-Rose-Creek-Ct-75238/home/31151904,NTREIS,14031807,N,Y,32.8739937,-96.6993829
MLS Listing,,Single Family Residential,6550 Lockheed Ave,Dallas,TX,75209,569500,3,2.5,Lockheed Hills,1621,7579,1944,30,351,,Active,,,http://www.redfin.com/TX/Dallas/6550-Lockheed-Ave-75209/home/30855202,NTREIS,14030815,N,Y,32.8381602,-96.8293007
MLS Listing,,Single Family Residential,1029 Valencia St,Dallas,TX,75223,585000,3,3.5,Hollywood,2437,14549,1953,30,240,,Active,,,http://www.redfin.com/TX/Dallas/1029-Valencia-St-75223/home/30812962,NTREIS,14031681,N,Y,32.8011357,-96.7410988
MLS Listing,,Condo/Co-op,4419 Buena Vista St #9,Dallas,TX,75205,569000,2,2.5,Buena Vista Condos,2179,,2004,31,261,315,Active,,,http://www.redfin.com/TX/Dallas/4419-Buena-Vista-St-75205/unit-9/home/108477949,NTREIS,14031839,N,Y,32.8214312,-96.7928992
MLS Listing,,Single Family Residential,10621 Ferndale Rd,Dallas,TX,75238,560000,4,3.0,Caribou Estates,2700,10367,1969,32,207,,Active,,,http://www.redfin.com/TX/Dallas/10621-Ferndale-Rd-75238/home/31062158,NTREIS,14010573,N,Y,32.8915667,-96.7113975
MLS Listing,,Single Family Residential,8128 San Cristobal,Dallas,TX,75218,569000,4,2.5,FOREST HILLS,2296,11326,1970,33,248,,Active,,,http://www.redfin.com/TX/Dallas/8128-San-Cristobal-Dr-75218/home/30860671,NTREIS,14027855,N,Y,32.8076597,-96.7168519
MLS Listing,,Single Family Residential,7628 Meadow Rd,Dallas,TX,75230,599900,4,3.0,Meadows Sec 03,2997,15028,1970,33,200,,Active,,,http://www.redfin.com/TX/Dallas/7628-Meadow-Rd-75230/home/30873298,NTREIS,14021755,N,Y,32.8861885,-96.7753737
MLS Listing,,Single Family Residential,4839 Junius St,Dallas,TX,75246,570000,3,3.0,Chenault,2784,7623,1914,33,205,,Active,,,http://www.redfin.com/TX/Dallas/4839-Junius-St-75246/home/30793960,NTREIS,14029075,N,Y,32.7991576,-96.7688268
MLS Listing,,Single Family Residential,3869 Crown Shore Dr,Dallas,TX,75244,595000,4,4.5,Glen Cove,2920,13939,1963,36,204,,Active,,,http://www.redfin.com/TX/Dallas/3869-Crown-Shore-Dr-75244/home/30927523,NTREIS,14025869,N,Y,32.9133079,-96.8490507
MLS Listing,,Single Family Residential,6505 Redpine Rd,Dallas,TX,75248,575000,4,3.0,Prestonwood,3017,8581,1979,36,191,,Active,,,http://www.redfin.com/TX/Dallas/6505-Redpine-Rd-75248/home/31111679,NTREIS,14028735,N,Y,32.974352,-96.7935118
MLS Listing,,Townhouse,3718 Wycliff Ave,Dallas,TX,75219,550000,3,3.5,Carlton Corner 02,2428,1786,1999,38,227,,Active,,,http://www.redfin.com/TX/Dallas/3718-Wycliff-Ave-75219/home/32211839,NTREIS,14026213,N,Y,32.8188146,-96.8086682
MLS Listing,,Single Family Residential,6019 Winton St,Dallas,TX,75206,585000,3,2.0,Wilshire Place,1842,6403,1941,38,318,,Active,,,http://www.redfin.com/TX/Dallas/6019-Winton-St-75206/home/30821352,NTREIS,14024032,N,Y,32.8359037,-96.7634309
MLS Listing,,Townhouse,3407 Howell St,Dallas,TX,75204,559900,3,2.5,Hall Howell Tr,2551,3703,2004,40,219,100,Active,,,http://www.redfin.com/TX/Dallas/3407-Howell-St-75204/home/30739487,NTREIS,14022884,N,Y,32.8030942,-96.7974036
MLS Listing,,Townhouse,5106 Garrett Stream Ct,Dallas,TX,75206,559900,3,3.0,Villas at Garrett Avenue,2032,2483,2015,41,276,150,Active,,,http://www.redfin.com/TX/Dallas/5106-Garrett-Stream-Ct-75206/home/110137534,NTREIS,14024697,N,Y,32.8122688,-96.7790821
MLS Listing,,Single Family Residential,18727 Lloyd Cir,Dallas,TX,75252,574900,5,5.0,Preston Parkside Estates,3780,11761,1992,41,152,38,Active,,,http://www.redfin.com/TX/Dallas/18727-Lloyd-Cir-75252/home/32077513,NTREIS,14025208,N,Y,33.0049259,-96.7978012
MLS Listing,,Condo/Co-op,3110 Oliver Ave Unit C,Dallas,TX,75205,555000,2,2.5,Oliver Street Lofts,1946,4879,2006,45,285,300,Active,,,http://www.redfin.com/TX/Dallas/3110-Oliver-St-75205/unit-C/home/30780954,NTREIS,14022797,N,Y,32.8198267,-96.7897875
MLS Listing,,Single Family Residential,4959 Mill Run Rd,Dallas,TX,75244,550000,4,3.5,Inwood North Estates,2500,10498,1965,45,220,,Active,,,http://www.redfin.com/TX/Dallas/4959-Mill-Run-Rd-75244/home/31099497,NTREIS,14021804,N,Y,32.923369,-96.8222669
MLS Listing,,Single Family Residential,3718 Dorothy Ave,Dallas,TX,75209,569000,3,2.5,Lafoy Place,2823,3093,2005,47,202,,Active,,,http://www.redfin.com/TX/Dallas/3718-Dorothy-Ave-75209/home/30815742,NTREIS,14021123,N,Y,32.8289199,-96.820442
MLS Listing,,Single Family Residential,6248 Berwyn Ln,Dallas,TX,75214,569000,3,2.0,Caruth Meadows,2087,9932,1967,47,273,,Active,March-31-2019 02:00 PM,March-31-2019 04:00 PM,http://www.redfin.com/TX/Dallas/6248-Berwyn-Ln-75214/home/30867204,NTREIS,14021230,N,Y,32.843628,-96.7560278
MLS Listing,,Single Family Residential,4539 Ashford Dr,Dallas,TX,75214,565000,3,2.0,Caruth Terrace,2000,8756,1961,50,283,,Active,March-31-2019 02:00 PM,March-31-2019 04:00 PM,http://www.redfin.com/TX/Dallas/4539-Ashford-Dr-75214/home/30823168,NTREIS,14017123,N,Y,32.8425216,-96.748082
MLS Listing,,Single Family Residential,6532 Westlake Ave,Dallas,TX,75214,564999,3,2.0,Country Club Estates,1876,8886,1958,50,301,,Active,March-31-2019 02:00 PM,March-31-2019 04:00 PM,http://www.redfin.com/TX/Dallas/6532-Westlake-Ave-75214/home/30824050,NTREIS,14017805,N,Y,32.8217033,-96.748625
MLS Listing,,Single Family Residential,4219 Creekmeadow Dr,Dallas,TX,75287,590000,3,3.5,Bent Tree West 4,3929,9148,1987,50,150,15,Active,,,http://www.redfin.com/TX/Dallas/4219-Creekmeadow-Dr-75287/home/32028874,NTREIS,14017523,N,Y,32.9955732,-96.8375705
MLS Listing,,Single Family Residential,7140 Edmund Ct,Dallas,TX,75223,599000,4,3.5,Kensington Gardens,2715,3920,2019,51,221,41,Active,,,http://www.redfin.com/TX/Dallas/7140-Edmund-Ct-75223/home/160411970,NTREIS,14012482,N,Y,32.8094,-96.815429
MLS Listing,,Townhouse,4023 Gilbert Ave,Dallas,TX,75219,599000,2,2.5,Holland,2373,2004,2004,51,252,,Active,March-31-2019 02:00 PM,March-31-2019 04:00 PM,http://www.redfin.com/TX/Dallas/4023-Gilbert-Ave-75219/home/30739425,NTREIS,14019217,N,Y,32.816666,-96.805898
MLS Listing,,Single Family Residential,805 Crane Dr,Coppell,TX,75019,559900,4,3.5,Northlake Woodlands East 10 Ph A,3457,8712,1992,51,162,13,Active,,,http://www.redfin.com/TX/Coppell/805-Crane-Dr-75019/home/31267619,NTREIS,14017319,N,Y,32.9570738,-96.9668413
MLS Listing,,Single Family Residential,2204 Chunk Ct,Dallas,TX,75206,599000,3,3.5,Post Office Park Add,2175,,2015,51,275,800,Active,,,http://www.redfin.com/TX/Dallas/2204-Chunk-Ct-75206/home/104021515,NTREIS,14018054,N,Y,32.8169608,-96.7711993
MLS Listing,,Single Family Residential,5123 Creighton Dr,Dallas,TX,75214,569000,4,3.5,Lovers Lane East Add 02 Instl,2962,13896,1969,53,192,,Active,,,http://www.redfin.com/TX/Dallas/5123-Creighton-Dr-75214/home/30868871,NTREIS,14016646,N,Y,32.8502785,-96.7603775
MLS Listing,,Single Family Residential,4408 Forest Bend Rd,Dallas,TX,75244,562000,5,3.5,Schreiber Manor 5th Inst,3950,15856,1968,53,142,,Active,,,http://www.redfin.com/TX/Dallas/4408-Forest-Bend-Rd-75244/home/31097828,NTREIS,14016957,N,Y,32.9229662,-96.8340531
MLS Listing,,Single Family Residential,10130 Caribou Trl,Dallas,TX,75238,564700,4,3.0,Lake Highlands North,2529,12240,1973,54,223,,Active,,,http://www.redfin.com/TX/Dallas/10130-Caribou-Trl-75238/home/31062434,NTREIS,14016919,N,Y,32.8871977,-96.7107079
MLS Listing,,Condo/Co-op,3923 Cole Ave #201,Dallas,TX,75204,581330,2,2.5,City Bl 987,1906,14244,2018,54,305,362,Active,,,http://www.redfin.com/TX/Dallas/3923-Cole-Ave-75204/unit-201/home/145655291,NTREIS,14016644,N,Y,32.8117603,-96.7953531
MLS Listing,,Single Family Residential,15936 Meadow Vista Pl,Dallas,TX,75248,585000,4,3.0,Prestonwood,3257,15246,1987,54,180,,Active,,,http://www.redfin.com/TX/Dallas/15936-Meadow-Vista-Pl-75248/home/31079223,NTREIS,14016410,N,Y,32.9663138,-96.7846618
MLS Listing,,Single Family Residential,6275 Saratoga Cir,Dallas,TX,75214,574900,3,2.0,Caruth Terrace 07,1984,9583,1958,57,290,,Active,,,http://www.redfin.com/TX/Dallas/6275-Saratoga-Cir-75214/home/30822666,NTREIS,14015129,N,Y,32.842787,-96.7553587
MLS Listing,,Single Family Residential,2850 Peavy Rd,Dallas,TX,75228,574500,4,2.5,3DBSAB1,2880,77101,1952,57,199,,Active,,,http://www.redfin.com/TX/Dallas/2850-Peavy-Rd-75228/home/31011175,NTREIS,14014754,N,Y,32.8123759,-96.6832347
MLS Listing,,Single Family Residential,3911 Candlenut Ln,Dallas,TX,75244,575000,4,2.5,Crestpark Club,2664,10062,1969,57,216,3,Active,,,http://www.redfin.com/TX/Dallas/3911-Candlenut-Ln-75244/home/31095394,NTREIS,14014200,N,Y,32.9197187,-96.8465534
MLS Listing,,Single Family Residential,3929 Port Royal Dr,Dallas,TX,75244,574000,5,3.0,Glen Cove Add Instl 01,2982,10890,1964,58,192,,Active,,,http://www.redfin.com/TX/Dallas/3929-Port-Royal-Dr-75244/home/30928056,NTREIS,14010912,N,Y,32.9153603,-96.8485218
MLS Listing,,Single Family Residential,1832 Stevens Bluff Ln,Dallas,TX,75208,589000,3,3.5,High Grove West Kessler Heights 1,2352,3615,2016,60,250,125,Active,,,http://www.redfin.com/TX/Dallas/1832-Stevens-Bluff-Ln-75208/home/143837989,NTREIS,14012479,N,Y,32.751554,-96.848527
MLS Listing,,Townhouse,2619 Colby St Unit C,Dallas,TX,75204,565000,3,3.5,Thomas Boll & Colby,2405,1612,2002,60,235,,Active,,,http://www.redfin.com/TX/Dallas/2619-Colby-St-75204/unit-C/home/32251726,NTREIS,14010888,N,Y,32.794475,-96.798357
MLS Listing,,Single Family Residential,8033 Mary Curran Ct,Dallas,TX,75252,573000,4,3.5,University Place,3239,5663,2019,60,177,55,Active,,,http://www.redfin.com/TX/Dallas/8033-Mary-Curran-Ct-75252/home/148428288,NTREIS,14012221,N,Y,32.984709,-96.76646
MLS Listing,,Single Family Residential,5722 Deseret Trl,Dallas,TX,75252,575000,4,3.0,Bent Trail Additional Phase One,3274,9583,1982,64,176,10,Active,,,http://www.redfin.com/TX/Dallas/5722-Deseret-Trl-75252/home/31849450,NTREIS,14009733,N,Y,33.0051903,-96.8090179
MLS Listing,,Single Family Residential,16121 Shadybank Dr,Dallas,TX,75248,575000,4,4.0,Prestonwood,3564,9540,1980,64,161,6,Active,,,http://www.redfin.com/TX/Dallas/16121-Shadybank-Dr-75248/home/31111819,NTREIS,14009008,N,Y,32.9713664,-96.796462
MLS Listing,,Townhouse,5225 Crestfield Pl,Dallas,TX,75206,582500,3,3.5,Crestfield Place,1960,1525,2018,64,297,,Active,,,http://www.redfin.com/TX/Dallas/2214-Moser-Ave-75206/home/147235373,NTREIS,14008979,N,Y,32.8131327,-96.778052
MLS Listing,,Single Family Residential,5827 Mapleshade Ln,Dallas,TX,75252,575000,4,3.5,Bent Trail Add Ph One,3717,7841,1984,65,155,,Active,,,http://www.redfin.com/TX/Dallas/5827-Mapleshade-Ln-75252/home/31849624,NTREIS,14000680,N,Y,33.0063233,-96.807511
MLS Listing,,Single Family Residential,10923 Carissa Dr,Dallas,TX,75218,570000,3,3.5,Winford Grove,2888,9409,1986,67,197,,Active,April-14-2019 04:00 PM,April-14-2019 06:00 PM,http://www.redfin.com/TX/Dallas/10923-Carissa-Dr-75218/home/31151913,NTREIS,14006398,N,Y,32.8618351,-96.6951
MLS Listing,,Single Family Residential,5533 Belmont Ave,Dallas,TX,75206,575000,3,2.0,Caruth Place,2077,8625,1926,67,277,,Active,,,http://www.redfin.com/TX/Dallas/5533-Belmont-Ave-75206/home/30810313,NTREIS,14007761,N,Y,32.8174812,-96.773269
MLS Listing,,Single Family Residential,8002 Acoma Ln,Dallas,TX,75252,569500,5,4.0,University Place Add Ph 2,3726,12327,2017,67,153,55,Active,March-30-2019 12:30 PM,March-30-2019 02:00 PM,http://www.redfin.com/TX/Dallas/8002-Acoma-Ln-75252/home/146860526,NTREIS,14008246,N,Y,32.9905128,-96.7646166
MLS Listing,,Townhouse,4418 Holland Ave Unit A,Dallas,TX,75219,599000,2,2.5,Metro Holland,2730,2004,2002,71,219,167,Active,March-31-2019 01:00 PM,March-31-2019 03:00 PM,http://www.redfin.com/TX/Dallas/4418-Holland-Ave-75219/unit-A/home/30730132,NTREIS,14005462,N,Y,32.820088,-96.81097
MLS Listing,,Single Family Residential,5415 Caladium Dr,Dallas,TX,75229,575000,3,3.0,Inwood Road Estates,2730,15987,1959,71,211,,Active,,,http://www.redfin.com/TX/Dallas/5415-Caladium-Dr-75229/home/30926312,NTREIS,13994190,N,Y,32.9076328,-96.8151083
MLS Listing,,Single Family Residential,2714 N Carroll Ave,Dallas,TX,75204,600000,3,2.5,Belmont Park Add,2076,6795,1944,72,289,,Active,,,http://www.redfin.com/TX/Dallas/2714-N-Carroll-Ave-75204/home/30809397,NTREIS,14005425,N,Y,32.810445,-96.7888669
MLS Listing,,Single Family Residential,14921 Oaks North Dr,Addison,TX,75254,550000,3,3.0,Oaks North,3044,7144,1984,73,181,12,Active,,,http://www.redfin.com/TX/Dallas/14921-N-Oaks-Dr-75254/home/31193941,NTREIS,14003079,N,Y,32.9515375,-96.8159037
MLS Listing,,Single Family Residential,4818 Elsby Ave,Dallas,TX,75209,562500,3,2.0,Rector Place,1591,7231,1946,75,354,,Active,April-14-2019 03:00 PM,April-14-2019 05:00 PM,http://www.redfin.com/TX/Dallas/4818-Elsby-Ave-75209/home/30854811,NTREIS,14003275,N,Y,32.8558658,-96.8270816
MLS Listing,,Single Family Residential,1066 N Buckner Blvd,Dallas,TX,75218,574000,3,2.5,Lake Park Estates,3129,20343,1949,77,183,,Active,,,http://www.redfin.com/TX/Dallas/1066-N-Buckner-Blvd-75218/home/30864126,NTREIS,14001602,N,Y,32.8365146,-96.7043766
MLS Listing,,Single Family Residential,4804 Sea Pines Dr,Dallas,TX,75287,580000,4,3.0,Bent Tree North 2,3553,13504,1984,78,163,33,Active,,,http://www.redfin.com/TX/Dallas/4804-Sea-Pines-Dr-75287/home/31847972,NTREIS,13999826,N,Y,32.9943254,-96.8267676
MLS Listing,,Vacant Land,7522 Currin Dr,Dallas,TX,75230,599900,0,,Northaven Meadows,,16030,1955,78,,,Active,,,http://www.redfin.com/TX/Dallas/7522-Currin-Dr-75230/home/30990637,NTREIS,14001565,N,Y,32.8994882,-96.777068
MLS Listing,,Townhouse,410 Melba St #102,Dallas,TX,75208,599999,3,3.0,DALLAS LAND AND LOAN 2,2212,5793,2018,78,271,300,Active,March-31-2019 01:00 PM,March-31-2019 03:00 PM,http://www.redfin.com/TX/Dallas/410-Melba-St-75208/unit-102/home/148701933,NTREIS,14001143,N,Y,32.747001,-96.8288029
MLS Listing,,Condo/Co-op,2848 Woodside St Unit 7B,Dallas,TX,75204,565000,2,2.5,Drexel Montane,2153,16683,2003,79,262,772,Active,March-31-2019 12:00 PM,March-31-2019 02:00 PM,http://www.redfin.com/TX/Dallas/2848-Woodside-St-75204/unit-7B/home/148698598,NTREIS,13971450,N,Y,32.7981378,-96.7993057
MLS Listing,,Single Family Residential,6819 Santa Fe Ave,Dallas,TX,75223,559000,3,3.0,Santa Monica,1931,7144,1936,80,289,3,Active,March-30-2019 03:30 PM,March-30-2019 05:00 PM,http://www.redfin.com/TX/Dallas/6819-Santa-Fe-Ave-75223/home/30818177,NTREIS,13999956,N,Y,32.8080615,-96.7443033
MLS Listing,,Condo/Co-op,2848 Woodside St Unit 3B,Dallas,TX,75204,550000,2,2.5,The Montane,2100,16683,2003,81,262,771,Active,,,http://www.redfin.com/TX/Dallas/2848-Woodside-St-75204/unit-3B/home/30764635,NTREIS,13998374,N,Y,32.7981428,-96.7993078
MLS Listing,,Single Family Residential,3119 Oliver Ave,Dallas,TX,75205,598500,2,1.0,Cockrell Fairland Rev,1209,4008,1920,82,495,,Active,,,http://www.redfin.com/TX/Dallas/3119-Oliver-St-75205/home/45113654,NTREIS,13997906,N,Y,32.8195431,-96.7901641
MLS Listing,,Single Family Residential,6331 Mccallum Blvd,Dallas,TX,75252,560000,3,3.0,Preston Gateway Estates,2649,17685,1985,82,211,,Active,,,http://www.redfin.com/TX/Dallas/6331-McCallum-Blvd-75252/home/31084905,NTREIS,13998240,N,Y,32.9854327,-96.7975292
MLS Listing,,Townhouse,659 S Cesar Chavez Blvd,Dallas,TX,75201,560000,3,3.5,Farmers Market,2177,1220,2013,82,257,125,Active,,,http://www.redfin.com/TX/Dallas/659-S-Cesar-Chavez-Blvd-75201/home/49700998,NTREIS,13996159,N,Y,32.7792238,-96.7893272
MLS Listing,,Single Family Residential,4619 Westside Dr,Highland Park,TX,75209,599000,2,1.0,Highland Park,1516,7057,1941,82,395,,Active,,,http://www.redfin.com/TX/Dallas/4619-Westside-Dr-75209/home/32070138,NTREIS,13997706,N,Y,32.8267956,-96.8171281
MLS Listing,,Single Family Residential,6137 Twin Oaks Cir,Dallas,TX,75240,575750,4,3.0,Coterie 02,3760,4966,1998,85,153,50,Active,,,http://www.redfin.com/TX/Dallas/6137-Twin-Oaks-Cir-75240/home/31017268,NTREIS,13995915,N,Y,32.925857,-96.7987219
MLS Listing,,Single Family Residential,8672 Thorbrush Pl,Dallas,TX,75238,559900,4,3.5,Villas of Lake Highlands Add,3327,3267,2017,85,168,121,Active,March-31-2019 02:00 PM,March-31-2019 04:00 PM,http://www.redfin.com/TX/Dallas/8672-Thorbrush-Pl-75238/home/110135198,NTREIS,13996656,N,Y,32.8668244,-96.7008232
MLS Listing,,Single Family Residential,12015 Loch Ness Dr,Dallas,TX,75218,585000,4,2.5,Lochwood Meadows,2465,19602,1971,85,237,30,Active,,,http://www.redfin.com/TX/Dallas/12015-Loch-Ness-Dr-75218/home/31045664,NTREIS,13996138,N,Y,32.8598496,-96.6895849
MLS Listing,,Single Family Residential,3911 Antigua Dr,Dallas,TX,75244,584000,4,3.0,Meadow Park Inst 09,2207,12458,1967,85,265,,Active,,,http://www.redfin.com/TX/Dallas/3911-Antigua-Dr-75244/home/31094379,NTREIS,13996675,N,Y,32.9198667,-96.8478517
MLS Listing,,Single Family Residential,17236 Yellow Bells Dr,Dallas,TX,75252,554990,4,3.5,University Place,3300,5750,2019,85,168,54,Active,,,http://www.redfin.com/TX/Dallas/17236-Yellow-Bells-Dr-Unknown/home/148561771,NTREIS,13996356,N,Y,32.991617,-96.766435
MLS Listing,,Townhouse,1311 Branchwood Pl,Dallas,TX,75215,570725,3,4.0,Southside Place,2495,,2019,85,229,125,Active,March-30-2019 12:00 PM,March-30-2019 03:00 PM,http://www.redfin.com/TX/Dallas/1311-Branchwood-Pl-75215/home/148439143,NTREIS,13996605,N,Y,32.7691615,-96.7959389
MLS Listing,,Single Family Residential,7305 Mckamy Blvd,Dallas,TX,75248,559500,4,3.5,Highland Of Mckamy,3800,14636,1978,87,147,,Active,,,http://www.redfin.com/TX/Dallas/7305-McKamy-Blvd-75248/home/31113398,NTREIS,13991719,N,Y,32.9836245,-96.7800385
MLS Listing,,Single Family Residential,11807 Jamestown Rd,Dallas,TX,75230,575000,4,3.0,Melshire Estates,2950,16291,1964,87,195,,Active,,,http://www.redfin.com/TX/Dallas/11807-Jamestown-Rd-75230/home/30925567,NTREIS,13995418,N,Y,32.909847,-96.8074483
MLS Listing,,Single Family Residential,10211 Vinemont St,Dallas,TX,75218,599000,3,2.0,Eastwood Estates,2637,8712,1960,89,227,,Active,March-30-2019 02:00 PM,March-30-2019 04:00 PM,http://www.redfin.com/TX/Dallas/10211-Vinemont-St-75218/home/30866764,NTREIS,13991601,N,Y,32.8453675,-96.7028722
MLS Listing,,Condo/Co-op,4312 Cedar Springs Rd #103,Dallas,TX,75219,572500,2,3.0,Perry Heights,2055,7971,2018,94,279,175,Active,March-31-2019 02:00 PM,March-31-2019 04:00 PM,http://www.redfin.com/TX/Dallas/4312-Cedar-Springs-Rd-75219/unit-103/home/148558629,NTREIS,13993273,N,Y,32.8144571,-96.8151505
MLS Listing,,Condo/Co-op,4312 Cedar Springs Rd #104,Dallas,TX,75219,590000,2,3.0,Perry Heights,2055,7971,2018,98,287,175,Active,March-31-2019 02:00 PM,March-31-2019 04:00 PM,http://www.redfin.com/TX/Dallas/4312-Cedar-Springs-Rd-75219/unit-104/home/148032423,NTREIS,13992629,N,Y,32.8144569,-96.8151502
MLS Listing,,Single Family Residential,6909 Sonoma,Irving,TX,75039,550000,4,3.5,La Villita Ph1C,4015,6621,2006,101,137,67,Active,,,http://www.redfin.com/TX/Irving/6909-Sonoma-75039/home/30768455,NTREIS,13991130,N,Y,32.9044528,-96.9331158
MLS Listing,,Multi-Family (2-4 Unit),5811 Penrose Ave,Dallas,TX,75206,575000,3,2.5,Stonewall Annex,2363,3354,2007,107,243,,Active,March-31-2019 02:00 PM,March-31-2019 04:00 PM,http://www.redfin.com/TX/Dallas/5811-Penrose-Ave-75206/home/30821102,NTREIS,13983405,N,Y,32.832591,-96.767341
MLS Listing,,Single Family Residential,5715 Penrose Ave,Dallas,TX,75206,569000,3,2.5,Majors & C Majors Resubd,2484,3615,2007,112,229,,Active,,,http://www.redfin.com/TX/Dallas/5715-Penrose-Ave-75206/home/30821901,NTREIS,13985340,N,Y,32.832473,-96.7694246
MLS Listing,,Townhouse,3501 Dickason Ave Unit A,Dallas,TX,75219,569000,2,2.5,Sale Street Townhomes,2700,1307,1981,113,211,285,Active,,,http://www.redfin.com/TX/Dallas/3501-Dickason-Ave-75219/unit-A/home/30794851,NTREIS,13985038,N,Y,32.8061795,-96.8071029
MLS Listing,,Multi-Family (2-4 Unit),500 W 7th St,Dallas,TX,75208,595000,6,2.0,Hillside,3124,4966,1917,114,190,,Active,,,http://www.redfin.com/TX/Dallas/500-W-7th-St-75208/home/30826332,NTREIS,13980356,N,Y,32.748717,-96.8303619
MLS Listing,,Single Family Residential,6605 Vada Dr,Dallas,TX,75214,599000,3,3.0,Mockingbird Hill,2508,10019,1953,116,239,,Active,March-31-2019 01:00 PM,March-31-2019 02:30 PM,http://www.redfin.com/TX/Dallas/6605-Vada-Dr-75214/home/30823161,NTREIS,13980242,N,Y,32.843426,-96.7459493
MLS Listing,,Single Family Residential,7277 Joyce Way,Dallas,TX,75225,599000,4,3.5,Windsor Park 03,3587,14244,1968,121,167,,Active,,,http://www.redfin.com/TX/Dallas/7277-Joyce-Way-75225/home/30872691,NTREIS,13979974,N,Y,32.8796807,-96.7789716
MLS Listing,,Vacant Land,4907 Bryan St,Dallas,TX,75206,579500,0,,College Hill Add,,11652,,124,,,Active,,,http://www.redfin.com/TX/Dallas/4907-Bryan-St-75206/home/148349834,NTREIS,13972388,N,Y,32.80431,-96.77357
MLS Listing,,Single Family Residential,9420 Windy Knoll Dr,Dallas,TX,75243,554000,4,3.0,Town Creek,3223,8930,1977,130,172,,Active,,,http://www.redfin.com/TX/Dallas/9420-Windy-Knoll-Dr-75243/home/31106838,NTREIS,13969550,N,Y,32.8974412,-96.7374821
MLS Listing,,Single Family Residential,1111 Sarasota Cir,Dallas,TX,75223,569000,2,2.0,Hollywood 01 Instl,1980,10454,1930,130,287,5,Active,,,http://www.redfin.com/TX/Dallas/1111-Sarasota-Cir-75223/home/30812954,NTREIS,13975896,N,Y,32.8002537,-96.7411825
MLS Listing,,Single Family Residential,7618 Dunoon Ave,Dallas,TX,75248,575000,4,3.5,Highlands North Add Sec 02,3397,11238,1976,131,169,,Active,March-31-2019 01:00 PM,March-31-2019 04:00 PM,http://www.redfin.com/TX/Dallas/7618-Dunoon-Ave-75248/home/31083508,NTREIS,13972651,N,Y,32.9790865,-96.77529
MLS Listing,,Single Family Residential,4228 Mendenhall Dr,Dallas,TX,75244,584900,4,2.5,Hockaday Manor 02,2553,16727,1963,134,229,,Active,,,http://www.redfin.com/TX/Dallas/4228-Mendenhall-Dr-75244/home/30926560,NTREIS,13973560,N,Y,32.9098533,-96.8370471
MLS Listing,,Single Family Residential,9861 Williamsburg Rd,Dallas,TX,75220,579000,3,3.0,Glenridge Estates,2036,13068,1951,136,284,,Active,March-31-2019 01:00 AM,March-31-2019 04:00 PM,http://www.redfin.com/TX/Dallas/9861-Williamsburg-Rd-75220/home/30914176,NTREIS,13972923,N,Y,32.8783224,-96.8477679
MLS Listing,,Condo/Co-op,2200 Victory Ave #1405,Dallas,TX,75219,589000,1,1.5,The House,1603,,2007,141,367,1208,Active,March-31-2019 02:00 PM,March-31-2019 04:00 PM,http://www.redfin.com/TX/Dallas/2200-Victory-Ave-75219/unit-1405/home/30782361,NTREIS,13970500,N,Y,32.7849571,-96.8096512
MLS Listing,,Single Family Residential,6907 Royal Ln,Dallas,TX,75230,570000,3,2.0,Hillcrest Haven 02,2060,17598,1956,144,277,,Active,,,http://www.redfin.com/TX/Dallas/6907-Royal-Ln-75230/home/30934162,NTREIS,13968556,N,Y,32.8951118,-96.7874436
MLS Listing,,Single Family Residential,6714 Prosper St,Dallas,TX,75209,600000,4,3.5,Mt Vernon Heights 02,2833,6621,2018,147,212,,Active,,,http://www.redfin.com/TX/Dallas/6714-Prosper-St-75209/home/30855045,NTREIS,13965460,N,Y,32.8401885,-96.8282958
MLS Listing,,Condo/Co-op,3116 Rosedale Ave #201,University Park,TX,75205,569900,3,3.0,Heights At Rosedale Condo,1906,28706,2008,148,299,275,Active,,,http://www.redfin.com/TX/Dallas/3116-Rosedale-Ave-75205/unit-201/home/32398567,NTREIS,13966135,N,Y,32.8480171,-96.7811783
MLS Listing,,Single Family Residential,6025 Palo Pinto Ave,Dallas,TX,75206,599000,3,3.0,Belmont Sub,2939,8407,1922,149,204,,Active,,,http://www.redfin.com/TX/Dallas/6025-Palo-Pinto-Ave-75206/home/30806531,NTREIS,13964461,N,Y,32.8201371,-96.7625734
MLS Listing,,Single Family Residential,4215 Nashwood Ln,Dallas,TX,75244,569500,4,3.5,Hockaday Manor 03,2870,16030,1964,149,198,,Active,,,http://www.redfin.com/TX/Dallas/4215-Nashwood-Ln-75244/home/31097211,NTREIS,13958710,N,Y,32.9122384,-96.8375077
MLS Listing,,Single Family Residential,11419 Rosser Rd,Dallas,TX,75229,599000,4,3.0,Midway Hills 06 03 Inst,2654,19428,1964,152,226,,Active,,,http://www.redfin.com/TX/Dallas/11419-Rosser-Rd-75229/home/30928302,NTREIS,13963355,N,Y,32.9052833,-96.8481812
MLS Listing,,Single Family Residential,2103 Centennial Valley Ln,Dallas,TX,75208,584233,4,4.0,Reserve at Kessler Heights,3066,5445,2019,155,191,,Active,,,http://www.redfin.com/TX/Dallas/2103-Lloyd-Valley-Ln-75230/home/148099698,NTREIS,13962219,N,Y,32.75163,-96.852444
MLS Listing,,Single Family Residential,7106 Carrousel Cir,Dallas,TX,75214,565000,3,3.5,Lakewood North Estates,1839,9365,1971,155,307,,Active,,,http://www.redfin.com/TX/Dallas/7106-Carrousel-Cir-75214/home/30825375,NTREIS,13960921,N,Y,32.8338031,-96.7364996
MLS Listing,,Single Family Residential,4529 W Amherst Ave,Dallas,TX,75209,550000,3,2.0,Linwood Place,1906,7231,1939,157,289,,Active,,,http://www.redfin.com/TX/Dallas/4529-W-Amherst-Ave-75209/home/30857323,NTREIS,13960717,N,Y,32.8525126,-96.831478
MLS Listing,,Townhouse,793 S Cesar Chavez Blvd,Dallas,TX,75201,599000,3,3.5,Intown Homes Farmers Market,2184,1437,2012,159,274,170,Active,,,http://www.redfin.com/TX/Dallas/793-S-Cesar-Chavez-Blvd-75201/home/59419819,NTREIS,13956158,N,Y,32.778795,-96.7889402
MLS Listing,,Single Family Residential,3666 Princess Ln,Dallas,TX,75229,564900,4,3.0,Sparkman Estates,2050,17119,1957,169,276,,Active,,,http://www.redfin.com/TX/Dallas/3666-Princess-Ln-75229/home/30929961,NTREIS,13953361,N,Y,32.8921718,-96.8566056
MLS Listing,,Townhouse,2847 Shelby Ave,Dallas,TX,75219,574900,3,3.5,Congress Shelby,2442,653,2019,171,235,165,Active,,,http://www.redfin.com/TX/Dallas/2847-Shelby-Ave-75219/home/145737620,NTREIS,13950807,N,Y,32.8086037,-96.8112809
MLS Listing,,Single Family Residential,10019 Boedeker,Dallas,TX,75230,590000,4,4.0,Meadows 1,3200,16117,1967,178,184,,Active,,,http://www.redfin.com/TX/Dallas/10019-Boedeker-St-75230/home/30872984,NTREIS,13947000,N,Y,32.8835994,-96.7774446
MLS Listing,,Single Family Residential,4424 Highlander Dr,Dallas,TX,75287,590000,4,4.0,Bent Tree West 5,3766,8276,1988,178,157,12,Active,March-30-2019 02:00 PM,March-30-2019 04:00 PM,http://www.redfin.com/TX/Dallas/4424-Highlander-Dr-75287/home/32055692,NTREIS,13942798,N,Y,32.9958763,-96.8336344
MLS Listing,,Single Family Residential,2316 N Prairie Ave,Dallas,TX,75204,599000,3,2.5,Milimo Terrace,2356,7013,2018,180,254,,Active,April-14-2019 01:00 PM,April-14-2019 03:00 PM,http://www.redfin.com/TX/Dallas/2316-N-Prairie-Ave-75204/home/30809452,NTREIS,13945145,N,Y,32.810074,-96.781958
MLS Listing,,Townhouse,1914 Wickmere Mews,Dallas,TX,75208,600000,2,2.5,Belmont Hotel Ph 02,2089,871,2016,189,287,81,Active,,,http://www.redfin.com/TX/Dallas/1914-Wickmere-Mews-75208/unit-2/home/30773683,NTREIS,13936041,N,Y,32.770469,-96.837892
MLS Listing,,Condo/Co-op,1380 River Bend Dr #133,Dallas,TX,75247,561800,0,,River Bend Condominiums,3500,140873,1980,191,161,438,Active,,,http://www.redfin.com/TX/Dallas/1380-River-Bend-Dr-75247/unit-133/home/147132956,NTREIS,13938386,N,Y,32.8173842,-96.8591398
MLS Listing,,Single Family Residential,10008 Dahman Cir,Dallas,TX,75238,589900,4,3.0,Daham Circle,2942,11282,1974,192,201,,Active,,,http://www.redfin.com/TX/Dallas/10008-Dahman-Cir-75238/home/31066285,NTREIS,13918147,N,Y,32.8857183,-96.7236265
MLS Listing,,Single Family Residential,8341 Nunley Ln,Dallas,TX,75231,559067,2,2.5,Merion at Midtown Park,2290,1742,2018,217,244,121,Active,,,http://www.redfin.com/TX/Dallas/8341-Nunley-Ln-75231/home/143838073,NTREIS,13921652,N,Y,32.889414,-96.761286
MLS Listing,,Single Family Residential,7908 La Porte Pl,Dallas,TX,75231,584500,3,3.5,Merion at Midtown Park,2422,1830,2018,222,241,121,Active,March-30-2019 02:00 PM,March-30-2019 05:00 PM,http://www.redfin.com/TX/Dallas/7908-LaPorte-Pl-75231/home/147367317,NTREIS,13917787,N,Y,32.88936,-96.762283
MLS Listing,,Condo/Co-op,4120 Gilbert Ave Unit C,Dallas,TX,75219,568400,2,2.0,Bowser & Lemmons Oak Lawn,1960,9104,2018,239,290,196,Active,,,http://www.redfin.com/TX/Dallas/4120-Gilbert-Ave-75219/unit-C/home/146457066,NTREIS,13905621,N,Y,32.8178998,-96.8066949
MLS Listing,,Condo/Co-op,4120 Gilbert Ave Unit B,Dallas,TX,75219,568400,2,2.0,Bowser & Lemmons Oak Lawn,1960,9104,2018,239,290,196,Active,,,http://www.redfin.com/TX/Dallas/4120-Gilbert-Ave-75219/unit-B/home/146456994,NTREIS,13905608,N,Y,32.8178998,-96.8066949
MLS Listing,,Vacant Land,11430 Midway Rd,Dallas,TX,75229,595000,0,,North Highland Estates,,17860,,270,,,Active,,,http://www.redfin.com/TX/Dallas/11430-Midway-Rd-75229/home/30927360,NTREIS,13881467,N,Y,32.905146,-96.837897
MLS Listing,,Townhouse,5144 Artemesia Ln,Dallas,TX,75209,558909,3,3.5,Oak Park Gardens,2000,,2019,278,279,100,Active,March-30-2019 02:00 PM,March-30-2019 04:00 PM,http://www.redfin.com/TX/Dallas/5144-Artemesia-Ln-75209/home/148555172,NTREIS,13875697,N,Y,32.827858,-96.821362
MLS Listing,,Single Family Residential,1736 Canal St,Heath,TX,75032,595000,4,3.0,Heath Golf & Yacht Club Ph 1a,3760,12110,2018,281,158,185,Active,March-30-2019 10:00 AM,March-30-2019 06:00 PM,http://www.redfin.com/TX/Heath/1736-Canal-St-75032/home/146088720,NTREIS,13872993,N,Y,32.81583,-96.486645
MLS Listing,,Townhouse,5160 Artemesia Ln,Dallas,TX,75209,558447,3,3.5,Oak Park Gardens,2000,,2019,283,279,100,Active,March-30-2019 02:00 PM,March-30-2019 04:00 PM,http://www.redfin.com/TX/Dallas/5160-Artemesia-Ln-75209/home/148555078,NTREIS,13871596,N,Y,32.827858,-96.821362
MLS Listing,,Single Family Residential,,Dallas,TX,75254,595000,5,4.0,Northwood Squire,4537,19036,1977,288,131,,Active,,,http://www.redfin.com/TX/Dallas/Undisclosed-address-75254/home/31059586,NTREIS,13857055,N,Y,32.9443764,-96.7723616
MLS Listing,,Single Family Residential,3319 Duchess Trl,Dallas,TX,75229,579990,5,3.0,Sparkman Club Estates,3314,10280,1959,319,175,,Active,,,http://www.redfin.com/TX/Dallas/3319-Duchess-Trl-75229/home/30930318,NTREIS,13843217,N,Y,32.8934909,-96.8665486
MLS Listing,,Vacant Land,5123 W Amherst Ave,Dallas,TX,75209,600000,0,,Bluffview,,6970,,341,,,Active,,,http://www.redfin.com/TX/Dallas/5123-W-Amherst-Ave-75209/home/30854731,NTREIS,13824599,N,Y,32.8524433,-96.8231042
MLS Listing,,Single Family Residential,5322 Hilton Head Dr,Dallas,TX,75287,595000,4,4.5,Bent Tree North,3699,13939,1979,346,161,,Active,,,http://www.redfin.com/TX/Dallas/5322-Hilton-Head-Dr-75287/home/31846633,NTREIS,13817432,N,Y,32.9883994,-96.8250301
MLS Listing,,Condo/Co-op,3601 Turtle Creek Blvd #901,Dallas,TX,75219,585000,2,2.0,Gold Crest Condo,1630,48569,1964,354,359,1553,Active,,,http://www.redfin.com/TX/Dallas/3601-Turtle-Creek-Blvd-75219/unit-901/home/30795235,NTREIS,13814803,N,Y,32.8113849,-96.802148
MLS Listing,,Single Family Residential,2115 N Fitzhugh Ave,Dallas,TX,75204,553000,2,1.0,Monarch Place,1464,7492,1922,359,378,,Active,,,http://www.redfin.com/TX/Dallas/2115-N-Fitzhugh-Ave-75204/home/30793451,NTREIS,13811481,N,Y,32.8097372,-96.7806765
MLS Listing,,Vacant Land,2345 Fuqua Rd,Rowlett,TX,75088,550000,0,,La Costa,,78408,,654,,,Active,,,http://www.redfin.com/TX/Rowlett/2345-Fuqua-Rd-75088/home/56371887,NTREIS,13624317,N,Y,32.884506,-96.535943
New Construction Home,,Single Family Residential,8005 Mary Curran Ct,Dallas,TX,75252,554000,3,2.5,University Place,2420,,2019,13,229,,Active,,,http://www.redfin.com/TX/Dallas/8005-Mary-Curran-Dr-75080/home/160700379,NewHomeSource.com,1604073,N,Y,32.984603,-96.767623
New Construction Home,,Single Family Residential,8260 Milroy Ln,Dallas,TX,75231,585500,3,3.5,Merion at Midtown Park,2410,,2019,46,243,,Active,,,http://www.redfin.com/TX/Dallas/8260-Milroy-Ln-75231/home/143838133,NewHomeSource.com,1586226,N,Y,32.8891181,-96.7621956
New Construction Home,,Single Family Residential,8263 Nunley Ln,Dallas,TX,75231,570745,2,2.5,Merion at Midtown Park Executive Series,2049,,2018,127,279,,Active,,,http://www.redfin.com/TX/Dallas/8263-Nunley-Ln-75231/home/143838080,NewHomeSource.com,1549931,N,Y,32.8906351,-96.7621802
New Construction Home,,Single Family Residential,1129 Manderly Ct,Dallas,TX,75206,559900,3,3.5,Swiss Ave Crossing,2453,,2018,186,228,,Active,,,http://www.redfin.com/TX/Dallas/1129-Manderly-Ct-75206/home/147257673,NewHomeFeed,665676,N,Y,32.795343954218,-96.778285181615
New Construction Home,,Condo/Co-op,3200 Ross Ave #37,Dallas,TX,75204,575000,3,3.5,Ross Ave Heights,2395,,2018,312,240,,Active,,,http://www.redfin.com/TX/Dallas/3200-Ross-Ave-75204/unit-37/home/30783214,NewHomeFeed,640056,N,Y,32.7943345,-96.7902056
New Construction Home,,Single Family Residential,8288 Milroy Lane  Available Now!,Dallas,TX,75231,574900,3,3.0,Merion at Midtown Park,2355,,2017,512,244,,Active,,,http://www.redfin.com/TX/Dallas/8288-Milroy-Ln-75231/home/146785611,NewHomeSource.com,1386853,N,Y,32.889851,-96.761828
New Construction Plan,,Single Family Residential,Malibu,Dallas,TX,75231,594990,3,3.5,Enclave at Lake Highlands Town Center - Park Series,2818,,,,211,,Active,,,http://www.redfin.com/TX/Dallas/Enclave-at-Lake-Highlands-Town-Center-Park-Series/Malibu/home/144826261,NewHomeSource.com,Plan-81435149,N,Y,32.874438,-96.734512
New Construction Plan,,Single Family Residential,Waverly,Dallas,TX,75252,556990,4,3.5,University Place,3032,,,,184,,Active,,,http://www.redfin.com/TX/Dallas/University-Place/Waverly/home/148564345,NewHomeSource.com,Plan-81572489,N,Y,32.992538,-96.761867
New Construction Plan,,Single Family Residential,Dennis,Dallas,TX,75231,584990,3,2.5,Enclave at Lake Highlands Town Center - Park Series,2559,,,,229,,Active,,,http://www.redfin.com/TX/Dallas/Enclave-at-Lake-Highlands-Town-Center-Park-Series/Dennis/home/144826262,NewHomeSource.com,Plan-81435148,N,Y,32.874438,-96.734512
New Construction Plan,,Single Family Residential,Pendleton,Dallas,TX,75231,556990,3,2.5,Enclave at Lake Highlands Town Center - Park Series,2260,,,,246,,Active,,,http://www.redfin.com/TX/Dallas/Enclave-at-Lake-Highlands-Town-Center-Park-Series/Pendleton/home/144826263,NewHomeSource.com,Plan-81435147,N,Y,32.874438,-96.734512
New Construction Plan,,Single Family Residential,Home D,Dallas,TX,75206,594000,3,2.5,5300 Glencoe Park - Dallas,1847,,,,322,,Active,,,http://www.redfin.com/TX/Dallas/5300-Glencoe-Park-Dallas/Home-D/home/110081696,NewHomeSource.com,Plan-81571016,N,Y,32.834437,-96.777641
New Construction Plan,,Single Family Residential,Kingston II,Dallas,TX,75252,585990,4,3.5,University Place,3385,,,,173,,Active,,,http://www.redfin.com/TX/Dallas/University-Place/Kingston-II/home/148564351,NewHomeSource.com,Plan-81572483,N,Y,32.992538,-96.761867
New Construction Plan,,Single Family Residential,Chambers,Dallas,TX,75252,572990,4,3.5,University Place,2970,,,,193,,Active,,,http://www.redfin.com/TX/Dallas/University-Place/Chambers/home/148564352,NewHomeSource.com,Plan-81572482,N,Y,32.992538,-96.761867
New Construction Plan,,Single Family Residential,Raleigh,Dallas,TX,75231,557990,3,2.5,Enclave at Lake Highlands Town Center - Park Series,2271,,,,246,,Active,,,http://www.redfin.com/TX/Dallas/Enclave-at-Lake-Highlands-Town-Center-Park-Series/Raleigh/home/146049348,NewHomeSource.com,Plan-71436114,N,Y,32.874438,-96.734512
New Construction Plan,,Single Family Residential,Zayden,Dallas,TX,75231,568990,4,3.5,Enclave at Lake Highlands Town Center - Park Series,2401,,,,237,,Active,,,http://www.redfin.com/TX/Dallas/Enclave-at-Lake-Highlands-Town-Center-Park-Series/Zayden/home/146049347,NewHomeSource.com,Plan-71485461,N,Y,32.874438,-96.734512
New Construction Plan,,Single Family Residential,Medora,Dallas,TX,75231,597990,3,2.5,Reserve at White Rock,2624,,,,228,,Active,,,http://www.redfin.com/TX/Dallas/Reserve-at-White-Rock/Medora/home/147041267,NewHomeSource.com,Plan-71549152,N,Y,32.883767,-96.734267
New Construction Plan,,Single Family Residential,Sebring,Dallas,TX,75231,599990,3,2.5,Reserve at White Rock,2738,,,,219,,Active,,,http://www.redfin.com/TX/Dallas/Reserve-at-White-Rock/Sebring/home/147041266,NewHomeSource.com,Plan-71549153,N,Y,32.883767,-96.734267
New Construction Plan,,Single Family Residential,Shelton,Dallas,TX,75252,574990,4,3.5,University Place,3170,,,,181,,Active,,,http://www.redfin.com/TX/Dallas/University-Place/Shelton/home/148564370,NewHomeSource.com,Plan-71571555,N,Y,32.992538,-96.761867
New Construction Plan,,Single Family Residential,Yalecrest,Dallas,TX,75231,593990,3,2.5,Reserve at White Rock,2585,,,,230,,Active,,,http://www.redfin.com/TX/Dallas/Reserve-at-White-Rock/Yalecrest/home/147041268,NewHomeSource.com,Plan-71549150,N,Y,32.883767,-96.734267
New Construction Plan,,Single Family Residential,Sabar,Dallas,TX,75209,595990,4,2.5,Oak Park Gardens,2423,,,,246,,Active,,,http://www.redfin.com/TX/Dallas/Oak-Park-Gardens/Sabar/home/113852040,NewHomeSource.com,Plan-71225179,N,Y,32.8270216,-96.8206457
New Construction Plan,,Single Family Residential,Limerick,Dallas,TX,75209,578990,3,2.5,Oak Park Gardens,2204,,,,263,,Active,,,http://www.redfin.com/TX/Dallas/Oak-Park-Gardens/Limerick/home/113852042,NewHomeSource.com,Plan-71225177,N,Y,32.8270216,-96.8206457
New Construction Plan,,Single Family Residential,Albury,Dallas,TX,75209,587990,3,2.5,Oak Park Gardens,2284,,,,257,,Active,,,http://www.redfin.com/TX/Dallas/Oak-Park-Gardens/Albury/home/113852041,NewHomeSource.com,Plan-71225178,N,Y,32.8270216,-96.8206457
New Construction Plan,,Single Family Residential,Heritage,Dallas,TX,75252,560999,4,3.5,University Place,3490,,,,161,,Active,,,http://www.redfin.com/TX/Dallas/University-Place/Heritage/home/144570563,NewHomeSource.com,Plan-71451625,N,Y,32.9912,-96.7664
New Construction Plan,,Single Family Residential,Grayson - Plan #2453,Dallas,TX,75204,559900,3,3.5,Swiss Ave Crossing,2453,,,,228,,Active,,,http://www.redfin.com/TX/Dallas/Swiss-Ave-Crossing/Grayson-Plan-2453/home/147111915,NewHomeFeed,Plan-436977,N,Y,32.7950779,-96.7781618
