SALE TYPE,SOLD DATE,PROPERTY TYPE,ADDRESS,CITY,STATE OR PROVINCE,ZIP OR POSTAL CODE,PRICE,BEDS,BATHS,LOCATION,SQUARE FEET,LOT SIZE,YEAR BUILT,DAYS ON MARKET,$/SQUARE FEET,HOA/MONTH,STATUS,NEXT OPEN HOUSE START TIME,NEXT OPEN HOUSE END TIME,URL (SEE http://www.redfin.com/buy-a-home/comparative-market-analysis FOR INFO ON PRICING),SOURCE,MLS#,FAVORITE,INTERESTED,LATITUDE,LONGITUDE
MLS Listing,,Single Family Residential,2208 Lola Ct,Dallas,TX,75206,649900,4,3.5,Post Office Park Add,2629,2439,2015,30,247,67,Active,,,http://www.redfin.com/TX/Dallas/2208-Lola-Ct-75206/home/104385202,NTREIS,14031326,N,Y,32.8171324,-96.7709043
Redfin Data,,Condo/Co-op,2790 Edmonds Dr,Dallas,TX,75219,615000,3,3.5,Dallas,2004,,2017,4,307,,Pre On-Market,,,http://www.redfin.com/TX/Dallas/2790-Edmonds-Dr-75219/home/143837919,Coming Soon,29263,N,Y,32.8093642,-96.8157289
Redfin Data,,Single Family Residential,6415 Wickerwood Dr,Dallas,TX,75248,675000,5,5.0,Dallas,3750,8677,1982,4,180,,Pre On-Market,,,http://www.redfin.com/TX/Dallas/6415-Wickerwood-Dr-75248/home/31111844,Coming Soon,29194,N,Y,32.971472,-96.7957297
MLS Listing,,Single Family Residential,10803 Fernald Ave,Dallas,TX,75218,650000,4,2.5,Lochwood Meadows,3068,9757,1967,1,212,,Active,,,http://www.redfin.com/TX/Dallas/10803-Fernald-Ave-75218/home/31045802,NTREIS,14054876,N,Y,32.8577485,-96.699759
MLS Listing,,Single Family Residential,4143 Entrada Way,Dallas,TX,75219,699000,3,2.5,Skyline Terrace Villas,2324,,2019,1,301,100,Active,,,http://www.redfin.com/TX/Dallas/4143-Entrada-WAY-75219/home/160894797,NTREIS,14054485,N,Y,32.812205,-96.810985
MLS Listing,,Multi-Family (2-4 Unit),3635 Mcfarlin Blvd Unit B,University Park,TX,75205,675000,3,2.5,Asbury Rep,2435,3485,1983,1,277,,Active,March-31-2019 01:00 PM,March-31-2019 03:00 PM,http://www.redfin.com/TX/Dallas/3635-McFarlin-Blvd-75205/unit-B/home/160894792,NTREIS,14054096,N,Y,32.8434658,-96.7943933
MLS Listing,,Single Family Residential,5909 Tree Shadow Pl,Dallas,TX,75252,625000,5,4.5,Bent Trail Add Ph One,4178,13504,1981,1,150,10,Active,,,http://www.redfin.com/TX/Dallas/5909-Tree-Shadow-Pl-75252/home/31849381,NTREIS,14054203,N,Y,33.0045785,-96.8069879
MLS Listing,,Single Family Residential,667 Flagstone Dr,Irving,TX,75039,689900,4,3.0,The Lakes of Las Colinas,3376,7318,2014,1,204,219,Active,March-31-2019 03:00 PM,March-31-2019 05:00 PM,http://www.redfin.com/TX/Irving/667-Flagstone-Dr-75039/home/44609152,NTREIS,14020817,N,Y,32.8776496,-96.9331787
MLS Listing,,Single Family Residential,5203 Monticello Ave,Dallas,TX,75206,619000,2,2.0,Greenland Hills,1739,7231,1930,1,356,,Active,March-31-2019 03:30 PM,March-31-2019 05:00 PM,http://www.redfin.com/TX/Dallas/5203-Monticello-Ave-75206/home/30812457,NTREIS,14053933,N,Y,32.8267314,-96.7821723
MLS Listing,,Single Family Residential,3442 Asbury St,University Park,TX,75205,649000,3,2.5,University Annex 02 Inst Rep,2436,3659,1978,1,266,,Active,,,http://www.redfin.com/TX/Dallas/3442-Asbury-St-75205/home/32099750,NTREIS,14053305,N,Y,32.8431179,-96.789179
MLS Listing,,Single Family Residential,9301 Canter Dr,Dallas,TX,75231,649000,4,3.5,Oak Highlands Estates,3571,14026,1978,1,182,,Active,,,http://www.redfin.com/TX/Dallas/9301-Canter-Dr-75231/home/31069839,NTREIS,14053113,N,Y,32.8932906,-96.7429177
MLS Listing,,Condo/Co-op,2900 McKinnon St #804,Dallas,TX,75201,699000,2,2.5,Azure Condo,1430,,2005,1,489,1115,Active,,,http://www.redfin.com/TX/Dallas/2900-McKinnon-St-75201/unit-804/home/30775249,NTREIS,14052604,N,Y,32.7955142,-96.808434
MLS Listing,,Single Family Residential,501 S Glasglow Dr,Dallas,TX,75223,648000,3,2.5,Mount Auburn,3059,6970,2019,1,212,,Active,March-30-2019 12:00 PM,March-30-2019 02:00 PM,http://www.redfin.com/TX/Dallas/501-S-Glasgow-Dr-75223/home/30801068,NTREIS,14054149,N,Y,32.8025841,-96.7483719
MLS Listing,,Single Family Residential,1220 Crestcove Dr,Rockwall,TX,75087,635000,4,3.5,Hillcrest Shores Ph Three,4004,27138,2005,1,159,37,Active,,,http://www.redfin.com/TX/Rockwall/1220-Crestcove-Dr-75087/home/33879046,NTREIS,14053757,N,Y,32.9436387,-96.4855246
MLS Listing,,Single Family Residential,9729 Lanshire Dr,Dallas,TX,75238,629000,3,3.0,Lake Ridge Estates,2316,10934,1960,1,272,,Active,March-30-2019 01:00 PM,March-30-2019 03:00 PM,http://www.redfin.com/TX/Dallas/9729-Lanshire-Dr-75238/home/30881769,NTREIS,14051004,N,Y,32.8698889,-96.718691
MLS Listing,,Single Family Residential,5810 Mercedes Ave,Dallas,TX,75206,675000,3,3.0,Greenville Crest Add,2152,7057,1948,1,314,,Active,March-31-2019 01:00 PM,March-31-2019 03:00 PM,http://www.redfin.com/TX/Dallas/5810-Mercedes-Ave-75206/home/30811612,NTREIS,14053118,N,Y,32.827683,-96.7674255
MLS Listing,,Single Family Residential,7424 Currin Dr,Dallas,TX,75230,650000,3,2.0,Northaven Meadows 02,1956,17032,1956,2,332,,Active,,,http://www.redfin.com/TX/Dallas/7424-Currin-Dr-75230/home/30990722,NTREIS,14053721,N,Y,32.8993461,-96.7780721
MLS Listing,,Single Family Residential,10539 Berry Knoll Dr,Dallas,TX,75230,640000,5,3.5,Crest Meadow Estates,3100,12632,1971,2,206,,Active,March-31-2019 03:00 PM,March-31-2019 05:00 PM,http://www.redfin.com/TX/Dallas/10539-Berry-Knoll-Dr-75230/home/30992828,NTREIS,14040060,N,Y,32.889344,-96.7827609
MLS Listing,,Single Family Residential,11115 Ridgemeadow Dr,Dallas,TX,75218,625000,4,3.5,Lochwood Meadows,3607,9583,1967,2,173,,Active,March-31-2019 02:00 PM,March-31-2019 04:00 PM,http://www.redfin.com/TX/Dallas/11115-Ridgemeadow-Dr-75218/home/31045733,NTREIS,14051226,N,Y,32.8587553,-96.6920081
MLS Listing,,Single Family Residential,5233 Vanderbilt Ave,Dallas,TX,75206,619900,3,3.0,Greenland Hills,2304,7100,1926,2,269,,Active,March-30-2019 02:00 PM,March-30-2019 04:00 PM,http://www.redfin.com/TX/Dallas/5233-Vanderbilt-Ave-75206/home/30812123,NTREIS,14053290,N,Y,32.8247615,-96.7809048
MLS Listing,,Townhouse,2719 State St,Dallas,TX,75204,650000,3,3.5,State Street Brownstone,2707,1481,2009,2,240,,Active,,,http://www.redfin.com/TX/Dallas/2719-State-St-75204/home/30792191,NTREIS,14053338,N,Y,32.7964312,-96.7992195
MLS Listing,,Single Family Residential,5739 Marquita Ave,Dallas,TX,75206,675000,4,3.0,Greenville Crest Add,2372,7100,1922,2,285,,Active,,,http://www.redfin.com/TX/Dallas/5739-Marquita-Ave-75206/home/30811717,NTREIS,14052612,N,Y,32.8262852,-96.768534
MLS Listing,,Multi-Family (2-4 Unit),4924 Kelton Dr,Dallas,TX,75209,649900,3,3.0,Lovers Lane Village,2557,8494,2018,2,254,,Active,March-31-2019 02:00 PM,March-31-2019 04:00 PM,http://www.redfin.com/TX/Dallas/4924-Kelton-Dr-75209/home/147364005,NTREIS,14035479,N,Y,32.8501837,-96.8263953
MLS Listing,,Single Family Residential,6502 Beckwith Ct,Dallas,TX,75248,675000,4,2.5,Tioga East Add Ph 2,3500,19907,1980,2,193,,Active,March-30-2019 12:00 PM,March-30-2019 04:00 PM,http://www.redfin.com/TX/Dallas/6502-Beckwith-Ct-75248/home/31084083,NTREIS,14053001,N,Y,32.9786088,-96.7957715
MLS Listing,,Single Family Residential,5109 Tennington Park,Dallas,TX,75287,695000,5,4.0,Oaktree Ph Five,3945,8712,1999,2,176,121,Active,March-31-2019 01:00 PM,March-31-2019 04:00 PM,http://www.redfin.com/TX/Dallas/5109-Tennington-Park-75287/home/32130928,NTREIS,14040961,N,Y,33.0033526,-96.8218273
MLS Listing,,Single Family Residential,6610 Walnut Hill Ln,Dallas,TX,75230,679900,3,3.0,Walnut Crest,2052,19515,1951,3,331,,Active,,,http://www.redfin.com/TX/Dallas/6610-Walnut-Hill-Ln-75230/home/30875180,NTREIS,14048209,N,Y,32.879594,-96.791746
MLS Listing,,Townhouse,5145 Artemesia Ln,Dallas,TX,75209,686590,3,3.0,Oak Park Gardens,2700,,2019,3,254,100,Active,,,http://www.redfin.com/TX/Dallas/5145-Artemesia-Ln-75209/home/160768059,NTREIS,14052280,N,Y,32.8265376,-96.8182835
MLS Listing,,Multi-Family (2-4 Unit),5433 Longview St,Dallas,TX,75206,679900,3,3.5,Martin & Porters,3154,3833,2011,4,216,,Active,March-31-2019 03:00 PM,March-31-2019 05:00 PM,http://www.redfin.com/TX/Dallas/5433-Longview-St-75206/home/30822413,NTREIS,14051742,N,Y,32.8311125,-96.7759381
MLS Listing,,Single Family Residential,9104 Pecan Dr,Rowlett,TX,75087,699000,5,5.0,WELCH,5235,12632,1995,5,134,,Active,,,http://www.redfin.com/TX/Rockwall/9104-Pecan-Dr-75087/home/33925195,NTREIS,14048012,N,Y,32.9084794,-96.5091841
MLS Listing,,Vacant Land,5427 Purdue Ave,Dallas,TX,75209,675000,0,,East Inwood Estates,,9365,,8,,,Active,,,http://www.redfin.com/TX/Dallas/5427-Purdue-Ave-75209/home/30858443,NTREIS,14047946,N,Y,32.8545365,-96.8192945
MLS Listing,,Townhouse,4041 Throckmorton St,Dallas,TX,75219,610000,3,3.5,Towns At Throckmorton,3000,3136,2004,8,203,190,Active,,,http://www.redfin.com/TX/Dallas/4041-Throckmorton-St-75219/home/32194914,NTREIS,14043312,N,Y,32.818049,-96.804806
MLS Listing,,Single Family Residential,5031 Waneta Dr,Dallas,TX,75209,699000,5,3.0,Shannon Estates,2648,9757,1947,8,264,,Active,March-31-2019 01:00 PM,March-31-2019 03:00 PM,http://www.redfin.com/TX/Dallas/5031-Waneta-Dr-75209/home/30852571,NTREIS,14030761,N,Y,32.8397527,-96.8250301
MLS Listing,,Single Family Residential,8622 Vista View Dr,Dallas,TX,75243,644000,4,3.5,Oaks,3749,9017,1981,8,172,,Active,,,http://www.redfin.com/TX/Dallas/8622-Vista-View-Dr-75243/home/31072389,NTREIS,14048378,N,Y,32.8983603,-96.7481022
MLS Listing,,Single Family Residential,6806 Royal Ln,Dallas,TX,75230,699000,4,3.5,Nor-Dal,2435,15464,1954,8,287,,Active,March-31-2019 02:00 PM,March-31-2019 04:00 PM,http://www.redfin.com/TX/Dallas/6806-Royal-Ln-75230/home/30876470,NTREIS,14049025,N,Y,32.8944469,-96.7883658
MLS Listing,,Single Family Residential,5521 Anita St,Dallas,TX,75206,629000,4,2.5,Minnie Haley Smith,2245,7928,1941,8,280,,Active,March-31-2019 02:00 PM,March-31-2019 04:00 PM,http://www.redfin.com/TX/Dallas/5521-Anita-St-75206/home/30821944,NTREIS,14048279,N,Y,32.834864,-96.7729264
MLS Listing,,Single Family Residential,805 Newell Ave,Dallas,TX,75223,625000,3,2.0,Santa Monica Add,1656,8276,1935,9,377,,Active,,,http://www.redfin.com/TX/Dallas/805-Newell-Ave-75223/home/30818070,NTREIS,14045697,N,Y,32.8049803,-96.7406374
MLS Listing,,Single Family Residential,10617 Cromwell Dr,Dallas,TX,75229,695000,4,2.5,Sparkman Estates,3284,12023,1960,9,212,42,Active,March-30-2019 03:00 PM,March-30-2019 05:00 PM,http://www.redfin.com/TX/Dallas/10617-Cromwell-Dr-75229/home/30929805,NTREIS,14047492,N,Y,32.8928882,-96.8627214
MLS Listing,,Single Family Residential,5329 W University Blvd,Dallas,TX,75209,699000,3,3.5,Greenway Crest,2072,12458,1951,9,337,,Active,,,http://www.redfin.com/TX/Dallas/5329-W-University-Blvd-75209/home/30851218,NTREIS,14047311,N,Y,32.8453084,-96.8201443
MLS Listing,,Single Family Residential,1630 Oak Knoll St,Dallas,TX,75208,619000,2,2.5,M S Hardy,2343,17903,1970,9,264,,Active,March-31-2019 02:00 PM,March-31-2019 04:00 PM,http://www.redfin.com/TX/Dallas/1630-Oak-Knoll-St-75208/home/30859891,NTREIS,14047299,N,Y,32.7657009,-96.8322316
MLS Listing,,Single Family Residential,10238 Gooding Dr,Dallas,TX,75229,600000,3,2.0,Midway Hills,2120,16379,1952,9,283,,Active,,,http://www.redfin.com/TX/Dallas/10238-Gooding-Dr-75229/home/30929246,NTREIS,14047489,N,Y,32.8856623,-96.8430199
MLS Listing,,Single Family Residential,7719 Pennyburn Dr,Dallas,TX,75248,605000,4,4.0,Highlands North Sec 03,3131,12981,1978,9,193,,Active,,,http://www.redfin.com/TX/Dallas/7719-Pennyburn-Dr-75248/home/31112673,NTREIS,14046709,N,Y,32.9832987,-96.773533
MLS Listing,,Single Family Residential,1006 Shadyside Ln,Dallas,TX,75223,695000,4,4.5,Kensington Gardens Ph 1,2917,4530,2015,9,238,38,Active,March-31-2019 02:00 PM,March-31-2019 04:00 PM,http://www.redfin.com/TX/Dallas/1006-Shadyside-Ln-75223/home/59420542,NTREIS,14041672,N,Y,32.8080922,-96.7354644
MLS Listing,,Single Family Residential,7805 Yamini Dr,Dallas,TX,75230,659000,3,2.0,Hill Haven Heights 01,1946,15987,1954,10,339,,Active,,,http://www.redfin.com/TX/Dallas/7805-Yamini-Dr-75230/home/30989224,NTREIS,14047543,N,Y,32.9035895,-96.7741814
MLS Listing,,Single Family Residential,6840 Topsfield Dr,Dallas,TX,75231,669000,4,3.0,Merriman Park Estates,2717,9932,1973,10,246,,Active,March-31-2019 02:00 PM,March-31-2019 04:00 PM,http://www.redfin.com/TX/Dallas/6840-Topsfield-Dr-75231/home/31044579,NTREIS,14047400,N,Y,32.8742484,-96.7383183
MLS Listing,,Condo/Co-op,3535 Gillespie St #201,Dallas,TX,75219,625000,2,2.5,Plaza At Turtle Creek Residence Ph,1863,136473,2000,10,335,1481,Active,,,http://www.redfin.com/TX/Dallas/3535-Gillespie-St-75219/unit-201/home/32253524,NTREIS,14042108,N,Y,32.8053299,-96.8079925
MLS Listing,,Single Family Residential,6005 Bryan Pkwy,Dallas,TX,75206,699000,4,3.5,Munger Place,2441,7797,1923,10,286,,Active,,,http://www.redfin.com/TX/Dallas/6005-Bryan-Pkwy-75206/home/30805705,NTREIS,14046405,N,Y,32.8086062,-96.7644765
MLS Listing,,Townhouse,2341 Allen St,Dallas,TX,75204,625000,3,2.5,Worthington Corners,2499,1742,2003,10,250,81,Active,March-31-2019 01:00 PM,March-31-2019 03:00 PM,http://www.redfin.com/TX/Dallas/2341-Allen-St-75204/home/32195004,NTREIS,14045481,N,Y,32.796859,-96.7977211
MLS Listing,,Single Family Residential,5517 W Hanover Ave,Dallas,TX,75209,675000,2,1.5,Preston Park,1689,8276,1941,10,400,,Active,,,http://www.redfin.com/TX/Dallas/5517-Hanover-Ave-75209/home/30854648,NTREIS,14045199,N,Y,32.8554637,-96.8183736
MLS Listing,,Single Family Residential,5802 Over Downs Dr,Dallas,TX,75230,685000,3,2.5,Park Preston 01,2950,7884,1979,10,232,8,Active,,,http://www.redfin.com/TX/Dallas/5802-Over-Downs-Dr-75230/home/30877844,NTREIS,14046629,N,Y,32.890776,-96.805953
MLS Listing,,Single Family Residential,10308 Offshore Dr,Irving,TX,75063,649000,4,2.5,Grand Estate At Northlake Hills Ph,3396,6534,2004,10,191,,Active,,,http://www.redfin.com/TX/Irving/10308-Offshore-Dr-75063/home/30754384,NTREIS,14042214,N,Y,32.9449508,-96.9643239
MLS Listing,,Single Family Residential,6909 Spanky Branch Dr,Dallas,TX,75248,628000,4,3.0,Highland Of Mckamy 02,3417,13765,1979,11,184,,Active,,,http://www.redfin.com/TX/Dallas/6909-Spanky-Branch-Dr-75248/home/31113354,NTREIS,14046457,N,Y,32.9830143,-96.7868375
MLS Listing,,Single Family Residential,9155 Rock Daisy Ct,Dallas,TX,75231,666106,3,2.5,Reserve at White Rock,2609,8276,2019,11,255,142,Active,,,http://www.redfin.com/TX/Dallas/9155-Rock-Daisy-Ct-75231/home/147235963,NTREIS,14046482,N,Y,32.883767,-96.734267
MLS Listing,,Single Family Residential,7177 Copperleaf Dr,Dallas,TX,75231,604620,4,3.5,Lake Highlands Town Center,2476,3049,2019,11,244,125,Active,,,http://www.redfin.com/TX/DALLAS/7177-COPPERLEAF-DR-75231/home/147235949,NTREIS,14046466,N,Y,32.873912,-96.734506
MLS Listing,,Single Family Residential,5105 Del Roy Dr,Dallas,TX,75229,629000,3,2.5,Hockaday Square 03,2490,16988,1960,11,253,,Active,,,http://www.redfin.com/TX/Dallas/5105-Del-Roy-Dr-75229/home/30926781,NTREIS,14046003,N,Y,32.9056804,-96.8215761
MLS Listing,,Single Family Residential,7037 Joyce Way,Dallas,TX,75225,690000,4,3.5,Windsor Park 03,2879,12807,1969,12,240,,Active,March-31-2019 02:00 PM,March-31-2019 04:00 PM,http://www.redfin.com/TX/Dallas/7037-Joyce-Way-75225/home/30872672,NTREIS,14045830,N,Y,32.8796491,-96.7841004
MLS Listing,,Single Family Residential,4057 Northaven Rd,Dallas,TX,75229,600000,3,3.0,Midway Hills 05,2690,15987,1962,12,223,,Active,March-31-2019 02:00 PM,March-31-2019 04:00 PM,http://www.redfin.com/TX/Dallas/4057-Northaven-Rd-75229/home/30927075,NTREIS,14034086,N,Y,32.9025121,-96.8422823
MLS Listing,,Single Family Residential,8821 Eustis Ave,Dallas,TX,75218,609000,3,3.0,Lakeland Terrace,2398,,2016,12,254,,Active,March-31-2019 01:00 PM,March-31-2019 03:00 PM,http://www.redfin.com/TX/Dallas/8821-Eustis-Ave-75218/home/30860467,NTREIS,14040716,N,Y,32.8181663,-96.7023394
MLS Listing,,Single Family Residential,9701 Vista Oaks Dr,Dallas,TX,75243,625000,3,3.0,Town Crk Add Sec 03,3314,10716,1977,14,189,,Active,,,http://www.redfin.com/TX/Dallas/9701-Vista-Oaks-Dr-75243/home/31106945,NTREIS,14043759,N,Y,32.8959775,-96.7333221
MLS Listing,,Single Family Residential,4402 Cobblers Ln,Dallas,TX,75287,650000,4,3.0,Bent Tree West Ph I,3005,9583,1978,14,216,,Active,,,http://www.redfin.com/TX/Dallas/4402-Cobblers-Ln-75287/home/31846549,NTREIS,14044157,N,Y,32.9909075,-96.8332156
MLS Listing,,Single Family Residential,5312 W Mockingbird Ln,Dallas,TX,75209,639000,3,2.5,Wettstein,2353,7797,1983,14,272,,Active,March-30-2019 01:00 PM,March-30-2019 03:00 PM,http://www.redfin.com/TX/Dallas/5312-W-Mockingbird-Ln-75209/home/30815645,NTREIS,14044323,N,Y,32.8363943,-96.8214715
MLS Listing,,Single Family Residential,407 Aqua Dr,Dallas,TX,75218,650000,4,4.0,Lake Highlands Estates,3973,12371,1953,15,164,,Active,,,http://www.redfin.com/TX/Dallas/407-Aqua-Dr-75218/home/30908307,NTREIS,14043774,N,Y,32.8527135,-96.7147411
MLS Listing,,Single Family Residential,7901 Eagle Trl,Dallas,TX,75238,699950,4,3.5,White Rock Highlands,3226,7492,1994,16,217,,Active,March-31-2019 02:00 PM,March-31-2019 05:00 PM,http://www.redfin.com/TX/Dallas/7901-Eagle-Trl-75238/home/30871498,NTREIS,14043248,N,Y,32.8661004,-96.7271766
MLS Listing,,Multi-Family (2-4 Unit),4006 Wycliff Ave,Dallas,TX,75219,665000,4,2.0,University Place Add,2752,7362,1932,16,242,,Active,,,http://www.redfin.com/TX/Dallas/4006-Wycliff-Ave-75219/home/30799731,NTREIS,14043058,N,Y,32.819429,-96.807704
MLS Listing,,Single Family Residential,6846 Carolyncrest Dr,Dallas,TX,75214,669900,3,2.0,North Ridge Estates Rev,2128,8102,1960,16,315,,Active,March-31-2019 01:00 PM,March-31-2019 03:00 PM,http://www.redfin.com/TX/Dallas/6846-Carolyncrest-Dr-75214/home/30824967,NTREIS,14042893,N,Y,32.8263291,-96.7425205
MLS Listing,,Single Family Residential,4316 Rickover Dr,Dallas,TX,75244,659000,4,3.5,Forest Glen Sec 05,3386,13155,1970,16,195,,Active,,,http://www.redfin.com/TX/Dallas/4316-Rickover-Dr-75244/home/31098004,NTREIS,14041235,N,Y,32.9179668,-96.835728
MLS Listing,,Single Family Residential,3930 Port Royal Dr,Dallas,TX,75244,640000,4,3.0,Glen Cove Add Instl 01,3081,11631,1962,16,208,3,Active,March-31-2019 02:00 AM,March-31-2019 04:00 PM,http://www.redfin.com/TX/Dallas/3930-Port-Royal-Dr-75244/home/30927994,NTREIS,14039038,N,Y,32.9150304,-96.8481449
MLS Listing,,Multi-Family (2-4 Unit),2310 N Prairie Ave,Dallas,TX,75204,619000,2,2.5,Prairie Place,2373,3354,2019,17,261,,Active,March-30-2019 01:00 PM,March-30-2019 03:00 PM,http://www.redfin.com/TX/Dallas/2310-N-Prairie-Ave-75204/home/160677547,NTREIS,14022320,N,Y,32.8099174,-96.7818049
MLS Listing,,Townhouse,3680 Azure Ct,Dallas,TX,75219,619000,2,2.5,Holland Avenue Villas,1972,1742,2014,18,314,,Active,,,http://www.redfin.com/TX/Dallas/3680-Azure-Ct-75219/home/56861304,NTREIS,14039677,N,Y,32.8164433,-96.8076986
MLS Listing,,Single Family Residential,8045 Mary Curran Ct,Dallas,TX,75252,628000,4,3.5,University Place,3611,5663,2019,18,174,55,Active,,,http://www.redfin.com/TX/Dallas/8045-Mary-Curran-Dr-75080/home/160648431,NTREIS,14041459,N,Y,32.984732,-96.766058
MLS Listing,,Single Family Residential,1318 Apache Dr,Richardson,TX,75080,649000,4,3.0,Richardson Heights 2nd Sec,2419,9888,1960,18,268,,Active,,,http://www.redfin.com/TX/Richardson/1318-Apache-Dr-75080/home/31965485,NTREIS,14041165,N,Y,32.9673964,-96.765104
MLS Listing,,Vacant Land,1132 Pemberton Hill Rd,Dallas,TX,75217,600000,0,,Old Indiana Plantations Addition,,174240,,19,,,Active,,,http://www.redfin.com/TX/Dallas/1132-Pemberton-Hill-Rd-75217/home/30917649,NTREIS,14037309,N,Y,32.732124,-96.716506
MLS Listing,,Single Family Residential,7323 Hill Forest Dr,Dallas,TX,75230,700000,3,3.5,Lake Forest Ph F,2527,3485,1999,19,277,433,Active,March-31-2019 01:00 PM,March-31-2019 03:00 PM,http://www.redfin.com/TX/Dallas/7323-Hill-Forest-Dr-75230/home/32196144,NTREIS,14018368,N,Y,32.9119704,-96.7796619
MLS Listing,,Single Family Residential,6035 Boca Raton Dr,Dallas,TX,75230,699500,3,2.5,Preston Haven Estates,2822,14985,1954,20,248,,Active,,,http://www.redfin.com/TX/Dallas/6035-Boca-Raton-Dr-75230/home/30925929,NTREIS,14039991,N,Y,32.9047784,-96.8027366
MLS Listing,,Single Family Residential,5435 Westside Dr,Dallas,TX,75209,659900,3,2.0,Mockingbird Park 04,2037,8973,1953,21,324,,Active,,,http://www.redfin.com/TX/Dallas/5435-Westside-Dr-75209/home/30815663,NTREIS,14039911,N,Y,32.8364189,-96.8194098
MLS Listing,,Multi-Family (2-4 Unit),4721 Belmont Ave,Dallas,TX,75204,619900,2,2.5,Rick & Hurts North Fitzhugh Ave,2467,5532,2018,21,251,,Active,,,http://www.redfin.com/TX/Dallas/4721-Belmont-Ave-75204/home/146780865,NTREIS,14033354,N,Y,32.8111813,-96.7846469
MLS Listing,,Single Family Residential,412 W 7th St,Dallas,TX,75208,610000,3,2.0,Hillside,1190,5793,1945,22,513,,Active,,,http://www.redfin.com/TX/Dallas/412-W-7th-St-75208/home/30826335,NTREIS,14039435,N,Y,32.7487511,-96.8289586
MLS Listing,,Condo/Co-op,4206 Buena Vista St Unit E,Dallas,TX,75205,649000,3,3.5,4206 Buena Vista Condos,2550,14723,2007,22,255,288,Active,,,http://www.redfin.com/TX/Dallas/4206-Buena-Vista-St-75205/unit-E/home/45092235,NTREIS,14039010,N,Y,32.8177639,-96.794332
MLS Listing,,Single Family Residential,4527 Elsby Ave,Dallas,TX,75209,650000,3,2.0,Linwood Place,2093,7754,1987,22,311,,Active,,,http://www.redfin.com/TX/Dallas/4527-Elsby-Ave-75209/home/30881023,NTREIS,14016813,N,Y,32.8521421,-96.8334459
MLS Listing,,Single Family Residential,5220 Beckington Ln,Dallas,TX,75287,650000,4,3.0,Oaktree Ph One,3769,8276,1991,22,172,121,Active,March-31-2019 02:00 PM,March-31-2019 04:00 PM,http://www.redfin.com/TX/Dallas/5220-Beckington-Ln-75287/home/32074215,NTREIS,14038008,N,Y,33.0003558,-96.8193783
MLS Listing,,Single Family Residential,6239 La Vista Dr,Dallas,TX,75214,649900,3,2.5,Dannellys Summit Hill,3101,8494,1919,23,210,,Active,March-31-2019 03:00 PM,March-31-2019 04:30 PM,http://www.redfin.com/TX/Dallas/6239-La-Vista-Dr-75214/home/30813453,NTREIS,14034152,N,Y,32.8130323,-96.7572829
MLS Listing,,Single Family Residential,4410 BRIAR CREEK Ln,Dallas,TX,75214,699900,3,2.0,Caruth Terrace,2252,11587,1961,23,311,,Active,March-30-2019 01:30 PM,March-30-2019 03:30 PM,http://www.redfin.com/TX/Dallas/4410-Briar-Creek-Ln-75214/home/30823277,NTREIS,14036109,N,Y,32.8409357,-96.7498384
MLS Listing,,Single Family Residential,905 Sunset Hill Dr,Rockwall,TX,75087,699000,5,4.0,Hillcrest Shores II,3871,14288,1996,23,181,,Active,,,http://www.redfin.com/TX/Rockwall/905-Sunset-Hill-Dr-75087/home/33934166,NTREIS,14031131,N,Y,32.940213,-96.4822763
MLS Listing,,Single Family Residential,7127 Canongate Dr,Dallas,TX,75248,669000,4,3.0,Hillcrest Manor 1st Sec,2824,9409,1975,23,237,,Active,,,http://www.redfin.com/TX/Dallas/7127-Canongate-Dr-75248/home/31084171,NTREIS,14032641,N,Y,32.9800086,-96.7834107
MLS Listing,,Townhouse,4219 Mckinney Ave Unit F,Dallas,TX,75205,685000,3,3.5,View At Mckinney Condo,2798,14244,2007,23,245,300,Active,March-30-2019 01:00 PM,March-30-2019 03:00 PM,http://www.redfin.com/TX/Dallas/4219-McKinney-Ave-75205/unit-F/home/30789270,NTREIS,14036048,N,Y,32.8169951,-96.7910428
MLS Listing,,Condo/Co-op,4100 Emerson Ave #8,University Park,TX,75205,658000,3,3.0,Emerson Manor Condo,1962,27791,2013,23,335,206,Active,,,http://www.redfin.com/TX/Dallas/4100-Emerson-Ave-75205/unit-8/home/110136676,NTREIS,14037466,N,Y,32.8464671,-96.8042784
MLS Listing,,Single Family Residential,7744 Verbena Ct,Dallas,TX,75230,683500,3,3.0,Verbena,2493,5140,2018,24,274,163,Active,,,http://www.redfin.com/TX/Dallas/7744-Verbena-Ct-75230/home/143838254,NTREIS,14037134,N,Y,32.898144,-96.775509
MLS Listing,,Townhouse,17235 Lechlade Ln,Dallas,TX,75252,689900,3,3.5,Amber Trls Add Il,3495,4095,2004,24,197,325,Active,,,http://www.redfin.com/TX/Dallas/17235-Lechlade-Ln-75252/home/30743389,NTREIS,14033953,N,Y,32.9862955,-96.8059409
MLS Listing,,Condo/Co-op,5656 N Central Expy #704,Dallas,TX,75206,685000,2,3.0,M Central Residences,2754,170102,2005,25,249,1945,Active,March-31-2019 03:00 PM,March-31-2019 04:30 PM,http://www.redfin.com/TX/Dallas/5656-N-Central-Expy-75206/unit-704/home/30775757,NTREIS,14036471,N,Y,32.8348578,-96.7789527
MLS Listing,,Vacant Land,8503 Blue Bonnet Rd,Dallas,TX,75209,650000,0,,Bluffview Estates,,21519,,25,,,Active,,,http://www.redfin.com/TX/Dallas/8503-Bluebonnet-Rd-75209/home/30854241,NTREIS,14036381,N,Y,32.8555307,-96.8373073
MLS Listing,,Single Family Residential,912 Camino Lago,Irving,TX,75039,624900,4,3.5,La Villita PH 1C,3688,6621,2006,25,169,68,Active,March-31-2019 01:00 PM,March-31-2019 03:00 PM,http://www.redfin.com/TX/Irving/912-Camino-Lago-75039/home/160599674,NTREIS,14032687,N,Y,32.899947,-96.9309981
MLS Listing,,Multi-Family (2-4 Unit),5532 Ellsworth Ave,Dallas,TX,75206,674500,4,4.0,Jc Corwin & Wt Youngbloods,2915,3572,2007,25,231,,Active,,,http://www.redfin.com/TX/Dallas/5532-Ellsworth-Ave-75206/home/32395966,NTREIS,14030295,N,Y,32.8333402,-96.7727172
MLS Listing,,Vacant Land,5925 Ross Ave,Dallas,TX,75206,618000,0,,Nadinea Place Add,,7013,1931,26,,,Active,,,http://www.redfin.com/TX/Dallas/5925-Ross-Ave-75206/home/30805818,NTREIS,14034220,N,Y,32.8114739,-96.76579
MLS Listing,,Single Family Residential,4631 Stanford Ave,Dallas,TX,75209,625000,3,2.0,Linwood Place,1956,7187,1944,26,320,,Active,March-31-2019 03:30 PM,March-31-2019 05:00 PM,http://www.redfin.com/TX/Dallas/4631-Stanford-Ave-75209/home/30880770,NTREIS,14035258,N,Y,32.8535043,-96.83018
MLS Listing,,Single Family Residential,6910 Wildgrove Ave,Dallas,TX,75214,650000,3,2.0,Pasadena Add Sec 01,1770,6926,1941,27,367,,Active,March-31-2019 03:00 PM,March-31-2019 05:00 PM,http://www.redfin.com/TX/Dallas/6910-Wildgrove-Ave-75214/home/30819595,NTREIS,14030848,N,Y,32.8170219,-96.7389873
MLS Listing,,Single Family Residential,8702 San Fernando Way,Dallas,TX,75218,689000,3,2.0,Shamrock Shores,2638,8494,2014,28,261,,Active,,,http://www.redfin.com/TX/Dallas/8702-San-Fernando-Way-75218/home/30860538,NTREIS,14034407,N,Y,32.8231049,-96.7110841
MLS Listing,,Single Family Residential,5338 W Mockingbird Ln,Dallas,TX,75209,649900,4,3.0,Mockingbird Park 04,3045,8625,1954,28,213,,Active,,,http://www.redfin.com/TX/Dallas/5338-W-Mockingbird-Ln-75209/home/30815668,NTREIS,14034195,N,Y,32.8364095,-96.8199853
MLS Listing,,Condo/Co-op,6605 Bandera Unit 2F,Dallas,TX,75225,625000,2,2.5,Drexel Park Hollow Condos PH 01-2,2484,84376,2006,29,252,857,Active,,,http://www.redfin.com/TX/Dallas/6605-Bandera-Ave-75225/unit-2F/home/146850043,NTREIS,14033864,N,Y,32.8680943,-96.7913148
MLS Listing,,Single Family Residential,6941 Kenwood Ave,Dallas,TX,75214,695000,3,3.0,Bob Olinks Downs Add 01,2459,7884,1951,29,283,,Active,,,http://www.redfin.com/TX/Dallas/6941-Kenwood-Ave-75214/home/30823733,NTREIS,14033617,N,Y,32.8333424,-96.7421676
MLS Listing,,Single Family Residential,6415 Lakeshore Dr,Dallas,TX,75214,699000,3,3.0,Country Club Estates,2378,7492,1933,29,294,,Active,,,http://www.redfin.com/TX/Dallas/6415-Lakeshore-Dr-75214/home/30819249,NTREIS,14033707,N,Y,32.8193603,-96.7521328
MLS Listing,,Single Family Residential,7902 Stanford Ave,Dallas,TX,75225,699000,2,1.0,Caruth Hills 06,1221,8407,1947,29,572,,Active,,,http://www.redfin.com/TX/Dallas/7902-Stanford-Ave-75225/home/30871387,NTREIS,14033495,N,Y,32.8527216,-96.7717655
MLS Listing,,Single Family Residential,8703 San Leandro Dr,Dallas,TX,75218,650000,3,3.5,Lakeland Terrace,1751,12545,2019,29,371,,Active,,,http://www.redfin.com/TX/Dallas/8703-San-Leandro-Dr-75218/home/160570054,NTREIS,14032862,N,Y,32.8185259,-96.705381
MLS Listing,,Single Family Residential,600 Mockingbird Ln,Coppell,TX,75019,649999,2,3.5,Hollows Northlake Woodlands,10600,63946,1985,29,61,,Active,,,http://www.redfin.com/TX/Coppell/600-Mockingbird-Ln-75019/home/32202270,NTREIS,14030879,N,Y,32.955621,-96.9670201
MLS Listing,,Single Family Residential,7009 Gateridge Dr,Dallas,TX,75254,695000,4,3.0,Northwood Hills Add Sec 08,3475,16858,1966,29,200,,Active,,,http://www.redfin.com/TX/Dallas/7009-Gateridge-Dr-75254/home/31074417,NTREIS,14027071,N,Y,32.9459452,-96.7838249
MLS Listing,,Single Family Residential,11111 Midway Rd,Dallas,TX,75229,634900,4,3.0,Midway Hills,3350,15682,1970,32,190,,Active,,,http://www.redfin.com/TX/Dallas/11111-Midway-Rd-75229/home/30927133,NTREIS,14030859,N,Y,32.9001015,-96.8386651
MLS Listing,,Condo/Co-op,2900 Mckinnon St #904,Dallas,TX,75201,699000,2,2.5,Azure Condo,1430,,2005,33,489,1166,Active,March-31-2019 02:00 PM,March-31-2019 04:00 PM,http://www.redfin.com/TX/Dallas/2900-McKinnon-St-75201/unit-904/home/30775244,NTREIS,14024223,N,Y,32.7955142,-96.808434
MLS Listing,,Single Family Residential,2253 Forest Hollow Park,Dallas,TX,75228,649900,5,4.0,Stonegate At Forest Hills,3631,8581,2007,33,179,85,Active,March-31-2019 03:30 PM,March-31-2019 05:00 PM,http://www.redfin.com/TX/Dallas/2253-Forest-Hollow-Park-75228/home/30742205,NTREIS,14029883,N,Y,32.8078306,-96.7071138
MLS Listing,,Multi-Family (2-4 Unit),1123 Kings Hwy,Dallas,TX,75208,699000,4,4.0,Oak Cliff Annex,2828,8712,1930,33,247,,Active,,,http://www.redfin.com/TX/Dallas/1123-Kings-Hwy-75208/home/30830885,NTREIS,14027448,N,Y,32.750949,-96.839961
MLS Listing,,Single Family Residential,1007 N Clinton Ave,Dallas,TX,75208,695000,4,3.0,Kessler Square,2366,7492,1927,33,294,,Active,March-30-2019 02:00 PM,March-30-2019 05:00 PM,http://www.redfin.com/TX/Dallas/1007-N-Clinton-Ave-75208/home/30836288,NTREIS,14028921,N,Y,32.7556227,-96.8417896
MLS Listing,,Condo/Co-op,2300 Leonard St #402,Dallas,TX,75201,649000,2,2.5,Metropolitan Club Condo,2130,22651,2004,35,305,787,Active,,,http://www.redfin.com/TX/Dallas/2300-Leonard-St-75201/unit-402/home/30745892,NTREIS,14029257,N,Y,32.7934469,-96.8008546
MLS Listing,,Single Family Residential,510 Valencia St,Dallas,TX,75223,649000,4,3.5,Hollywood Rev,2133,7710,1929,36,304,,Active,March-31-2019 01:00 PM,March-31-2019 03:00 PM,http://www.redfin.com/TX/Dallas/510-Valencia-St-75223/home/30812704,NTREIS,14029133,N,Y,32.8045435,-96.7454877
MLS Listing,,Multi-Family (2-4 Unit),4639 Coles Mnr,Dallas,TX,75204,649900,3,2.5,Belmont Park Rev,2553,6490,2019,36,255,,Active,,,http://www.redfin.com/TX/Dallas/4639-Coles-Manor-Pl-75204/home/30809114,NTREIS,14028754,N,Y,32.8118232,-96.7871222
MLS Listing,,Single Family Residential,16005 Chalfont Cir,Dallas,TX,75248,664500,3,2.5,Preston Park 02,3767,8625,1985,36,176,,Active,March-31-2019 01:00 PM,March-31-2019 04:00 PM,http://www.redfin.com/TX/Dallas/16005-Chalfont-Cir-75248/home/31086473,NTREIS,14027878,N,Y,32.9671788,-96.8053974
MLS Listing,,Single Family Residential,10322 Sandbar Dr,Irving,TX,75063,615000,5,4.5,Grand Estates At Northlake Hills,4175,6229,2007,37,147,40,Active,,,http://www.redfin.com/TX/Irving/10322-Sandbar-Dr-75063/home/30768047,NTREIS,14026515,N,Y,32.945595,-96.9661326
MLS Listing,,Single Family Residential,5535 Mccommas Blvd,Dallas,TX,75206,699000,4,3.0,Greenland Heights,2202,8625,1928,37,317,,Active,March-31-2019 01:00 PM,March-31-2019 03:00 PM,http://www.redfin.com/TX/Dallas/5535-McCommas-Blvd-75206/home/30821805,NTREIS,14018209,N,Y,32.8301663,-96.77301
MLS Listing,,Single Family Residential,5842 Mercedes Ave,Dallas,TX,75206,675000,3,2.5,Greenville Crest,2583,7057,1926,37,261,,Active,March-31-2019 02:00 PM,March-31-2019 04:00 PM,http://www.redfin.com/TX/Dallas/5842-Mercedes-Ave-75206/home/30811605,NTREIS,14027779,N,Y,32.8276884,-96.7661079
MLS Listing,,Single Family Residential,8906 Daytonia Ave,Dallas,TX,75218,625000,4,3.5,Lakeland Terrace,3284,8189,2008,37,190,,Active,March-31-2019 02:00 PM,March-31-2019 04:00 PM,http://www.redfin.com/TX/Dallas/8906-Daytonia-Ave-75218/home/32193131,NTREIS,14022920,N,Y,32.8210606,-96.7050243
MLS Listing,,Single Family Residential,704 Kessler Lake Dr,Dallas,TX,75208,689000,3,3.0,Cofer At Kessler Park,4300,18208,2003,43,160,,Active,,,http://www.redfin.com/TX/Dallas/704-Kessler-Lake-Dr-75208/home/30739963,NTREIS,14024705,N,Y,32.7583442,-96.8339685
MLS Listing,,Single Family Residential,5607 Stanford Ave,Dallas,TX,75209,645000,3,2.0,Idlewild Ac 4th Sec,2001,7492,1947,43,322,,Active,,,http://www.redfin.com/TX/Dallas/5607-Stanford-Ave-75209/home/30880181,NTREIS,14023281,N,Y,32.8534586,-96.8173083
MLS Listing,,Single Family Residential,6123 Sul Ross Ln,Dallas,TX,75214,649000,5,3.5,Caruth Meadows,2886,10890,1960,43,225,,Active,,,http://www.redfin.com/TX/Dallas/6123-Sul-Ross-Ln-75214/home/30867268,NTREIS,14024428,N,Y,32.8441427,-96.7598965
MLS Listing,,Single Family Residential,5840 Northmoor Dr,Dallas,TX,75230,640000,3,2.0,Inwood Road Estates,1726,16640,1955,43,371,,Active,,,http://www.redfin.com/TX/Dallas/5840-Northmoor-Dr-75230/home/30925514,NTREIS,14023453,N,Y,32.9082693,-96.8074483
MLS Listing,,Single Family Residential,6828 Casa Loma Ave,Dallas,TX,75214,699000,4,2.0,Lakewood Hills,2511,8843,1941,43,278,,Active,,,http://www.redfin.com/TX/Dallas/6828-Casa-Loma-Ave-75214/home/30818792,NTREIS,14019450,N,Y,32.8132304,-96.742186
MLS Listing,,Single Family Residential,4316 Royal Ridge Dr,Dallas,TX,75229,649000,4,3.0,Royal Ridge Add,2796,10672,1967,44,232,,Active,,,http://www.redfin.com/TX/Dallas/4316-Royal-Ridge-Dr-75229/home/30878298,NTREIS,14023929,N,Y,32.8891563,-96.8352255
MLS Listing,,Single Family Residential,5424 Anita St,Dallas,TX,75206,697545,4,3.0,5300 Glencoe Park,2630,4879,2018,44,265,125,Active,,,http://www.redfin.com/TX/Dallas/5424-Anita-St-75206/home/160467662,NTREIS,14023671,N,Y,32.8344203,-96.7759764
MLS Listing,,Multi-Family (2-4 Unit),4327 Cabell Dr,Dallas,TX,75204,685000,3,3.5,Deere Park,2599,3746,2016,44,264,,Active,,,http://www.redfin.com/TX/Dallas/4327-Cabell-Dr-75204/home/143837775,NTREIS,14022102,N,Y,32.8053315,-96.7852322
MLS Listing,,Single Family Residential,4147 Deep Valley Dr,Dallas,TX,75244,625000,4,3.5,Forest Glen Sec 02,3378,16683,1968,45,185,,Active,,,http://www.redfin.com/TX/Dallas/4147-Deep-Valley-Dr-75244/home/30927753,NTREIS,14022204,N,Y,32.9123727,-96.8390535
MLS Listing,,Single Family Residential,6902 Vivian Ave,Dallas,TX,75223,650000,4,3.5,Santa Monica,2187,7144,1935,46,297,,Active,,,http://www.redfin.com/TX/Dallas/6902-Vivian-Ave-75223/home/30818133,NTREIS,14022282,N,Y,32.8034983,-96.7379629
MLS Listing,,Single Family Residential,6203 Prospect Ave,Dallas,TX,75214,699000,3,2.0,Edgemont Park,1920,16988,1932,46,364,,Active,,,http://www.redfin.com/TX/Dallas/6203-Prospect-Ave-75214/home/30810945,NTREIS,14020105,N,Y,32.8152815,-96.7586627
MLS Listing,,Single Family Residential,5805 Bent Oak Ct,Dallas,TX,75248,674900,4,5.5,Bent Tree Fairways,4458,11326,1979,47,151,,Active,,,http://www.redfin.com/TX/Dallas/5805-Bent-Oak-Ct-75248/home/31088084,NTREIS,14021183,N,Y,32.9733399,-96.8169084
MLS Listing,,Single Family Residential,8787 Rexford Dr,Dallas,TX,75209,640000,4,3.0,Shore Crest Terrace,1866,10149,1950,50,343,,Active,,,http://www.redfin.com/TX/Dallas/8787-Rexford-Dr-75209/home/30855698,NTREIS,14017830,N,Y,32.8582712,-96.8488569
MLS Listing,,Single Family Residential,5875 Farquhar Ln,Dallas,TX,75209,675000,3,3.5,Munger Square Rev,3601,4312,1973,50,187,200,Active,,,http://www.redfin.com/TX/Dallas/5875-Farquhar-Ln-75209/home/30880572,NTREIS,14019778,N,Y,32.8621567,-96.81222
MLS Listing,,Single Family Residential,6046 Llano Ave,Dallas,TX,75206,699000,3,3.5,Belmont Sub,2746,7492,2001,50,255,,Active,,,http://www.redfin.com/TX/Dallas/6046-Llano-Ave-75206/home/30806348,NTREIS,14011426,N,Y,32.8217615,-96.7617369
MLS Listing,,Single Family Residential,1014 N Clinton Ave,Dallas,TX,75208,649900,3,3.0,Kessler Square,3317,8015,1928,50,196,,Active,,,http://www.redfin.com/TX/Dallas/1014-N-Clinton-Ave-75208/home/30836186,NTREIS,14019204,N,Y,32.7559515,-96.8411928
MLS Listing,,Single Family Residential,6963 Bob O Link Dr,Dallas,TX,75214,699000,3,3.0,Bob Olinks Downs Add 01,2490,9583,1950,50,281,,Active,March-31-2019 02:00 PM,March-31-2019 04:00 PM,http://www.redfin.com/TX/Dallas/6963-Bob-O-Link-Dr-75214/home/30823768,NTREIS,14012376,N,Y,32.8327821,-96.7407691
MLS Listing,,Condo/Co-op,3601 Turtle Creek Blvd #801,Dallas,TX,75219,625000,2,2.0,Gold Crest Condominiums,1716,4356,1964,51,364,1611,Active,April-7-2019 02:00 PM,April-7-2019 04:00 PM,http://www.redfin.com/TX/Dallas/3601-Turtle-Creek-Blvd-75219/unit-801/home/30795234,NTREIS,14016187,N,Y,32.8113849,-96.802148
MLS Listing,,Single Family Residential,6704 Barcelona,Irving,TX,75039,609999,4,3.5,La Villita Ph 1c,3613,7579,2006,51,169,62,Active,,,http://www.redfin.com/TX/Irving/6704-Barcelona-75039/home/30762438,NTREIS,14016835,N,Y,32.9004924,-96.9286707
MLS Listing,,Condo/Co-op,3710 Holland Ave #8,Dallas,TX,75219,699000,2,2.5,3710 Holland Condo,2273,16030,1991,51,308,564,Active,March-31-2019 01:00 PM,March-31-2019 04:00 PM,http://www.redfin.com/TX/Dallas/3710-Holland-Ave-75219/unit-8/home/147399619,NTREIS,14018094,N,Y,32.812508,-96.8029908
MLS Listing,,Single Family Residential,7942 Sarahville Dr,Dallas,TX,75252,675000,4,3.5,University Place,3665,21780,2019,52,184,55,Active,,,http://www.redfin.com/TX/Dallas/7942-Sarahville-Dr-75252/home/160394917,NTREIS,14017871,N,Y,32.983397,-96.767513
MLS Listing,,Single Family Residential,1910 Marydale Dr,Dallas,TX,75208,695000,4,4.0,Stevens Park Estates,3220,8712,1938,52,216,,Active,,,http://www.redfin.com/TX/Dallas/1910-Marydale-Rd-75208/home/30848235,NTREIS,14017196,N,Y,32.7609839,-96.8527102
MLS Listing,,Single Family Residential,10316 Boedeker St,Dallas,TX,75230,684900,3,3.0,Crest Meadow Estates,2336,11369,1970,53,293,,Active,,,http://www.redfin.com/TX/Dallas/10316-Boedeker-St-75230/home/30990787,NTREIS,14017656,N,Y,32.8868959,-96.7768798
MLS Listing,,Townhouse,381 E Greenbriar Ln #803,Dallas,TX,75203,698000,3,3.5,Trinity Bluff,3173,1350,2019,53,220,165,Active,March-31-2019 02:00 PM,March-31-2019 04:00 PM,http://www.redfin.com/TX/Dallas/381-E-Greenbriar-Ln-75203/unit-803/home/143837965,NTREIS,14013992,N,Y,32.7635494,-96.8173663
MLS Listing,,Single Family Residential,5939 Velasco Ave,Dallas,TX,75206,689000,3,2.5,BELMONT SUBURBAN,3182,7928,1923,53,217,,Active,March-30-2019 01:00 PM,March-30-2019 03:00 PM,http://www.redfin.com/TX/Dallas/5939-Velasco-Ave-75206/home/30806366,NTREIS,14017023,N,Y,32.8212563,-96.764217
MLS Listing,,Single Family Residential,3215 Sperry St,Dallas,TX,75214,659900,3,2.0,North Ridge Estates,1784,10149,1973,54,370,,Active,March-31-2019 01:00 PM,March-31-2019 03:00 PM,http://www.redfin.com/TX/Dallas/3215-Sperry-St-75214/home/30824984,NTREIS,14016086,N,Y,32.826661,-96.7404298
MLS Listing,,Single Family Residential,7127 Joyce Way,Dallas,TX,75225,648500,4,3.0,Windsor Park 3,2968,13504,1967,54,218,,Active,,,http://www.redfin.com/TX/Dallas/7127-Joyce-Way-75225/home/30872681,NTREIS,14011993,N,Y,32.8797082,-96.7818124
MLS Listing,,Condo/Co-op,2323 N Houston St N #710,Dallas,TX,75219,624900,2,2.0,Terrace Condos,2362,,2005,54,265,1322,Active,,,http://www.redfin.com/TX/Dallas/2323-N-Houston-St-75219/unit-710/home/30766002,NTREIS,14016254,N,Y,32.7850316,-96.8100004
MLS Listing,,Townhouse,3230 Blackburn St,Dallas,TX,75204,684000,3,2.5,Valencia 02 Amd,2357,1830,2006,54,290,280,Active,,,http://www.redfin.com/TX/Dallas/3230-Blackburn-St-75204/home/30762838,NTREIS,14016341,N,Y,32.810409,-96.796715
MLS Listing,,Single Family Residential,10915 Ridgemeadow Dr,Dallas,TX,75218,699900,4,2.5,Lochwood Meadows,3569,8799,1967,54,196,,Active,,,http://www.redfin.com/TX/Dallas/10915-Ridgemeadow-Dr-75218/home/31045565,NTREIS,14015639,N,Y,32.8586819,-96.6962491
MLS Listing,,Vacant Land,4679 Westside Dr,Highland Park,TX,75209,649000,0,,Highland Park West 9th Inst,,,,57,,,Active,,,http://www.redfin.com/TX/Dallas/4679-Westside-Dr-75209/home/32070124,NTREIS,14014264,N,Y,32.8282465,-96.8188759
MLS Listing,,Vacant Land,7629 Lovers Ln Unit B,Dallas,TX,75225,625000,0,,Caruth Hills 04,,8407,1946,57,,,Active,,,http://www.redfin.com/TX/Dallas/7629-Lovers-Ln-75225/unit-B/home/160369007,NTREIS,14014709,N,Y,32.8513733,-96.775813
MLS Listing,,Single Family Residential,7711 Queens Garden Dr,Dallas,TX,75248,639900,4,3.5,Highlands North Sec 02,3551,12284,1976,59,180,,Active,,,http://www.redfin.com/TX/Dallas/7711-Queens-Garden-Dr-75248/home/31112547,NTREIS,14013099,N,Y,32.9824545,-96.7729473
MLS Listing,,Single Family Residential,3766 Royal Cove Dr,Dallas,TX,75229,660000,4,3.5,Royal Marsh Estates,3212,15246,1972,59,205,,Active,,,http://www.redfin.com/TX/Dallas/3766-Royal-Cove-Dr-75229/home/30928684,NTREIS,14012787,N,Y,32.8938573,-96.8533963
MLS Listing,,Single Family Residential,6553 Lafayette Way,Dallas,TX,75230,699000,3,2.0,Huffhines Hill,1842,21780,1955,60,379,,Active,,,http://www.redfin.com/TX/Dallas/6553-Lafayette-Way-75230/home/31017054,NTREIS,14012947,N,Y,32.9215838,-96.7930933
MLS Listing,,Single Family Residential,8012 Sarahville,Dallas,TX,75252,650000,5,4.0,University Place,3469,6970,2019,60,187,55,Active,,,http://www.redfin.com/TX/Dallas/8012-Sarahville-75252/home/160329641,NTREIS,14012203,N,Y,32.983773,-96.767426
MLS Listing,,Single Family Residential,6122 Preston Crest Ln,Dallas,TX,75230,624999,3,2.0,Preston Crest,2283,15290,1958,64,274,,Active,,,http://www.redfin.com/TX/Dallas/6122-Preston-Crest-Ln-75230/home/31017073,NTREIS,14007874,N,Y,32.9213079,-96.8005843
MLS Listing,,Single Family Residential,2815 Lawtherwood Pl,Dallas,TX,75214,679000,4,3.0,Lawtherwood,3174,6011,1975,64,214,29,Active,,,http://www.redfin.com/TX/Dallas/2815-Lawtherwood-Pl-75214/home/30845252,NTREIS,14003060,N,Y,32.8198941,-96.7324859
MLS Listing,,Single Family Residential,6516 Greenwich Ln,Dallas,TX,75230,669000,4,3.0,Fine Estates,3886,16683,1969,65,172,,Active,March-31-2019 02:00 PM,March-31-2019 04:00 PM,http://www.redfin.com/TX/Dallas/6516-Greenwich-Ln-75230/home/31018850,NTREIS,14009682,N,Y,32.9113829,-96.7941185
MLS Listing,,Single Family Residential,919 Valencia St,Dallas,TX,75223,699000,3,2.0,Hollywood 01 Instl,2334,14201,1938,65,299,,Active,,,http://www.redfin.com/TX/Dallas/919-Valencia-St-75223/home/30812946,NTREIS,14009473,N,Y,32.8015303,-96.742531
MLS Listing,,Single Family Residential,5715 Willow Ln,Dallas,TX,75230,649000,3,2.0,Melshire Estates 2,2166,16291,1958,65,300,,Active,April-7-2019 02:00 PM,April-7-2019 03:30 PM,http://www.redfin.com/TX/Dallas/5715-Willow-Ln-75230/home/30962515,NTREIS,14006341,N,Y,32.9139019,-96.811048
MLS Listing,,Single Family Residential,6144 Monticello Ave,Dallas,TX,75214,629900,3,2.5,Lakeview Heights,2659,9148,1954,67,237,,Active,,,http://www.redfin.com/TX/Dallas/6144-Monticello-Ave-75214/home/30820334,NTREIS,14008461,N,Y,32.8263741,-96.7595828
MLS Listing,,Townhouse,381 E Greenbriar Ln #801,Dallas,TX,75203,624900,3,3.5,Trinity Bluff,2667,653,2019,68,234,165,Active,,,http://www.redfin.com/TX/Dallas/381-E-Greenbriar-Ln-75203/home/143837967,NTREIS,14006864,N,Y,32.7635494,-96.8173663
MLS Listing,,Single Family Residential,6035 Goodwin Ave,Dallas,TX,75206,699000,4,3.5,Delmar Heights,2973,7013,2010,71,235,,Active,,,http://www.redfin.com/TX/Dallas/6035-Goodwin-Ave-75206/home/30820137,NTREIS,14006121,N,Y,32.8240385,-96.7622179
MLS Listing,,Single Family Residential,6731 Lakefair Cir,Dallas,TX,75214,625000,2,2.5,Bob-O-Links Downs #4,1788,10106,1952,71,350,50,Active,,,http://www.redfin.com/TX/Dallas/6731-Lakefair-Cir-75214/home/30823585,NTREIS,14002941,N,Y,32.8368944,-96.7450712
MLS Listing,,Single Family Residential,2714 N Carroll Ave,Dallas,TX,75204,600000,3,2.5,Belmont Park Add,2076,6795,1944,72,289,,Active,,,http://www.redfin.com/TX/Dallas/2714-N-Carroll-Ave-75204/home/30809397,NTREIS,14005425,N,Y,32.810445,-96.7888669
MLS Listing,,Single Family Residential,4109 Allencrest Ln,Dallas,TX,75244,690000,5,4.0,Frst Glen Add Sec 03,4237,16683,1969,72,163,3,Active,,,http://www.redfin.com/TX/Dallas/4109-Allencrest-Ln-75244/home/30927770,NTREIS,14005338,N,Y,32.9114331,-96.8430145
MLS Listing,,Single Family Residential,6918 Hammond Ave,Dallas,TX,75223,639000,3,2.0,Santa Monica,2022,7144,1946,72,316,5,Active,March-31-2019 01:00 PM,March-31-2019 03:00 PM,http://www.redfin.com/TX/Dallas/6918-Hammond-Ave-75223/home/30818159,NTREIS,14004949,N,Y,32.8046672,-96.7382556
MLS Listing,,Single Family Residential,5811 Preston Fairways Dr,Dallas,TX,75252,629900,3,3.5,Preston Trails Fairways Ph I,3355,5663,1985,72,188,50,Active,,,http://www.redfin.com/TX/Dallas/5811-Preston-Fairways-Dr-75252/home/32173572,NTREIS,14004745,N,Y,32.9871887,-96.808704
MLS Listing,,Single Family Residential,9323 Loma Vista Dr,Dallas,TX,75243,639000,4,4.0,Forest Meadows Sec 03,3741,8756,1972,73,171,63,Active,,,http://www.redfin.com/TX/Dallas/9323-Loma-Vista-Dr-75243/home/31072597,NTREIS,14004423,N,Y,32.8971642,-96.7409943
MLS Listing,,Single Family Residential,424 Cameron Ave,Dallas,TX,75223,634900,4,2.5,Mount Auburn,2540,6752,2018,73,250,,Active,,,http://www.redfin.com/TX/Dallas/424-Cameron-Ave-75223/home/30801133,NTREIS,14004277,N,Y,32.8042125,-96.746702
MLS Listing,,Single Family Residential,6677 Crestway Ct,Dallas,TX,75230,615000,3,2.5,Forest Oaks,3483,7623,1984,74,177,83,Active,,,http://www.redfin.com/TX/Dallas/6677-Crestway-Ct-75230/home/146680201,NTREIS,14002382,N,Y,32.910015,-96.790635
MLS Listing,,Multi-Family (2-4 Unit),4218 Munger Ave,Dallas,TX,75204,624500,3,3.0,Ross Ave Add,2300,6795,2018,74,272,,Active,,,http://www.redfin.com/TX/Dallas/4218-Munger-Ave-75204/home/148721975,NTREIS,14003809,N,Y,32.8021429,-96.7842346
MLS Listing,,Condo/Co-op,4219 McKinney Ave Unit C,Dallas,TX,75205,685000,3,3.5,View At Mckinney Condo,2798,14244,2007,75,245,300,Active,,,http://www.redfin.com/TX/Dallas/4219-McKinney-Ave-75205/unit-C/home/30789267,NTREIS,14002828,N,Y,32.8169951,-96.7910428
MLS Listing,,Multi-Family (2-4 Unit),4505 Rusk Ave,Dallas,TX,75204,675000,3,2.5,Laclede Add,2800,3049,2016,75,241,,Active,March-30-2019 12:00 PM,March-30-2019 03:00 PM,http://www.redfin.com/TX/Dallas/4505-Rusk-Ave-75204/home/112981500,NTREIS,13997182,N,Y,32.8075577,-96.7855696
MLS Listing,,Single Family Residential,7724 Meadowhaven Dr,Dallas,TX,75254,698999,4,4.0,Northwood Hills,2935,12894,1968,77,238,,Active,March-31-2019 01:00 PM,March-31-2019 05:00 PM,http://www.redfin.com/TX/Dallas/7724-Meadowhaven-Dr-75254/home/31058971,NTREIS,14002283,N,Y,32.9475917,-96.773261
MLS Listing,,Single Family Residential,938 N Winnetka Ave,Dallas,TX,75208,629900,4,3.0,Oak Cliff Annex,2920,6186,1914,78,216,,Active,,,http://www.redfin.com/TX/Dallas/938-N-Winnetka-Ave-75208/home/30830995,NTREIS,14001891,N,Y,32.7552694,-96.8400203
MLS Listing,,Single Family Residential,5027 Alcott St,Dallas,TX,75206,649900,4,3.0,Alcott Fitzhugh Heights,2813,6011,1925,78,231,,Active,,,http://www.redfin.com/TX/Dallas/5027-Alcott-St-75206/home/30808538,NTREIS,14000654,N,Y,32.8170618,-96.7852233
MLS Listing,,Single Family Residential,6300 Tremont St,Dallas,TX,75214,625000,3,2.0,Parks Estates,1680,9496,1926,79,372,,Active,,,http://www.redfin.com/TX/Dallas/6300-Tremont-St-75214/home/30819537,NTREIS,13990253,N,Y,32.8103131,-96.7499652
MLS Listing,,Townhouse,1252 Annex Ave,Dallas,TX,75204,650000,3,2.5,Annex-Swanston Addition,2618,14505,2018,79,248,,Active,,,http://www.redfin.com/TX/Dallas/1252-Annex-Ave-75204/home/148698190,NTREIS,13999831,N,Y,32.8003568,-96.7747027
MLS Listing,,Multi-Family (2-4 Unit),3915 Prescott Ave,Dallas,TX,75219,675000,2,2.5,North Oak Lawn,2580,3615,1992,79,262,,Active,,,http://www.redfin.com/TX/Dallas/3915-Prescott-Ave-75219/home/30809619,NTREIS,14000625,N,Y,32.822099,-96.8099359
MLS Listing,,Single Family Residential,9202 Whitehurst Dr,Dallas,TX,75243,669000,4,4.0,Forest Meadows,3829,9496,1974,79,175,,Active,,,http://www.redfin.com/TX/Dallas/9202-Whitehurst-Dr-75243/home/31072788,NTREIS,14000939,N,Y,32.9002276,-96.7443406
MLS Listing,,Single Family Residential,10040 Gooding Dr,Dallas,TX,75229,649000,4,3.5,Walnut Hill Manor,2964,16161,1965,79,219,,Active,,,http://www.redfin.com/TX/Dallas/10040-Gooding-Dr-75229/home/30914404,NTREIS,14000911,N,Y,32.8817209,-96.843021
MLS Listing,,Single Family Residential,9716 Buxhill Dr,Dallas,TX,75238,609000,4,3.0,White Rock North 01 Rev,2826,9496,1958,81,215,,Active,,,http://www.redfin.com/TX/Dallas/9716-Buxhill-Dr-75238/home/31021722,NTREIS,13989284,N,Y,32.8675908,-96.7190253
MLS Listing,,Single Family Residential,4910 Heatherbrook Dr,Dallas,TX,75244,699900,5,4.5,Hyde Park Estates,3650,17163,1965,82,192,,Active,,,http://www.redfin.com/TX/Dallas/4910-Heatherbrook-Dr-75244/home/31099017,NTREIS,13998395,N,Y,32.9167341,-96.8229996
MLS Listing,,Single Family Residential,9166 Rock Daisy,Dallas,TX,75231,639990,4,3.5,Reserve at White Rock,2624,3659,2019,82,244,142,Active,March-30-2019 01:00 PM,March-30-2019 04:00 PM,http://www.redfin.com/TX/Dallas/9166-Rock-Daisy-Ct-75231/home/145835457,NTREIS,13997392,N,Y,32.883767,-96.734267
MLS Listing,,Single Family Residential,7225 Stonetrail Dr,Dallas,TX,75230,695000,4,3.5,Meadows 03,3210,13155,1966,85,217,,Active,,,http://www.redfin.com/TX/Dallas/7225-Stonetrail-Dr-75230/home/30872816,NTREIS,13994401,N,Y,32.8862747,-96.7786369
MLS Listing,,Single Family Residential,6323 Preston Crest Ln,Dallas,TX,75230,650000,9,5.0,Huffhines Hill Add,3624,15072,1954,86,179,,Active,,,http://www.redfin.com/TX/Dallas/6323-Preston-Crest-Ln-75230/home/31017030,NTREIS,13996350,N,Y,32.9218491,-96.7962737
MLS Listing,,Single Family Residential,6030 Preston Creek Dr,Dallas,TX,75240,645000,4,3.0,Preston Road North Estates,3006,16509,1978,87,215,15,Active,,,http://www.redfin.com/TX/Dallas/6030-Preston-Creek-Dr-75240/home/31015731,NTREIS,13995493,N,Y,32.9377228,-96.8033047
MLS Listing,,Condo/Co-op,3110 Thomas Ave #921,Dallas,TX,75204,625000,2,2.0,588 Condos,2453,51139,1998,94,255,494,Active,,,http://www.redfin.com/TX/Dallas/3110-Thomas-Ave-75204/unit-921/home/30762004,NTREIS,13992338,N,Y,32.798157,-96.7950576
MLS Listing,,Multi-Family (2-4 Unit),2011 N Prairie Ave,Dallas,TX,75204,673000,4,3.5,Fakes Park Place,3148,6360,2018,100,214,,Active,,,http://www.redfin.com/TX/Dallas/2011-N-Prairie-Ave-75204/home/147427888,NTREIS,13991787,N,Y,32.8078456,-96.780164
MLS Listing,,Single Family Residential,7629 Lovers Ln,Dallas,TX,75225,620000,2,1.0,Caruth Hills 04,1156,8407,1946,100,536,,Active,,,http://www.redfin.com/TX/Dallas/7629-Lovers-Ln-75225/home/30871959,NTREIS,13991510,N,Y,32.8513733,-96.775813
MLS Listing,,Townhouse,2813 State St,Dallas,TX,75204,694000,3,3.5,Worthington Corners,2774,1699,2003,101,250,81,Active,,,http://www.redfin.com/TX/Dallas/2813-State-St-75204/home/30730317,NTREIS,13990826,N,Y,32.7968552,-96.7988277
MLS Listing,,Condo/Co-op,7700 Eastern Ave #208,Dallas,TX,75209,637500,3,3.5,Greenway Place Condo,2699,101059,2016,101,236,206,Active,March-31-2019 01:00 PM,March-31-2019 04:00 PM,http://www.redfin.com/TX/Dallas/7700-Eastern-Ave-75209/unit-208/home/30788864,NTREIS,13988410,N,Y,32.8492308,-96.8141278
MLS Listing,,Multi-Family (2-4 Unit),2009 N Prairie Ave,Dallas,TX,75204,673000,4,3.5,Fakes Park Place,3148,6360,2018,102,214,,Active,,,http://www.redfin.com/TX/Dallas/2009-N-Prairie-Ave-75204/home/30792934,NTREIS,13990587,N,Y,32.807725,-96.780075
MLS Listing,,Condo/Co-op,2808 Welborn St #4,Dallas,TX,75219,659000,2,2.0,Welborn Street Condo,2000,25918,1979,102,330,325,Active,,,http://www.redfin.com/TX/Dallas/2808-Welborn-St-75219/unit-4/home/30794798,NTREIS,13989408,N,Y,32.8062326,-96.8100577
MLS Listing,,Single Family Residential,4439 Vandelia Dr,Dallas,TX,75219,625000,2,1.5,Perry Heights,1650,7405,1929,103,379,,Active,,,http://www.redfin.com/TX/Dallas/4439-Vandelia-St-75219/home/30810496,NTREIS,13990266,N,Y,32.8164827,-96.8166153
MLS Listing,,Single Family Residential,3873 Royal Ln,Dallas,TX,75229,695000,5,4.0,Park Royal,3264,15987,1975,103,213,,Active,,,http://www.redfin.com/TX/Dallas/3873-Royal-Ln-75229/home/30928495,NTREIS,13989836,N,Y,32.895491,-96.8472235
MLS Listing,,Single Family Residential,7079 Silverberry St,Dallas,TX,75231,635621,3,3.5,Lake Highlands Town Center,2115,5619,2019,106,301,133,Active,,,http://www.redfin.com/TX/Dallas/7079-Silverberry-St-75231/home/148477815,NTREIS,13989227,N,Y,32.873912,-96.734506
MLS Listing,,Condo/Co-op,2292 Vantage #130 St,Dallas,TX,75207,699995,2,2.0,2292 Vantage Condominium,2500,,1964,117,280,,Active,,,http://www.redfin.com/TX/Dallas/2292-Vantage-St-75207/home/143802179,NTREIS,13981871,N,Y,32.8000287,-96.8360218
MLS Listing,,Single Family Residential,9161 Rock Daisy,Dallas,TX,75231,649990,5,4.0,Reserve at White Rock,2863,8276,2019,120,227,142,Active,March-30-2019 01:00 PM,March-30-2019 04:00 PM,http://www.redfin.com/TX/Dallas/9161-Rock-Daisy-Ct-75231/home/146002542,NTREIS,13980680,N,Y,32.883767,-96.734267
MLS Listing,,Single Family Residential,1186 Michener Way,Irving,TX,75063,649999,4,3.5,Hemingway Court 1st Amd,3536,3615,2008,120,184,97,Active,March-31-2019 02:00 PM,March-31-2019 05:00 PM,http://www.redfin.com/TX/Irving/1186-Michener-Way-75063/home/30768379,NTREIS,13979900,N,Y,32.9476022,-96.9639043
MLS Listing,,Condo/Co-op,2408 Victory Park Ln #1038,Dallas,TX,75219,699000,2,2.5,W Residences,1652,71395,2006,120,423,1500,Active,,,http://www.redfin.com/TX/Dallas/2408-Victory-Park-Ln-75219/unit-1038/home/30775467,NTREIS,13980277,N,Y,32.7894829,-96.810563
MLS Listing,,Single Family Residential,6720 Mossvine Pl,Dallas,TX,75254,694900,4,3.5,Northwood Hills Estates,3280,17511,1970,121,212,,Active,March-30-2019 01:00 PM,March-30-2019 03:00 PM,http://www.redfin.com/TX/Dallas/6720-Mossvine-Pl-75254/home/31073368,NTREIS,13971974,N,Y,32.9488198,-96.7857496
MLS Listing,,Townhouse,3783 Panalero Ln,Dallas,TX,75209,695592,3,3.0,Oak Park Gardens,2700,,2019,122,258,100,Active,,,http://www.redfin.com/TX/Dallas/3783-Panalero-Ln-75209/home/147935184,NTREIS,13979622,N,Y,32.827858,-96.821362
MLS Listing,,Townhouse,2833 Thomas Ave,Dallas,TX,75204,650000,3,2.5,Thomas Court Ph 1b,2415,1568,1997,123,269,245,Active,,,http://www.redfin.com/TX/Dallas/2833-Thomas-Ave-75204/home/31122481,NTREIS,13977554,N,Y,32.7963982,-96.7981046
MLS Listing,,Single Family Residential,6158 Monticello Ave,Dallas,TX,75214,625000,2,2.0,Lakeview Heights,1801,8843,1955,124,347,,Active,,,http://www.redfin.com/TX/Dallas/6158-Monticello-Ave-75214/home/30820323,NTREIS,13978229,N,Y,32.8263596,-96.7590391
MLS Listing,,Condo/Co-op,3535 Gillespie St #306,Dallas,TX,75219,649000,2,2.5,Plaza At Turtle Creek Residence Ph,1651,136473,2000,124,393,1263,Active,,,http://www.redfin.com/TX/Dallas/3535-Gillespie-St-75219/unit-306/home/32259933,NTREIS,13977882,N,Y,32.8053299,-96.8079925
MLS Listing,,Single Family Residential,5605 Northaven Rd,Dallas,TX,75230,675000,3,3.0,Meadowcrest Park,2331,20996,1959,124,290,,Active,,,http://www.redfin.com/TX/Dallas/5605-Northaven-Rd-75230/home/30926481,NTREIS,13977414,N,Y,32.9025259,-96.811507
MLS Listing,,Townhouse,2807 Shelby Ave,Dallas,TX,75219,624900,3,3.5,SHELBY INTOWN,2440,2744,2018,126,256,165,Active,March-31-2019 02:00 PM,March-31-2019 04:00 PM,http://www.redfin.com/TX/Dallas/2807-Shelby-Ave-75219/home/35598183,NTREIS,13975999,N,Y,32.808171,-96.811802
MLS Listing,,Single Family Residential,5051 Forest Bend Rd,Dallas,TX,75244,625000,4,3.5,Inwood North Estates,3969,14549,1964,129,157,,Active,March-31-2019 02:00 PM,March-31-2019 04:00 PM,http://www.redfin.com/TX/Dallas/5051-Forest-Bend-Rd-75244/home/31099566,NTREIS,13976709,N,Y,32.9216638,-96.8205923
MLS Listing,,Single Family Residential,8715 Cortleigh Pl,Dallas,TX,75209,694500,2,2.0,Shore Crest Terrace,1724,10977,1950,130,403,,Active,March-31-2019 01:00 PM,March-31-2019 03:00 PM,http://www.redfin.com/TX/Dallas/8715-Cortleigh-75209/home/30855644,NTREIS,13976041,N,Y,32.8581806,-96.8473072
MLS Listing,,Townhouse,7017 Mistflower Ln,Dallas,TX,75231,609740,3,2.5,Lake Highlands Town Center,2292,4574,2019,131,266,125,Active,,,http://www.redfin.com/TX/Dallas/7017-Mistflower-Ln-75231/home/148161531,NTREIS,13975642,N,Y,32.874438,-96.734512
MLS Listing,,Single Family Residential,7133 Westbrook Ln,Dallas,TX,75214,635000,3,3.0,Mockingbird Meadows,2832,8451,1954,132,224,,Active,,,http://www.redfin.com/TX/Dallas/7133-Westbrook-Ln-75214/home/30823389,NTREIS,13957695,N,Y,32.8470027,-96.738172
MLS Listing,,Vacant Land,12122 Shiremont Dr,Dallas,TX,75230,615000,0,,Shiremont 01,,16030,1960,134,,,Active,,,http://www.redfin.com/TX/Dallas/12122-Shiremont-Dr-75230/home/31018517,NTREIS,13974527,N,Y,32.9143481,-96.7927795
MLS Listing,,Single Family Residential,9332 Mercer Dr,Dallas,TX,75228,650000,4,4.0,Lindenwood Park 01 Instl,3077,10193,1964,135,211,,Active,March-31-2019 01:30 PM,March-31-2019 03:30 PM,http://www.redfin.com/TX/Dallas/9332-Mercer-Dr-75228/home/30998452,NTREIS,13974119,N,Y,32.8198796,-96.6951209
MLS Listing,,Single Family Residential,5714 Glen Heather Dr,Dallas,TX,75252,699988,4,3.5,Prestonwood West Sec One Ph I,3170,13068,1983,141,221,9,Active,,,http://www.redfin.com/TX/Dallas/5714-Glen-Heather-Dr-75252/home/32164691,NTREIS,13970532,N,Y,32.9912851,-96.8102736
MLS Listing,,Single Family Residential,1413 Pine Hurst Dr,Coppell,TX,75019,625000,5,4.5,Fairways At Riverchase,4079,9017,1994,141,153,92,Active,,,http://www.redfin.com/TX/Coppell/1413-Pine-Hurst-Dr-75019/home/31262834,NTREIS,13969744,N,Y,32.9581625,-96.9476903
MLS Listing,,Multi-Family (2-4 Unit),4519 Rusk Ave,Dallas,TX,75204,698000,3,2.5,Laclede Add,2685,6490,2018,141,260,,Active,March-31-2019 01:00 PM,March-31-2019 03:00 PM,http://www.redfin.com/TX/Dallas/4519-Rusk-Ave-75204/unit-A/home/30809526,NTREIS,13963728,N,Y,32.8078843,-96.7851081
MLS Listing,,Condo/Co-op,3510 Turtle Creek Blvd Unit 2C,Dallas,TX,75219,645000,2,1.5,The Claridge Condos,2020,83984,1984,142,319,1379,Active,,,http://www.redfin.com/TX/Dallas/3510-Turtle-Creek-Blvd-75219/unit-2C/home/146130753,NTREIS,13965609,N,Y,32.8092538,-96.8017407
MLS Listing,,Single Family Residential,7007 Joyce Way,Dallas,TX,75225,699000,4,3.5,Windsor Park 03,2987,12458,1966,142,234,,Active,March-31-2019 03:00 PM,March-31-2019 05:00 PM,http://www.redfin.com/TX/Dallas/7007-Joyce-Way-75225/home/30872671,NTREIS,13964023,N,Y,32.8796469,-96.78485
MLS Listing,,Condo/Co-op,5909 Luther Ln #1604,Dallas,TX,75225,638000,2,2.0,Shelton Condo,1847,65993,1983,144,345,1155,Active,March-31-2019 02:00 PM,March-31-2019 04:00 PM,http://www.redfin.com/TX/Dallas/5909-Luther-Ln-75225/unit-1604/home/113617861,NTREIS,13965608,N,Y,32.8638899,-96.8107574
MLS Listing,,Vacant Land,6007 Northhaven Rd,Dallas,TX,75230,649900,0,,Preston-Porsche Estates,,25265,,147,,,Active,,,http://www.redfin.com/TX/Dallas/6007-Northaven-Rd-75230/home/31141305,NTREIS,13966746,N,Y,32.9026244,-96.8036604
MLS Listing,,Single Family Residential,6714 Prosper St,Dallas,TX,75209,600000,4,3.5,Mt Vernon Heights 02,2833,6621,2018,147,212,,Active,,,http://www.redfin.com/TX/Dallas/6714-Prosper-St-75209/home/30855045,NTREIS,13965460,N,Y,32.8401885,-96.8282958
MLS Listing,,Vacant Land,2626 Thomas Ave,Dallas,TX,75204,690000,0,,Simpson & Clarks,,7362,,148,,,Active,,,http://www.redfin.com/TX/Dallas/2626-Thomas-Ave-75204/home/40227565,NTREIS,13966160,N,Y,32.795024,-96.798487
MLS Listing,,Townhouse,7023 Mistflower Ln,Dallas,TX,75231,692031,4,3.5,Lake Highlands Town Center,2829,3093,2019,150,245,133,Active,March-30-2019 01:00 PM,March-30-2019 04:00 PM,http://www.redfin.com/TX/Dallas/7023-Mistflower-Ln-75231/home/147614964,NTREIS,13964763,N,Y,32.874438,-96.734512
MLS Listing,,Single Family Residential,7233 Helsem Bnd,Dallas,TX,75230,699900,3,2.5,Waterford On The Park,3370,6055,1985,154,208,250,Active,,,http://www.redfin.com/TX/Dallas/7233-Helsem-Bend-Cir-75230/home/31020311,NTREIS,13962516,N,Y,32.9197308,-96.7808125
MLS Listing,,Multi-Family (2-4 Unit),4626 Belmont Ave,Dallas,TX,75204,630000,3,2.5,Belmont Park Rev,2633,10454,2018,156,239,,Active,,,http://www.redfin.com/TX/Dallas/4626-Belmont-Ave-75204/home/30809381,NTREIS,13961568,N,Y,32.8099087,-96.7858124
MLS Listing,,Multi-Family (2-4 Unit),4625 WELDON St,Dallas,TX,75204,670000,3,2.5,BELMONT PARK,2553,3920,2018,156,262,,Active,,,http://www.redfin.com/TX/Dallas/4625-Weldon-St-75204/home/147841773,NTREIS,13961508,N,Y,32.8100572,-96.7857124
MLS Listing,,Single Family Residential,9209 Westwind Ct,Dallas,TX,75231,699900,4,5.0,Oak Highlands Estates,4947,12066,1980,157,141,350,Active,,,http://www.redfin.com/TX/Dallas/9209-Westwind-Ct-75231/home/31117449,NTREIS,13960267,N,Y,32.8911045,-96.7456566
MLS Listing,,Multi-Family (2-4 Unit),2314 N Prairie Ave,Dallas,TX,75204,629000,2,2.5,Prairie Place,2484,3354,2018,159,253,,Active,March-30-2019 01:00 PM,March-30-2019 03:00 PM,http://www.redfin.com/TX/Dallas/2314-N-Prairie-Ave-75204/home/147796688,NTREIS,13949444,N,Y,32.8099262,-96.7818907
MLS Listing,,Multi-Family (2-4 Unit),4512 Sycamore St,Dallas,TX,75204,699000,8,8.0,City Dallas Cb 737,5128,9714,1923,161,136,,Active,,,http://www.redfin.com/TX/Dallas/4512-Sycamore-St-75204/home/30793058,NTREIS,13957352,N,Y,32.7988668,-96.7750181
MLS Listing,,Townhouse,2353 Allen St,Dallas,TX,75204,689000,3,3.5,Drexler,2855,2222,2003,161,241,81,Active,March-30-2019 01:00 PM,March-30-2019 03:00 PM,http://www.redfin.com/TX/Dallas/2353-Allen-St-75204/home/32195008,NTREIS,13955250,N,Y,32.796795,-96.7979189
MLS Listing,,Single Family Residential,6438 San Saba,Irving,TX,75039,639000,4,3.5,LA VILLITA PH 1F,3332,6534,2008,164,192,58,Active,March-30-2019 02:00 PM,March-30-2019 04:00 PM,http://www.redfin.com/TX/Irving/6438-San-Saba-75039/home/30778849,NTREIS,13946840,N,Y,32.8981113,-96.9305158
MLS Listing,,Townhouse,381 E Greenbriar Ln,Dallas,TX,75203,694900,3,3.5,Trinity Bluff,2976,653,2019,175,234,165,Active,,,http://www.redfin.com/TX/Dallas/381-E-Greenbriar-Ln-75203/home/32395919,NTREIS,13937148,N,Y,32.7635494,-96.8173663
MLS Listing,,Multi-Family (2-4 Unit),5117 Vickery Blvd,Dallas,TX,75206,649000,3,3.0,Vickery Place Add,2531,4269,2006,176,256,,Active,,,http://www.redfin.com/TX/Dallas/5117-Vickery-Blvd-75206/home/30807630,NTREIS,13939651,N,Y,32.822684,-96.783914
MLS Listing,,Single Family Residential,4332 Gilbert Ave,Dallas,TX,75219,649000,2,3.5,Spencer,3194,3049,2003,176,203,,Active,,,http://www.redfin.com/TX/Dallas/4332-Gilbert-Ave-75219/home/30738972,NTREIS,13940816,N,Y,32.8201655,-96.8093642
MLS Listing,,Vacant Land,4621 Monarch St,Dallas,TX,75204,629900,0,,Alexander Park,,10585,,176,,,Active,,,http://www.redfin.com/TX/Dallas/4621-Monarch-St-75204/home/30792624,NTREIS,13948465,N,Y,32.8066279,-96.7807814
MLS Listing,,Single Family Residential,4207 Melissa Ln,Dallas,TX,75229,687500,4,3.0,Luna Park Estates 01 Instl,3181,18121,1966,176,216,,Active,,,http://www.redfin.com/TX/Dallas/4207-Melissa-Ln-75229/home/30877235,NTREIS,13944620,N,Y,32.8984773,-96.8379055
MLS Listing,,Condo/Co-op,2828 Hood St #801,Dallas,TX,75219,657000,2,2.5,Plaza At Turtle Creek Residence Ph,1932,136473,2000,178,340,1477,Active,,,http://www.redfin.com/TX/Dallas/2828-Hood-St-75219/unit-801/home/32259996,NTREIS,13940124,N,Y,32.8055056,-96.8089307
MLS Listing,,Single Family Residential,6908 Bob O Link Dr,Dallas,TX,75214,659000,3,2.0,North Ridge Estates,2139,11631,1948,178,308,,Active,,,http://www.redfin.com/TX/Dallas/6908-Bob-O-Link-Dr-75214/home/30824556,NTREIS,13946696,N,Y,32.8315721,-96.7424996
MLS Listing,,Townhouse,3324 Blackburn St,Dallas,TX,75204,669000,3,2.5,Portobello Crk 2nd Revision,2822,2788,1997,181,237,310,Active,,,http://www.redfin.com/TX/Dallas/3324-Blackburn-St-75204/home/31122638,NTREIS,13935728,N,Y,32.811155,-96.798426
MLS Listing,,Condo/Co-op,2200 Victory Ave #1707,Dallas,TX,75219,699000,2,2.5,The House Condos,1807,,2007,183,387,1388,Active,,,http://www.redfin.com/TX/Dallas/2200-Victory-Ave-75219/unit-1707/home/30782345,NTREIS,13943819,N,Y,32.7849571,-96.8096512
MLS Listing,,Townhouse,2822 State St,Dallas,TX,75204,675000,3,3.5,Drexler Add,2770,1568,2003,183,244,81,Active,March-31-2019 01:00 PM,March-31-2019 03:00 PM,http://www.redfin.com/TX/Dallas/2822-State-St-75204/home/32194995,NTREIS,13940934,N,Y,32.796748,-96.7983772
MLS Listing,,Condo/Co-op,4500 Roland Ave #606,Highland Park,TX,75219,615000,2,2.5,Park Plaza Condo,2306,40511,1982,183,267,1821,Active,,,http://www.redfin.com/TX/Dallas/4500-Roland-Ave-75219/unit-606/home/32093954,NTREIS,13941188,N,Y,32.8224466,-96.8160161
MLS Listing,,Single Family Residential,6555 Ridgeview Cir,Dallas,TX,75240,674000,4,3.5,Northwood Homes,3109,16988,1960,185,217,,Active,,,http://www.redfin.com/TX/Dallas/6555-Ridgeview-Cir-75240/home/31016199,NTREIS,13931874,N,Y,32.9276702,-96.793177
MLS Listing,,Townhouse,1914 Wickmere Mews,Dallas,TX,75208,600000,2,2.5,Belmont Hotel Ph 02,2089,871,2016,189,287,81,Active,,,http://www.redfin.com/TX/Dallas/1914-Wickmere-Mews-75208/unit-2/home/30773683,NTREIS,13936041,N,Y,32.770469,-96.837892
MLS Listing,,Single Family Residential,2422 Throckmorton,Dallas,TX,75219,699000,4,3.5,Clifton Place 2,3127,,2016,191,224,,Active,,,http://www.redfin.com/TX/Dallas/2422-Throckmorton-St-75219/home/30813791,NTREIS,13938635,N,Y,32.8057174,-96.8177456
MLS Listing,,Condo/Co-op,3401 Lee Pkwy #803,Dallas,TX,75219,655000,2,2.0,Mayfair Turtle Creek Condos,1730,,1998,193,379,1194,Active,,,http://www.redfin.com/TX/Dallas/3401-Lee-Pkwy-75219/unit-803/home/32217886,NTREIS,13937013,N,Y,32.8092977,-96.8046809
MLS Listing,,Condo/Co-op,3310 Fairmount St Unit P1B,Dallas,TX,75201,645000,2,2.5,Park Towers Condo,2613,104108,1964,197,247,2580,Active,,,http://www.redfin.com/TX/Dallas/3310-Fairmount-St-75201/unit-P1B/home/31178999,NTREIS,13934764,N,Y,32.801381,-96.8083876
MLS Listing,,Single Family Residential,3360 Walchard Ct,Dallas,TX,75229,660000,3,2.5,Chapel Downs,2990,5924,2018,197,221,156,Active,,,http://www.redfin.com/TX/Dallas/3360-Walchard-Ct-75229/home/143115381,NTREIS,13933954,N,Y,32.884701,-96.866311
MLS Listing,,Single Family Residential,707 Clermont,Dallas,TX,75223,659000,3,3.0,Hollywood Revised,2536,6534,1941,203,260,,Active,,,http://www.redfin.com/TX/Dallas/707-Clermont-Ave-75223/home/30812843,NTREIS,13926763,N,Y,32.8042096,-96.7428864
MLS Listing,,Single Family Residential,1919 Kessler Heights Ln,Dallas,TX,75208,699000,3,2.5,High Grove,3200,3615,2019,211,218,125,Active,March-30-2019 12:00 PM,March-30-2019 04:00 PM,http://www.redfin.com/TX/Dallas/1919-Kessler-Heights-Ln-75208/home/143837999,NTREIS,13925849,N,Y,32.7516022,-96.850289
MLS Listing,,Townhouse,2857 Shelby Ave,Dallas,TX,75219,640900,3,3.5,Shelby Townhomes,2637,653,2019,213,243,165,Active,,,http://www.redfin.com/TX/Dallas/2857-Shelby-Ave-75219/home/146897751,NTREIS,13924161,N,Y,32.8086136,-96.8112691
MLS Listing,,Single Family Residential,1730 Canal St,Heath,TX,75032,639000,5,5.5,Heath Golf & Yacht Club Ph 1a,4346,12023,2018,215,147,185,Active,March-30-2019 10:00 AM,March-30-2019 06:00 PM,http://www.redfin.com/TX/Heath/1730-Canal-St-75032/home/146884605,NTREIS,13916230,N,Y,32.815928,-96.486411
MLS Listing,,Townhouse,7035 Mistflower Ln,Dallas,TX,75231,685346,4,3.5,Lake Highlands Town Center,3046,,2019,219,225,133,Active,March-30-2019 01:00 PM,March-30-2019 04:00 PM,http://www.redfin.com/TX/Dallas/7035-Mistflower-Ln-75231/home/146850600,NTREIS,13920509,N,Y,32.874438,-96.734512
MLS Listing,,Multi-Family (2-4 Unit),2218 N Carroll Ave,Dallas,TX,75204,624900,3,2.5,Elk Hill,2581,7492,2018,220,242,,Active,,,http://www.redfin.com/TX/Dallas/2218-N-Carroll-Ave-75204/home/30800188,NTREIS,13919494,N,Y,32.806647,-96.7844735
MLS Listing,,Townhouse,5161 Artemesia Ln,Dallas,TX,75209,615926,3,2.5,Oak Park Villas,2111,,2019,221,292,100,Active,March-30-2019 02:00 PM,March-30-2019 04:00 PM,http://www.redfin.com/TX/Dallas/5161-Artemesia-Ln-75209/home/148555208,NTREIS,13918398,N,Y,32.827858,-96.821362
MLS Listing,,Single Family Residential,4019 Wellingshire Ln,Dallas,TX,75220,605000,5,3.5,Wellington On The Creek,3971,6316,1994,221,152,150,Active,March-30-2019 01:00 PM,March-30-2019 03:00 PM,http://www.redfin.com/TX/Dallas/4019-W-Wellingshire-Ln-75220/home/31134706,NTREIS,13905257,N,Y,32.8645179,-96.844323
MLS Listing,,Single Family Residential,6538 Trammel Dr,Dallas,TX,75214,699000,4,4.0,Trammel Drive Add,2900,7449,2018,225,241,,Active,March-31-2019 01:00 PM,March-31-2019 05:00 PM,http://www.redfin.com/TX/Dallas/6538-Trammel-Dr-75214/home/30869175,NTREIS,13906130,N,Y,32.845291,-96.747782
MLS Listing,,Townhouse,7029 Mistflower Ln,Dallas,TX,75231,607495,3,2.5,Lake Highlands Town Center,2292,4574,2019,229,265,125,Active,March-30-2019 01:00 PM,March-30-2019 04:00 PM,http://www.redfin.com/TX/Dallas/7029-Mistflower-Ln-75231/home/146671359,NTREIS,13913191,N,Y,32.874438,-96.734512
MLS Listing,,Single Family Residential,5331 Ellsworth Ave,Dallas,TX,75206,605150,3,2.5,5300 Glencoe Park,1847,,2018,234,328,125,Active,,,http://www.redfin.com/TX/Dallas/5331-Ellsworth-Ave-75206/home/146508111,NTREIS,13909825,N,Y,32.8338797,-96.7775522
MLS Listing,,Single Family Residential,2209 Stone Hollow Dr,Rowlett,TX,75088,670000,4,3.0,Stone Hollow Add,3610,19994,2012,240,186,267,Active,,,http://www.redfin.com/TX/Rowlett/2209-Stone-Hollow-Dr-75088/home/33880735,NTREIS,13905357,N,Y,32.883648,-96.5178504
MLS Listing,,Single Family Residential,9910 Ontario Ln,Dallas,TX,75220,629000,4,3.0,Glenridge Estates,2471,9540,1955,247,255,,Active,March-31-2019 01:00 PM,March-31-2019 04:00 PM,http://www.redfin.com/TX/Dallas/9910-Ontario-Ln-75220/home/30910265,NTREIS,13899994,N,Y,32.8783662,-96.8413603
MLS Listing,,Single Family Residential,4334 Boca Bay Dr,Dallas,TX,75244,679000,4,3.5,Forest Glen Sec 04,3556,13199,1971,259,191,,Active,,,http://www.redfin.com/TX/Dallas/4334-Boca-Bay-Dr-75244/home/31097150,NTREIS,13889251,N,Y,32.9161544,-96.8368168
MLS Listing,,Single Family Residential,4435 Northaven Rd,Dallas,TX,75229,675000,4,3.0,Hockaday Square 07,3410,17163,1973,267,198,,Active,,,http://www.redfin.com/TX/Dallas/4435-Northaven-Rd-75229/home/30927290,NTREIS,13879444,N,Y,32.9025324,-96.8322735
MLS Listing,,Townhouse,7047 Mistflower Ln,Dallas,TX,75231,622569,3,2.5,Lake Highlands Town Center,2284,,2019,267,273,125,Active,,,http://www.redfin.com/TX/Dallas/7047-Mistflower-Ln-75231/home/146167815,NTREIS,13884455,N,Y,32.874438,-96.734512
MLS Listing,,Single Family Residential,9035 Santa Clara Dr,Dallas,TX,75218,685000,3,2.0,Broadvu,3042,8407,2018,270,225,,Active,,,http://www.redfin.com/TX/Dallas/9035-Santa-Clara-Dr-75218/home/30861463,NTREIS,13882562,N,Y,32.8246035,-96.7050098
MLS Listing,,Townhouse,3767 Panalero Ln,Dallas,TX,75209,672244,3,3.0,Oak Park Gardens,2700,,2019,283,249,100,Active,March-30-2019 02:00 PM,March-30-2019 04:00 PM,http://www.redfin.com/TX/Dallas/3767-Panalero-Ln-75209/home/146078938,NTREIS,13871705,N,Y,32.827858,-96.821362
MLS Listing,,Single Family Residential,4034 Highgrove Dr,Dallas,TX,75220,619000,3,3.0,Midway  Hollow,2795,,1950,287,221,,Active,,,http://www.redfin.com/TX/Dallas/4034-Highgrove-Dr-75220/home/30909590,NTREIS,13866908,N,Y,32.8687107,-96.8435193
MLS Listing,,Single Family Residential,4207 Valley Ridge Rd,Dallas,TX,75220,674900,3,2.0,Meadowood Estates,3600,19210,1952,294,187,,Active,,,http://www.redfin.com/TX/Dallas/4207-Valley-Ridge-Rd-75220/home/30879494,NTREIS,13853605,N,Y,32.8770653,-96.8382456
MLS Listing,,Condo/Co-op,4500 Roland Ave #202,Highland Park,TX,75219,649000,2,2.5,Park Plaza Condo,2847,40511,1982,296,228,2245,Active,,,http://www.redfin.com/TX/Dallas/4500-Roland-Ave-75219/unit-202/home/32093906,NTREIS,13861023,N,Y,32.8224466,-96.8160161
MLS Listing,,Single Family Residential,2802 Lee,Dallas,TX,75206,699000,3,3.5,Alcott Lee Addition,2444,6142,2018,312,286,,Active,,,http://www.redfin.com/TX/Dallas/2802-Lee-St-75206/unit-5A/home/112845354,NTREIS,13805765,N,Y,32.8161414,-96.7857987
MLS Listing,,Condo/Co-op,4120 Gilbert Ave Unit A,Dallas,TX,75219,646700,2,2.5,Bowser & Lemmons Oak Lawn,2230,9104,2018,332,290,271,Active,,,http://www.redfin.com/TX/Dallas/4120-Gilbert-Ave-75219/unit-A/home/145549957,NTREIS,13833086,N,Y,32.8178998,-96.8066949
MLS Listing,,Townhouse,4350 Westside Dr,Highland Park,TX,75209,699000,2,2.5,Highland Park West,2766,4530,1981,334,253,325,Active,,,http://www.redfin.com/TX/Dallas/4350-Westside-Dr-75209/home/32071510,NTREIS,13820480,N,Y,32.824002,-96.816995
MLS Listing,,Single Family Residential,5368 Winton Ave,Dallas,TX,75206,690375,4,2.5,5300 Glencoe Park,2553,,2018,339,270,125,Active,,,http://www.redfin.com/TX/Dallas/5368-Winton-Ave-75206/home/145498560,NTREIS,13826250,N,Y,32.835296,-96.776796
MLS Listing,,Vacant Land,5123 W Amherst Ave,Dallas,TX,75209,600000,0,,Bluffview,,6970,,341,,,Active,,,http://www.redfin.com/TX/Dallas/5123-W-Amherst-Ave-75209/home/30854731,NTREIS,13824599,N,Y,32.8524433,-96.8231042
MLS Listing,,Multi-Family (2-4 Unit),4502 Capitol Ave,Dallas,TX,75204,649000,4,3.5,Golf Park,2710,7928,2019,355,239,,Active,,,http://www.redfin.com/TX/Dallas/4502-Capitol-Ave-75204/home/30809492,NTREIS,13801495,N,Y,32.8078793,-96.7860216
MLS Listing,,Single Family Residential,18024 Rock Branch Dr,Dallas,TX,75287,619000,4,3.5,Estates Of Bent Tree West,3207,9148,1993,714,193,21,Active,,,http://www.redfin.com/TX/Dallas/18024-Rock-Branch-Dr-75287/home/32081966,NTREIS,13578862,N,Y,32.9951497,-96.8313105
MLS Listing,,Vacant Land,5807 Royal Ln,Dallas,TX,75230,650000,0,,Sheraton Estates,,17163,,977,,,Active,,,http://www.redfin.com/TX/Dallas/5807-Royal-Ln-75230/home/30876923,NTREIS,13430377,N,Y,32.895139,-96.808925
New Construction Home,,Single Family Residential,209 N Polk St,Dallas,TX,75208,624900,3,3.5,Winnetka Estates and Bungalows on Polk,2556,,2019,77,244,,Active,,,http://www.redfin.com/TX/Dallas/209-N-Polk-St-75208/home/148707422,NewHomeFeed,710173,N,Y,32.746655686661,-96.839554734324
New Construction Home,,Single Family Residential,8012 Sarahville Dr,Dallas,TX,75252,661000,5,4.5,University Place,3534,,2018,116,187,,Active,,,http://www.redfin.com/TX/Dallas/8012-Sarahville-Dr-75252/home/148428292,NewHomeSource.com,1555010,N,Y,32.983395,-96.767431
New Construction Home,,Single Family Residential,8052 Sarahville Dr,Dallas,TX,75252,606000,4,3.5,University Place,3033,,2018,130,200,,Active,,,http://www.redfin.com/TX/Dallas/8052-Sarahville-Dr-75252/home/147614725,NewHomeSource.com,1547821,N,Y,32.983204,-96.766143
New Construction Plan,,Single Family Residential,Home I,Dallas,TX,75206,677075,4,2.0,5300 Glencoe Park - Dallas,2553,,,,265,,Active,,,http://www.redfin.com/TX/Dallas/5300-Glencoe-Park-Dallas/Home-I/home/145137600,NewHomeSource.com,Plan-81571097,N,Y,32.834437,-96.777641
New Construction Plan,,Single Family Residential,Home E,Dallas,TX,75230,691500,3,3.5,Verbena - Dallas,2565,,,,270,,Active,,,http://www.redfin.com/TX/Dallas/Verbena-Dallas/Home-E/home/160475854,NewHomeSource.com,Plan-81610364,N,Y,32.90036,-96.774779
New Construction Plan,,Single Family Residential,Home F2,Dallas,TX,75206,694610,4,3.0,5300 Glencoe Park - Dallas,2630,,,,264,,Active,,,http://www.redfin.com/TX/Dallas/5300-Glencoe-Park-Dallas/Home-F2/home/144945425,NewHomeSource.com,Plan-81571019,N,Y,32.834437,-96.777641
New Construction Plan,,Single Family Residential,Cordella,Dallas,TX,75209,608990,4,3.5,Oak Park Gardens,2746,,,,222,,Active,,,http://www.redfin.com/TX/Dallas/Oak-Park-Gardens/Cordella/home/113816087,NewHomeSource.com,Plan-81226687,N,Y,32.8270216,-96.8206457
New Construction Plan,,Single Family Residential,Bayside,Dallas,TX,75252,650990,5,4.5,University Place,4319,,,,151,,Active,,,http://www.redfin.com/TX/Dallas/University-Place/Bayside/home/148564347,NewHomeSource.com,Plan-81572487,N,Y,32.992538,-96.761867
New Construction Plan,,Single Family Residential,Newcastle,Dallas,TX,75252,638990,5,4.5,University Place,4150,,,,154,,Active,,,http://www.redfin.com/TX/Dallas/University-Place/Newcastle/home/148564348,NewHomeSource.com,Plan-81572486,N,Y,32.992538,-96.761867
New Construction Plan,,Single Family Residential,Haesley,Dallas,TX,75252,642990,5,4.5,University Place,4092,,,,157,,Active,,,http://www.redfin.com/TX/Dallas/University-Place/Haesley/home/148564349,NewHomeSource.com,Plan-81572485,N,Y,32.992538,-96.761867
New Construction Plan,,Single Family Residential,Victoria,Dallas,TX,75252,631990,5,4.5,University Place,4045,,,,156,,Active,,,http://www.redfin.com/TX/Dallas/University-Place/Victoria/home/148564350,NewHomeSource.com,Plan-81572484,N,Y,32.992538,-96.761867
New Construction Plan,,Single Family Residential,Millbrae,Dallas,TX,75231,604990,5,3.0,Reserve at White Rock,2861,,,,211,,Active,,,http://www.redfin.com/TX/Dallas/Reserve-at-White-Rock/Millbrae/home/147041265,NewHomeSource.com,Plan-71549154,N,Y,32.883767,-96.734267
New Construction Plan,,Single Family Residential,Home G,Dallas,TX,75206,697545,4,3.0,5300 Glencoe Park - Dallas,2630,,,,265,,Active,,,http://www.redfin.com/TX/Dallas/5300-Glencoe-Park-Dallas/Home-G/home/144945424,NewHomeSource.com,Plan-71571059,N,Y,32.834437,-96.777641
New Construction Plan,,Single Family Residential,The Heights,Dallas,TX,75208,624900,3,3.5,Winnetka Estates and Bungalows on Polk,2556,,,,244,,Active,,,http://www.redfin.com/TX/Dallas/Winnetka-Estates-and-Bungalows-on-Polk/The-Heights/home/148707419,NewHomeFeed,Plan-506620,N,Y,32.746520923723,-96.839535558861
