SALE TYPE,SOLD DATE,PROPERTY TYPE,ADDRESS,CITY,STATE OR PROVINCE,ZIP OR POSTAL CODE,PRICE,BEDS,BATHS,LOCATION,SQUARE FEET,LOT SIZE,YEAR BUILT,DAYS ON MARKET,$/SQUARE FEET,HOA/MONTH,STATUS,NEXT OPEN HOUSE START TIME,NEXT OPEN HOUSE END TIME,URL (SEE http://www.redfin.com/buy-a-home/comparative-market-analysis FOR INFO ON PRICING),SOURCE,MLS#,FAVORITE,INTERESTED,LATITUDE,LONGITUDE
MLS Listing,,Townhouse,1516 Pecos St,Dallas,TX,75204,529000,3,2.5,Bryan Heights Ph 03,2804,2134,2001,1,189,,Active,March-30-2019 12:00 PM,March-30-2019 02:00 PM,http://www.redfin.com/TX/Dallas/1516-Pecos-St-75204/home/32212256,NTREIS,14053912,N,Y,32.7963454,-96.7850786
MLS Listing,,Single Family Residential,6023 Highplace Cir,Dallas,TX,75254,515000,3,3.0,Regency Place,3059,5837,1980,8,168,55,Active,March-31-2019 02:00 PM,March-31-2019 04:00 PM,http://www.redfin.com/TX/Dallas/6023-Highplace-Cir-75254/home/31073601,NTREIS,14040153,N,Y,32.9416931,-96.8024048
MLS Listing,,Condo/Co-op,6029 Hillcrest Ave Unit B2,University Park,TX,75205,530000,3,2.0,New Highland Condo,1940,18557,1980,12,273,320,Active,,,http://www.redfin.com/TX/Dallas/6029-Hillcrest-Ave-75205/unit-B2/home/32091856,NTREIS,14044990,N,Y,32.8401306,-96.7875033
MLS Listing,,Single Family Residential,10554 Creekmere Dr,Dallas,TX,75218,500000,3,2.5,Lochwood,2200,10498,1964,52,227,,Active,March-30-2019 01:00 PM,March-30-2019 03:00 PM,http://www.redfin.com/TX/Dallas/10554-Creekmere-Dr-75218/home/30863230,NTREIS,14015047,N,Y,32.8509646,-96.697043
MLS Listing,,Single Family Residential,6910 Old Preston Pl,Dallas,TX,75252,509900,5,3.5,Old Preston Place Ph One,3437,7841,1991,1,148,,Active,,,http://www.redfin.com/TX/Dallas/6910-Old-Preston-Pl-75252/home/31883116,NTREIS,14054633,N,Y,32.9955692,-96.7939302
MLS Listing,,Single Family Residential,9256 Whitehurst Dr,Dallas,TX,75243,530000,3,2.5,Forest Meadows,2940,10367,1972,1,180,,Active,March-31-2019 01:00 PM,March-31-2019 03:00 PM,http://www.redfin.com/TX/Dallas/9256-Whitehurst-Dr-75243/home/31071049,NTREIS,14053058,N,Y,32.900165,-96.7422487
MLS Listing,,Single Family Residential,230 Classen Dr,Dallas,TX,75218,525000,3,2.0,Lake Highlands Estates,2243,9365,1952,1,234,,Active,March-31-2019 02:00 PM,March-31-2019 04:00 PM,http://www.redfin.com/TX/Dallas/230-Classen-Dr-75218/home/30908690,NTREIS,14051723,N,Y,32.8593261,-96.7087855
MLS Listing,,Townhouse,15859 Spectrum Dr,Addison,TX,75001,504900,3,3.5,Meridian Square,2181,1437,2015,2,231,150,Active,,,http://www.redfin.com/TX/Addison/15859-Spectrum-Dr-75001/home/40149192,NTREIS,14050478,N,Y,32.965443,-96.824142
MLS Listing,,Single Family Residential,7118 Debbe Dr,Dallas,TX,75252,550000,4,3.5,Highlands of Mckamy #5,3442,10890,1984,2,160,,Active,March-31-2019 02:00 PM,March-31-2019 04:00 PM,http://www.redfin.com/TX/Dallas/7118-Debbe-Dr-75252/home/32161522,NTREIS,14046304,N,Y,32.9935631,-96.7829045
MLS Listing,,Single Family Residential,634 Promontory Ln,Dallas,TX,75208,504981,3,2.5,Reserve at Kessler Heights,2042,3223,2019,2,247,125,Active,,,http://www.redfin.com/TX/Dallas/634-Promontory-LN-75208/home/160805883,NTREIS,14053469,N,Y,32.75163,-96.852444
MLS Listing,,Single Family Residential,5517 Merrimac Ave,Dallas,TX,75206,549000,3,2.0,Greenland Hills Sec,2340,7797,1929,2,235,,Active,March-30-2019 12:00 PM,March-30-2019 02:00 PM,http://www.redfin.com/TX/Dallas/5517-Merrimac-Ave-75206/home/30812669,NTREIS,14046590,N,Y,32.8275815,-96.7737631
MLS Listing,,Single Family Residential,5102 Goodwin Ave,Dallas,TX,75206,515000,3,2.0,Vickery Place,2150,8015,1940,2,240,,Active,,,http://www.redfin.com/TX/Dallas/5102-Goodwin-Ave-75206/home/30807657,NTREIS,14053203,N,Y,32.8232304,-96.7844803
MLS Listing,,Single Family Residential,12455 High Meadow Dr,Dallas,TX,75244,550000,3,2.0,Meadow Park Inst 03 Rev,2732,10977,1965,2,201,,Active,March-31-2019 02:00 PM,March-31-2019 04:00 PM,http://www.redfin.com/TX/Dallas/12455-High-Meadow-Dr-75244/home/31094413,NTREIS,14049578,N,Y,32.9160396,-96.8533175
MLS Listing,,Single Family Residential,6215 TWIN OAKS Cir,Dallas,TX,75240,549900,3,3.0,COTERIE 2,3875,4879,1979,2,142,50,Active,,,http://www.redfin.com/TX/Dallas/6215-Twin-Oaks-Cir-75240/home/31017220,NTREIS,14052508,N,Y,32.926576,-96.798987
MLS Listing,,Single Family Residential,10265 Sherbrook Ln,Dallas,TX,75229,510000,4,2.5,Walnut Hill Manor,2502,16379,1956,3,204,,Active,,,http://www.redfin.com/TX/Dallas/10265-Sherbrook-Ln-75229/home/30929131,NTREIS,14051043,N,Y,32.8858541,-96.8478939
MLS Listing,,Single Family Residential,5851 Preston Fairways Dr,Dallas,TX,75252,519000,3,2.5,Preston Trails Fairways Ph I,3075,6534,1991,3,169,67,Active,March-31-2019 02:00 PM,March-31-2019 04:00 PM,http://www.redfin.com/TX/Dallas/5851-Preston-Fairways-Dr-75252/home/32173750,NTREIS,14052439,N,Y,32.9871716,-96.8070088
MLS Listing,,Condo/Co-op,3421 Normandy #9,University Park,TX,75205,535000,3,3.5,,1704,4356,2006,3,314,,Active,,,http://www.redfin.com/TX/Dallas/3421-Normandy-Ave-75205/unit-9/home/30787137,NTREIS,14052392,N,Y,32.8385828,-96.7876591
MLS Listing,,Townhouse,5171 Garrett Field Ct,Dallas,TX,75206,517500,3,4.5,Villas of Garrett Ave,2069,1742,2015,4,250,150,Active,,,http://www.redfin.com/TX/Dallas/5171-Garrett-Field-Ct-75206/home/103777022,NTREIS,14051512,N,Y,32.8124112,-96.7786306
MLS Listing,,Single Family Residential,5822 Monticello Ave,Dallas,TX,75206,548000,3,2.0,Greenville Crest,1641,7100,1926,5,334,,Active,,,http://www.redfin.com/TX/Dallas/5822-Monticello-Ave-75206/home/30811616,NTREIS,14048731,N,Y,32.8267451,-96.7669235
MLS Listing,,Condo/Co-op,6126 Averill Way Unit 105W,Dallas,TX,75225,500000,2,2.5,Imperial House Condo,2134,100711,1964,8,234,1042,Active,,,http://www.redfin.com/TX/Dallas/6126-Averill-Way-75225/unit-105W/home/30873773,NTREIS,14048808,N,Y,32.8659422,-96.8017661
MLS Listing,,Townhouse,732 Sid Rich Dr,Irving,TX,75039,549900,3,3.5,Amli Las Colinas Urban Center,2435,1307,2018,9,226,138,Active,,,http://www.redfin.com/TX/Irving/732-Sid-Rich-Dr-75039/home/52060291,NTREIS,14046899,N,Y,32.862267,-96.92721
MLS Listing,,Single Family Residential,10410 Country Club Dr,Dallas,TX,75218,549900,3,2.0,Bel Aire Estates 1,2022,14985,2008,11,272,,Active,,,http://www.redfin.com/TX/Dallas/10410-Country-Club-Dr-75218/home/31022349,NTREIS,14045321,N,Y,32.8574263,-96.7016812
MLS Listing,,Single Family Residential,1519 Hickory St,Dallas,TX,75215,545000,3,3.0,Middleton Bros,1783,,2019,11,306,,Active,March-30-2019 01:00 PM,March-30-2019 02:30 PM,http://www.redfin.com/TX/Dallas/1519-Hickory-St-75215/home/160472226,NTREIS,14046533,N,Y,32.7689648,-96.7876607
MLS Listing,,Townhouse,1427 Hubert,Dallas,TX,75206,529000,2,2.5,Hubert Townhomes,2200,,2018,11,240,50,Active,,,http://www.redfin.com/TX/Dallas/1427-Hubert-St-75206/home/160705227,NTREIS,14046368,N,Y,32.8083091,-96.7671032
MLS Listing,,Townhouse,3930 Bowser Ave #5,Dallas,TX,75219,525000,2,2.5,Thirty9thirty Condos,1825,15987,2008,12,288,330,Active,March-31-2019 01:00 PM,March-31-2019 03:00 PM,http://www.redfin.com/TX/Dallas/3930-Bowser-Ave-75219/unit-5/home/30799919,NTREIS,14045008,N,Y,32.8140145,-96.8059534
MLS Listing,,Condo/Co-op,3321 Rosedale Ave #2,University Park,TX,75205,535000,3,3.5,3321 Rosedale,1800,7405,2004,12,297,382,Active,,,http://www.redfin.com/TX/Dallas/3321-Rosedale-Ave-75205/unit-2/home/30758357,NTREIS,14044094,N,Y,32.8474569,-96.7853016
MLS Listing,,Single Family Residential,8218 San Cristobal Dr,Dallas,TX,75218,548900,4,3.0,Forest Hills Rev,2900,11631,1965,12,189,,Active,,,http://www.redfin.com/TX/Dallas/8218-San-Cristobal-Dr-75218/home/30860667,NTREIS,14043650,N,Y,32.8095121,-96.7142187
MLS Listing,,Multi-Family (2-4 Unit),4628 Virginia Ave,Dallas,TX,75204,549000,3,3.5,Dicksons,2333,,2019,15,235,,Active,,,http://www.redfin.com/TX/Dallas/4628-Virginia-Ave-75204/home/160694585,NTREIS,14043610,N,Y,32.8028276,-96.7760815
MLS Listing,,Single Family Residential,6136 Brandeis Ln,Dallas,TX,75214,515000,3,2.5,Caruth Mdws 02 Instl Add,2375,10019,1962,15,217,,Active,,,http://www.redfin.com/TX/Dallas/6136-Brandeis-Ln-75214/home/30867257,NTREIS,14025175,N,Y,32.8447327,-96.7591228
MLS Listing,,Single Family Residential,6547 Brook Lake Dr,Dallas,TX,75248,539000,3,3.0,Prestonwood,3397,6360,1983,16,159,,Active,March-31-2019 02:00 PM,March-31-2019 04:00 PM,http://www.redfin.com/TX/Dallas/6547-Brook-Lake-Dr-75248/home/31111574,NTREIS,14043401,N,Y,32.9669432,-96.7940349
MLS Listing,,Single Family Residential,10259 Gooding Dr,Dallas,TX,75229,535000,3,2.5,Midway Hills,2133,14854,1953,16,251,,Active,,,http://www.redfin.com/TX/Dallas/10259-Gooding-Dr-75229/home/30929067,NTREIS,14041886,N,Y,32.8864835,-96.8436218
MLS Listing,,Single Family Residential,5830 Forest Ln,Dallas,TX,75230,549900,4,2.5,Inwood Road Estates,2953,16291,1956,16,186,,Active,,,http://www.redfin.com/TX/Dallas/5830-Forest-Ln-75230/home/30925531,NTREIS,14043112,N,Y,32.9091253,-96.807825
MLS Listing,,Townhouse,2492 Worthington St,Dallas,TX,75204,548000,2,2.5,Worthington Corners,1913,1699,2003,16,286,81,Active,March-31-2019 01:00 PM,March-31-2019 03:00 PM,http://www.redfin.com/TX/Dallas/2492-Worthington-St-75204/home/30730363,NTREIS,14042208,N,Y,32.797408,-96.799366
MLS Listing,,Single Family Residential,1608 S Polk St,Dallas,TX,75224,515000,9,4.0,Cedar Heights Acreage,4417,7057,1940,16,117,,Active,,,http://www.redfin.com/TX/Dallas/1608-S-Polk-St-75224/home/30857926,NTREIS,14042751,N,Y,32.7296501,-96.8397271
MLS Listing,,Condo/Co-op,425 W 9th St #102,Dallas,TX,75208,549000,3,3.0,DALLAS LAND AND LOAN 2,2100,5576,2019,17,261,199,Active,,,http://www.redfin.com/TX/Dallas/425-W-9th-St-75208/unit-102/home/160678555,NTREIS,14041652,N,Y,32.7465872,-96.8294321
MLS Listing,,Single Family Residential,18005 Lake Ray Hubbard Dr,Forney,TX,75126,539691,5,4.5,Travis Ranch Marina,3229,6534,2019,17,167,63,Active,,,http://www.redfin.com/TX/Forney/18005-Lake-Ray-Hubbard-Dr-75126/home/147851044,NTREIS,14042550,N,Y,32.807478,-96.489108
MLS Listing,,Single Family Residential,18011 Lake Ray Hubbard Dr,Forney,TX,75126,529427,4,4.5,Travis Ranch Marina,3263,5184,2019,17,162,63,Active,,,http://www.redfin.com/TX/Forney/18011-Lake-Ray-Hubbard-Dr-75126/home/147851037,NTREIS,14042498,N,Y,32.807478,-96.489108
MLS Listing,,Single Family Residential,18007 Lake Ray Hubbard Dr,Forney,TX,75126,545590,4,3.5,Travis Ranch Marina,3357,5227,2019,17,163,63,Active,,,http://www.redfin.com/TX/Forney/18007-Lake-Ray-Hubbard-Dr-75126/home/147851035,NTREIS,14042474,N,Y,32.807478,-96.489108
MLS Listing,,Single Family Residential,5212 Beckington Ln,Dallas,TX,75287,549900,5,3.5,Oaktree Ph One,3667,8276,1991,17,150,121,Active,March-31-2019 02:00 PM,March-31-2019 04:00 PM,http://www.redfin.com/TX/Dallas/5212-Beckington-Ln-75287/home/32074217,NTREIS,14037365,N,Y,33.0004307,-96.8198561
MLS Listing,,Single Family Residential,7301 Hundley Blvd,Dallas,TX,75231,522000,3,2.0,Alexanders Village,2473,8973,1981,19,211,,Active,March-30-2019 02:00 PM,March-30-2019 04:00 PM,http://www.redfin.com/TX/Dallas/7301-Hundley-Blvd-75231/home/31067567,NTREIS,14039246,N,Y,32.8814803,-96.7436495
MLS Listing,,Single Family Residential,402 Point Royal Dr,Rowlett,TX,75087,524900,5,4.0,Point Royal,3627,13504,1965,21,145,,Active,March-30-2019 12:00 PM,March-30-2019 04:00 PM,http://www.redfin.com/TX/Rockwall/402-Point-Royal-Dr-75087/home/33918422,NTREIS,14039796,N,Y,32.9124767,-96.5052472
MLS Listing,,Single Family Residential,8629 Thorbrush Pl,Dallas,TX,75238,529000,3,2.5,Villas of Lake Highlands 2,2841,3093,2016,22,186,121,Active,,,http://www.redfin.com/TX/Dallas/8629-Thorbrush-Pl-75238/home/110134960,NTREIS,14038503,N,Y,32.866559,-96.7011455
MLS Listing,,Single Family Residential,17252 Yellow Bells Dr,Dallas,TX,75252,505590,3,2.0,University Place,2197,5750,2019,22,230,54,Active,,,http://www.redfin.com/TX/Dallas/17252-Yellow-Bells-Dr-Unknown/home/160500535,NTREIS,14038795,N,Y,32.991617,-96.766435
MLS Listing,,Single Family Residential,6510 Copper Creek Dr,Dallas,TX,75248,550000,4,3.5,Prestonwood,3248,8538,1980,22,169,,Active,,,http://www.redfin.com/TX/Dallas/6510-Copper-Creek-Dr-75248/home/31111953,NTREIS,14038195,N,Y,32.9681312,-96.7951438
MLS Listing,,Single Family Residential,6639 Camille Ave,Dallas,TX,75252,525000,4,3.0,Preston Highlands #5,3062,7841,1996,22,171,,Active,,,http://www.redfin.com/TX/Dallas/6639-Camille-Ave-75252/home/32081799,NTREIS,14038678,N,Y,33.0002317,-96.787507
MLS Listing,,Single Family Residential,9922 Angora St,Dallas,TX,75218,515000,3,2.5,Casa Linda Estates,2042,18339,1948,23,252,,Active,,,http://www.redfin.com/TX/Dallas/9922-Angora-St-75218/home/30861658,NTREIS,14038575,N,Y,32.8371313,-96.6965416
MLS Listing,,Townhouse,4123 Travis St,Dallas,TX,75204,510000,2,2.5,Parkwood Twnhms,2030,1699,1997,23,251,375,Active,,,http://www.redfin.com/TX/Dallas/4123-Travis-St-75204/home/31124127,NTREIS,14038182,N,Y,32.8158898,-96.7945513
MLS Listing,,Townhouse,4236 Holland Ave,Dallas,TX,75219,539900,3,3.5,Holland Ave Sec 03,2420,1786,2006,23,223,83,Active,,,http://www.redfin.com/TX/Dallas/4236-Holland-Ave-75219/home/30763304,NTREIS,14038016,N,Y,32.818348,-96.809021
MLS Listing,,Single Family Residential,8022 Copper Way,Dallas,TX,75080,505000,4,3.5,University Place,3117,,2019,23,162,205,Active,,,http://www.redfin.com/TX/Dallas/8022-Copper-Way-75252/home/148702258,NTREIS,14037903,N,Y,32.983187,-96.764469
MLS Listing,,Condo/Co-op,3180 Carmel St #206,Dallas,TX,75204,549000,2,2.5,3170 CARMEL CONDO AMEND,2232,,2018,23,246,250,Active,,,http://www.redfin.com/TX/Dallas/3180-Carmel-St-75204/unit-206/home/144906009,NTREIS,14036986,N,Y,32.7916281,-96.7863867
MLS Listing,,Single Family Residential,1868 Stevens Bluff Ln,Dallas,TX,75208,539000,3,3.5,High Grove at West Kessler Heights 1,2260,2439,2016,23,238,108,Active,,,http://www.redfin.com/TX/Dallas/1868-Stevens-Bluff-Ln-75208/home/112387906,NTREIS,14035103,N,Y,32.7513185,-96.8494039
MLS Listing,,Single Family Residential,5246 Miller Ave,Dallas,TX,75206,549000,3,2.0,Vickery Park,1538,8015,1993,24,357,,Active,March-31-2019 03:30 PM,March-31-2019 05:00 PM,http://www.redfin.com/TX/Dallas/5246-Miller-Ave-75206/home/30808315,NTREIS,14037428,N,Y,32.8210365,-96.780415
MLS Listing,,Multi-Family (2-4 Unit),4705 Manett St,Dallas,TX,75204,540000,3,2.5,Rick & Hurts North Fitzhugh Ave,1950,3006,2017,24,277,,Active,,,http://www.redfin.com/TX/Dallas/4705-Manett-St-75204/home/30809161,NTREIS,14036793,N,Y,32.811442,-96.785695
MLS Listing,,Single Family Residential,7865 Minglewood Ln,Dallas,TX,75231,530500,3,3.5,Merion at Midtown Park,2410,2309,2019,24,220,126,Active,,,http://www.redfin.com/TX/Dallas/7865-Minglewood-Ln-75231/home/143838111,NTREIS,14037182,N,Y,32.889969,-96.76163
MLS Listing,,Single Family Residential,9516 Alta Mira Dr,Dallas,TX,75218,530000,4,3.0,Casa Linda Estates,2792,39552,1952,24,190,,Active,,,http://www.redfin.com/TX/Dallas/9516-Alta-Mira-Dr-75218/home/30861317,NTREIS,14026807,N,Y,32.8258502,-96.6957922
MLS Listing,,Single Family Residential,1320 Kings Hwy,Dallas,TX,75208,500000,5,2.0,Oak Cliff Annex,2200,11238,1924,25,227,,Active,,,http://www.redfin.com/TX/Dallas/1320-Kings-Hwy-75208/home/30831108,NTREIS,14036558,N,Y,32.7524114,-96.8433286
MLS Listing,,Condo/Co-op,2220 Canton St #308,Dallas,TX,75201,520000,2,2.0,Canton Loft 2220,2296,41774,1925,25,226,975,Active,March-31-2019 12:00 PM,March-31-2019 02:00 PM,http://www.redfin.com/TX/Dallas/2220-Canton-St-75201/unit-308/home/143707850,NTREIS,14035872,N,Y,32.7804168,-96.7886687
MLS Listing,,Single Family Residential,8275 Nunley,Dallas,TX,75231,538683,3,2.5,Merion at Midtown Park,1883,4356,2019,25,286,121,Active,,,http://www.redfin.com/TX/Dallas/8275-Nunley-Ln-75231/home/143838078,NTREIS,14035839,N,Y,32.889414,-96.761286
MLS Listing,,Single Family Residential,8257 Nunley,Dallas,TX,75231,528303,3,2.5,Merion at Midtown Park,1859,4356,2019,25,284,121,Active,,,http://www.redfin.com/TX/Dallas/8257-Nunley-Ln-75231/home/143838081,NTREIS,14035834,N,Y,32.889414,-96.761286
MLS Listing,,Single Family Residential,4332 Royal Ridge Dr,Dallas,TX,75229,525000,4,3.0,Royal Ridge Add,2267,10629,1967,25,232,,Active,,,http://www.redfin.com/TX/Dallas/4332-Royal-Ridge-Dr-75229/home/30878296,NTREIS,14032734,N,Y,32.8891882,-96.8346485
MLS Listing,,Vacant Land,5931 Ross Ave,Dallas,TX,75206,525000,0,,Robert Ray City Bl 1877,,6970,1930,26,,,Active,,,http://www.redfin.com/TX/Dallas/5931-Ross-Ave-75206/home/30805839,NTREIS,14035335,N,Y,32.8113946,-96.7656477
MLS Listing,,Single Family Residential,7519 Maribeth Dr,Dallas,TX,75252,534900,5,4.0,Villages At Frankford Ph III,3876,8276,1998,26,138,50,Active,March-31-2019 01:00 PM,March-31-2019 03:00 PM,http://www.redfin.com/TX/Dallas/7519-Maribeth-Dr-75252/home/32266099,NTREIS,14035076,N,Y,32.9935931,-96.774286
MLS Listing,,Condo/Co-op,5200 Keller Springs Rd #1522,Dallas,TX,75248,515000,2,2.0,Bonaventure Condo,2006,331012,1981,26,257,1000,Active,,,http://www.redfin.com/TX/Dallas/5200-Keller-Springs-Rd-75248/unit-1522/home/31129178,NTREIS,14029880,N,Y,32.9683918,-96.8197626
MLS Listing,,Condo/Co-op,1711 Mccoy St #108,Dallas,TX,75204,547000,2,2.5,Murname,2189,27704,2019,27,250,169,Active,March-30-2019 01:00 PM,March-30-2019 03:00 PM,http://www.redfin.com/TX/Dallas/1711-Mccoy-St-75204/unit-108/home/160584578,NTREIS,14034130,N,Y,32.7964928,-96.7886887
MLS Listing,,Single Family Residential,3318 Augusta Blvd,Rockwall,TX,75087,529900,3,2.5,Lakeside Village #2,2585,2265,2016,28,205,129,Active,,,http://www.redfin.com/TX/Rockwall/3318-Augusta-Blvd-75087/home/143992114,NTREIS,14033776,N,Y,32.8993592,-96.4749682
MLS Listing,,Single Family Residential,4326 Capitol Ave,Dallas,TX,75204,520000,2,1.0,Golf Park,1170,6665,1943,29,444,,Active,,,http://www.redfin.com/TX/Dallas/4326-Capitol-Ave-75204/home/30792876,NTREIS,14034079,N,Y,32.8069786,-96.7870572
MLS Listing,,Single Family Residential,4322 Capitol Ave,Dallas,TX,75204,520000,2,1.0,Golf Park,1317,6665,1925,29,395,,Active,,,http://www.redfin.com/TX/Dallas/4322-Capitol-Ave-75204/home/30792879,NTREIS,14034027,N,Y,32.8068506,-96.7871932
MLS Listing,,Single Family Residential,9715 Airline Rd,Dallas,TX,75230,524900,3,2.5,Crestline Meadow Estates,2541,3964,2009,29,207,,Active,,,http://www.redfin.com/TX/Dallas/9715-Airline-Rd-75230/home/31135812,NTREIS,14026629,N,Y,32.880572,-96.7829797
MLS Listing,,Single Family Residential,1121 Manderly Ct,Dallas,TX,75204,529900,3,3.0,SWISS AVENUE LIMITED,2285,1742,2018,29,232,150,Active,March-30-2019 11:00 AM,March-30-2019 02:00 PM,http://www.redfin.com/TX/Dallas/1121-Manderly-CT-75204/home/160571100,NTREIS,14033750,N,Y,32.79539,-96.778425
MLS Listing,,Single Family Residential,6957 Kenwood Ave,Dallas,TX,75214,550000,2,2.0,Bob O Links Downs,1446,8015,1951,29,380,,Active,,,http://www.redfin.com/TX/Dallas/6957-Kenwood-Ave-75214/home/30823734,NTREIS,14033765,N,Y,32.8335263,-96.7416424
MLS Listing,,Single Family Residential,3196 Darvany Dr,Dallas,TX,75220,519900,4,3.0,Bradford Estates,3209,13460,1966,29,162,,Active,,,http://www.redfin.com/TX/Dallas/3196-Darvany-Dr-75220/home/30932623,NTREIS,14033050,N,Y,32.8779149,-96.871184
MLS Listing,,Single Family Residential,505 Mariah Bay Dr,Heath,TX,75032,525000,4,5.0,Mariah Bay,3659,17424,1986,29,143,10,Active,,,http://www.redfin.com/TX/Heath/505-Mariah-Bay-Dr-75032/home/33928483,NTREIS,14033401,N,Y,32.86222,-96.483544
MLS Listing,,Single Family Residential,6831 Town Bluff Dr,Dallas,TX,75248,524900,4,3.5,Prestonwood,2652,12327,1969,29,198,,Active,,,http://www.redfin.com/TX/Dallas/6831-Town-Bluff-Dr-75248/home/31076408,NTREIS,14031760,N,Y,32.9552105,-96.7906872
MLS Listing,,Single Family Residential,3234 Galahad Dr,Dallas,TX,75229,549000,4,2.5,Sparkman Club Estates,2607,9888,1960,30,211,,Active,,,http://www.redfin.com/TX/Dallas/3234-Galahad-Dr-75229/home/30930670,NTREIS,14004035,N,Y,32.890204,-96.8685027
MLS Listing,,Townhouse,5711 Lindell Ave #104,Dallas,TX,75206,525000,2,2.5,Alta Vista,2086,7405,2018,30,252,,Active,,,http://www.redfin.com/TX/Dallas/5711-Lindell-Ave-75206/unit-104/home/146953203,NTREIS,14032923,N,Y,32.8091138,-96.7680739
MLS Listing,,Single Family Residential,9659 Atherton Dr,Dallas,TX,75243,525000,3,3.0,Town Creek Add,3680,9148,1973,30,143,3,Active,March-31-2019 02:00 PM,March-31-2019 04:00 PM,http://www.redfin.com/TX/Dallas/9659-Atherton-Dr-75243/home/31070589,NTREIS,14018740,N,Y,32.9032908,-96.7297894
MLS Listing,,Single Family Residential,7055 Winchester St,Dallas,TX,75231,525000,3,3.0,Merriman Park 02,2573,10803,1971,31,204,,Active,March-31-2019 01:30 PM,March-31-2019 03:00 PM,http://www.redfin.com/TX/Dallas/7055-Winchester-St-75231/home/30870781,NTREIS,14030229,N,Y,32.8631654,-96.7409734
MLS Listing,,Single Family Residential,1918 Old Orchard Dr,Dallas,TX,75208,535000,2,2.5,Stevens Park Estates,2204,8494,1935,32,243,,Active,,,http://www.redfin.com/TX/Dallas/1918-Old-Orchard-Dr-75208/home/30848498,NTREIS,14028849,N,Y,32.7589792,-96.8532547
MLS Listing,,Single Family Residential,9529 Aldwick Dr,Dallas,TX,75238,549900,3,3.5,Lake Ridge Estates 9,2817,11195,1962,32,195,,Active,,,http://www.redfin.com/TX/Dallas/9529-Aldwick-Dr-75238/home/31032254,NTREIS,14027004,N,Y,32.8771612,-96.7130902
MLS Listing,,Single Family Residential,7138 Teakwood Dr,Dallas,TX,75240,535000,4,4.0,Peyton-Alpha Estates,2977,12807,1976,32,180,,Active,March-31-2019 02:00 PM,March-31-2019 04:00 PM,http://www.redfin.com/TX/Dallas/7138-Teakwood-Dr-75240/home/31047343,NTREIS,14016326,N,Y,32.9317375,-96.7808125
MLS Listing,,Single Family Residential,18032 Benchmark Dr,Dallas,TX,75252,525000,5,4.0,Jackson Highlands,3739,7579,1990,34,140,21,Active,,,http://www.redfin.com/TX/Dallas/18032-Benchmark-Dr-75252/home/32069570,NTREIS,14029582,N,Y,32.9968952,-96.7763777
MLS Listing,,Townhouse,2226 Marilla St,Dallas,TX,75201,525000,2,2.5,Farmers Market Townhome 02,2220,2352,2008,34,236,110,Active,March-31-2019 02:00 PM,March-31-2019 04:00 PM,http://www.redfin.com/TX/Dallas/2226-Marilla-St-75201/home/30773102,NTREIS,14029361,N,Y,32.7790764,-96.7874861
MLS Listing,,Single Family Residential,7902 Fair Oaks Ave,Dallas,TX,75231,525000,3,2.5,Courts Walnut Hill Add,2658,4835,2005,36,198,,Active,,,http://www.redfin.com/TX/Dallas/7902-Fair-Oaks-Ave-75231/home/32215172,NTREIS,14026178,N,Y,32.8827199,-96.7458657
MLS Listing,,Single Family Residential,6851 Whitehill St,Dallas,TX,75231,543900,3,2.5,Merriman Park,1942,10498,1962,36,280,,Active,,,http://www.redfin.com/TX/Dallas/6851-Whitehill-St-75231/home/30870835,NTREIS,14028561,N,Y,32.8578121,-96.7418515
MLS Listing,,Single Family Residential,8666 Fanellanwood Pl,Dallas,TX,75238,539900,3,2.5,Villas-Lk Hlnds 2 Add,2880,3093,2015,36,187,121,Active,,,http://www.redfin.com/TX/Dallas/8666-Fanellanwood-Pl-75238/home/67397832,NTREIS,14027800,N,Y,32.8664604,-96.7033109
MLS Listing,,Single Family Residential,7824 Verona Pl,Dallas,TX,75231,512000,3,3.5,Merion-Midtown Pk Ph 1,2388,2091,2017,36,214,50,Active,,,http://www.redfin.com/TX/Dallas/7824-Verona-Pl-75231/home/146170945,NTREIS,14028526,N,Y,32.88822,-96.762367
MLS Listing,,Single Family Residential,6918 Charade Dr,Dallas,TX,75214,525000,3,2.0,Lakewood North Estates,1779,7492,1971,37,295,,Active,,,http://www.redfin.com/TX/Dallas/6918-Charade-Dr-75214/home/30825190,NTREIS,14027713,N,Y,32.8361425,-96.7370431
MLS Listing,,Single Family Residential,9408 Green Ter,Dallas,TX,75220,519000,3,2.0,Greenhill Park,2530,10019,2003,37,205,,Active,,,http://www.redfin.com/TX/Dallas/9408-Green-Terrace-Dr-75220/home/30856139,NTREIS,14027626,N,Y,32.8633751,-96.8476848
MLS Listing,,Single Family Residential,5532 Winton St,Dallas,TX,75206,549000,3,2.5,Kelmans,2580,3920,2006,37,213,,Active,,,http://www.redfin.com/TX/Dallas/5532-Winton-St-75206/home/30821965,NTREIS,14025849,N,Y,32.835346,-96.772434
MLS Listing,,Single Family Residential,3979 Deep Valley Dr,Dallas,TX,75244,540000,4,3.0,Glen Cove,2979,13939,1962,37,181,,Active,,,http://www.redfin.com/TX/Dallas/3979-Deep-Valley-Dr-75244/home/30927554,NTREIS,14025528,N,Y,32.9124167,-96.8462602
MLS Listing,,Single Family Residential,6005 Steamboat Dr,Dallas,TX,75230,540000,3,2.5,Twelve Thousand,2376,7971,1981,37,227,117,Active,March-30-2019 02:00 PM,March-30-2019 04:00 PM,http://www.redfin.com/TX/Dallas/6005-Steamboat-Dr-75230/home/31016989,NTREIS,14026251,N,Y,32.9190769,-96.802928
MLS Listing,,Single Family Residential,2715 Merlot Cir,Rowlett,TX,75088,532748,4,3.5,The Vineyards,3783,11326,2019,38,141,48,Active,,,http://www.redfin.com/TX/Rowlett/2715-Merlot-Cir-75088/home/52060850,NTREIS,14027625,N,Y,32.8874809,-96.53765
MLS Listing,,Single Family Residential,6904 Robin Willow Dr,Dallas,TX,75248,505000,4,3.0,Prestonwood,2497,8407,1975,38,202,66,Active,,,http://www.redfin.com/TX/Dallas/6904-Robin-Willow-Dr-75248/home/31080946,NTREIS,14026578,N,Y,32.9684347,-96.7907709
MLS Listing,,Townhouse,3718 Wycliff Ave,Dallas,TX,75219,550000,3,3.5,Carlton Corner 02,2428,1786,1999,38,227,,Active,,,http://www.redfin.com/TX/Dallas/3718-Wycliff-Ave-75219/home/32211839,NTREIS,14026213,N,Y,32.8188146,-96.8086682
MLS Listing,,Single Family Residential,418 Valencia St,Dallas,TX,75223,549000,3,2.5,Hollywood Rev,2580,7144,1929,39,213,,Active,,,http://www.redfin.com/TX/Dallas/418-Valencia-St-75223/home/30812677,NTREIS,14025576,N,Y,32.8051609,-96.7462002
MLS Listing,,Single Family Residential,8221 Milroy Ln,Dallas,TX,75231,541900,3,2.5,MerionMidtown Park Ph 2,2131,1655,2018,40,254,127,Active,March-30-2019 02:00 PM,March-30-2019 04:00 PM,http://www.redfin.com/TX/Dallas/8221-Milroy-Ln-75231/home/143838139,NTREIS,14025815,N,Y,32.8892687,-96.7626389
MLS Listing,,Single Family Residential,8640 Groveland Dr,Dallas,TX,75218,549000,2,1.0,Lakeland Terrace,1061,15987,1937,40,517,2,Active,,,http://www.redfin.com/TX/Dallas/8640-Groveland-Dr-75218/home/30860511,NTREIS,14025834,N,Y,32.8169404,-96.7045019
MLS Listing,,Single Family Residential,1516 S Alamo Rd,Rockwall,TX,75087,549990,4,3.5,Eagle Point Estates,3975,17598,2018,40,138,,Active,April-7-2019 01:00 AM,April-7-2019 03:00 PM,http://www.redfin.com/TX/Rockwall/1516-S-Alamo-Rd-75087/home/59364305,NTREIS,14024919,N,Y,32.9140401,-96.4641013
MLS Listing,,Single Family Residential,5818 Vickery Blvd,Dallas,TX,75206,514900,3,3.0,Delmar Heights Add,1694,7013,1930,40,304,,Active,March-31-2019 01:00 PM,March-31-2019 03:00 PM,http://www.redfin.com/TX/Dallas/5818-Vickery-Blvd-75206/home/30806760,NTREIS,14017471,N,Y,32.8227244,-96.7671102
MLS Listing,,Condo/Co-op,3418 McFarlin Blvd Unit C,University Park,TX,75205,539900,2,2.5,McFarlin Parkway Condos,1720,,2003,42,314,167,Active,April-14-2019 02:00 AM,April-14-2019 04:00 PM,http://www.redfin.com/TX/Dallas/3418-McFarlin-Blvd-75205/unit-C/home/30758788,NTREIS,14019182,N,Y,32.8442465,-96.7883648
MLS Listing,,Single Family Residential,8217 Horsetail Ct,Dallas,TX,75252,527990,4,3.5,University Place,2722,5750,2019,43,194,54,Active,,,http://www.redfin.com/TX/Dallas/8217-Horsetail-Ct-75080/home/160367739,NTREIS,14023660,N,Y,32.991617,-96.766435
MLS Listing,,Single Family Residential,9918 Galway Dr,Dallas,TX,75218,539900,3,2.0,Lake Park Estates,2165,14941,1950,44,249,,Active,,,http://www.redfin.com/TX/Dallas/9918-Galway-Dr-75218/home/30864184,NTREIS,14023171,N,Y,32.8380025,-96.6982965
MLS Listing,,Single Family Residential,2231 Luckenbach Ln,Irving,TX,75063,549000,4,3.5,Emerald Valley Ph 02,3812,5489,2008,45,144,30,Active,,,http://www.redfin.com/TX/Irving/2231-Luckenbach-Ln-75063/home/30778596,NTREIS,14020114,N,Y,32.9235586,-96.9744152
MLS Listing,,Single Family Residential,1076 Tea Olive Ln,Dallas,TX,75212,523898,3,2.5,Trinity Green,1822,2134,2019,45,288,108,Active,,,http://www.redfin.com/TX/Dallas/1076-Tea-Olive-Ln-75212/home/160463930,NTREIS,14022792,N,Y,32.778475,-96.840502
MLS Listing,,Single Family Residential,10746 Royal Springs Dr,Dallas,TX,75229,535000,3,2.5,Royal Spgs Estates,2332,16814,1960,45,229,14,Active,,,http://www.redfin.com/TX/Dallas/10746-Royal-Springs-Dr-75229/home/30928022,NTREIS,14022432,N,Y,32.8944982,-96.8445431
MLS Listing,,Single Family Residential,4959 Mill Run Rd,Dallas,TX,75244,550000,4,3.5,Inwood North Estates,2500,10498,1965,45,220,,Active,,,http://www.redfin.com/TX/Dallas/4959-Mill-Run-Rd-75244/home/31099497,NTREIS,14021804,N,Y,32.923369,-96.8222669
MLS Listing,,Single Family Residential,6919 Echo Bluff Dr,Dallas,TX,75248,549000,4,3.0,Prestonwood,2528,8146,1976,46,217,,Active,,,http://www.redfin.com/TX/Dallas/6919-Echo-Bluff-Dr-75248/home/31081341,NTREIS,14022332,N,Y,32.973388,-96.7866702
MLS Listing,,Single Family Residential,7668 Fallmeadow Ln,Dallas,TX,75248,548500,4,3.0,Spring Creek 06,3126,14593,1967,46,175,4,Active,March-31-2019 03:30 PM,March-31-2019 05:30 PM,http://www.redfin.com/TX/Dallas/7668-Fallmeadow-Ln-75248/home/31075273,NTREIS,14021811,N,Y,32.9574509,-96.7756456
MLS Listing,,Townhouse,424 N Marlborough Ave Unit B,Dallas,TX,75208,528000,3,2.5,ROSEMONT CREST ADDITION,2200,3441,2018,46,240,,Active,,,http://www.redfin.com/TX/Dallas/424-N-Marlborough-Ave-75208/unit-B/home/160456411,NTREIS,14018994,N,Y,32.7493867,-96.8511685
MLS Listing,,Vacant Land,4748 Elsby Ave,Dallas,TX,75209,525000,0,,Cass A B Jr,,11456,,47,,,Active,,,http://www.redfin.com/TX/Dallas/4748-Elsby-Ave-75209/home/30880724,NTREIS,14021071,N,Y,32.8558433,-96.8280969
MLS Listing,,Condo/Co-op,4611 Travis St Unit 1105B,Dallas,TX,75205,549900,2,2.5,Travis Knox Condominiums,2029,26920,2000,48,271,1232,Active,March-31-2019 01:00 PM,March-31-2019 03:00 PM,http://www.redfin.com/TX/Dallas/4611-Travis-St-75205/unit-1105B/home/30776644,NTREIS,14020648,N,Y,32.8243406,-96.7902687
MLS Listing,,Condo/Co-op,1836 Euclid Ave #101,Dallas,TX,75206,509900,2,2.5,LEVINGSTON PLACE,1954,6534,2019,52,261,150,Active,,,http://www.redfin.com/TX/Dallas/1836-Euclid-Ave-75206/unit-101/home/160398712,NTREIS,14018444,N,Y,32.8124899,-96.773197
MLS Listing,,Single Family Residential,12318 Brookmeadow Ln,Dallas,TX,75218,515000,4,3.5,Lochwood Meadows,2332,7667,1964,55,221,,Active,,,http://www.redfin.com/TX/Dallas/12318-Brookmeadow-Ln-75218/home/31045411,NTREIS,14012826,N,Y,32.8632421,-96.6880599
MLS Listing,,Townhouse,1809 Matilda St,Dallas,TX,75206,509000,3,2.5,LEWIS COURT TOWNHOMES,2008,1437,2006,56,253,150,Active,March-31-2019 02:00 PM,March-31-2019 04:00 PM,http://www.redfin.com/TX/Dallas/1809-Matilda-St-75206/home/30773655,NTREIS,14015823,N,Y,32.812506,-96.7687432
MLS Listing,,Single Family Residential,5339 Holland Ave,Dallas,TX,75209,549000,3,3.5,Cityville 1,2016,1699,2016,56,272,100,Active,,,http://www.redfin.com/TX/Dallas/5339-Holland-Ave-75209/home/110137702,NTREIS,14014625,N,Y,32.827719,-96.820576
MLS Listing,,Single Family Residential,5309 Northmoor Dr,Dallas,TX,75229,549900,4,3.0,Inwood Road Estates,2434,16335,1971,56,226,,Active,March-30-2019 02:00 PM,March-30-2019 04:00 PM,http://www.redfin.com/TX/Dallas/5309-Northmoor-Dr-75229/home/30926402,NTREIS,14015675,N,Y,32.9085381,-96.8169921
MLS Listing,,Single Family Residential,5382 Bowser,Dallas,TX,75209,519000,3,3.5,Oak Park,2118,1742,2017,57,245,100,Active,March-30-2019 01:00 PM,March-30-2019 05:00 PM,http://www.redfin.com/TX/Dallas/5382-Bowser-Ave-75209/home/110137385,NTREIS,14015218,N,Y,32.8272,-96.821213
MLS Listing,,Single Family Residential,207 Drew Ln,Heath,TX,75032,505000,4,3.0,Club Estates #2,3529,23740,1998,57,143,,Active,,,http://www.redfin.com/TX/Heath/207-Drew-Ln-75032/home/33903838,NTREIS,14015266,N,Y,32.8280532,-96.4997225
MLS Listing,,Single Family Residential,13417 Forestway Dr,Dallas,TX,75240,530000,4,3.0,Preston Downs 03,3859,18644,1968,57,137,,Active,,,http://www.redfin.com/TX/Dallas/13417-Forestway-Dr-75240/home/31017146,NTREIS,14015227,N,Y,32.9319891,-96.8019863
MLS Listing,,Multi-Family (2-4 Unit),5013 Vickery Blvd,Dallas,TX,75206,545000,2,2.0,Vickery Place,2012,8494,1940,57,271,,Active,,,http://www.redfin.com/TX/Dallas/5013-Vickery-Blvd-75206/home/30807561,NTREIS,14014771,N,Y,32.822588,-96.7849377
MLS Listing,,Single Family Residential,4034 Villa Grove Dr,Dallas,TX,75287,524900,4,4.0,Bent Tree West Ph 2,3006,10890,1983,57,175,,Active,March-30-2019 02:00 PM,March-30-2019 04:00 PM,http://www.redfin.com/TX/Dallas/4034-Villa-Grove-Dr-75287/home/31846236,NTREIS,14009762,N,Y,32.9897273,-96.840774
MLS Listing,,Single Family Residential,6415 Highgate Ln,Dallas,TX,75214,549000,3,2.0,Ridgewood Park Add,2171,7667,1953,57,253,,Active,April-14-2019 02:00 PM,April-14-2019 04:00 PM,http://www.redfin.com/TX/Dallas/6415-Highgate-Ln-75214/home/30869236,NTREIS,14013741,N,Y,32.8494746,-96.7521175
MLS Listing,,Single Family Residential,611 N Glasgow Dr,Dallas,TX,75214,515000,3,2.5,Junius Heights,2079,4051,2015,58,248,,Active,,,http://www.redfin.com/TX/Dallas/611-N-Glasgow-Dr-75214/home/30802284,NTREIS,14011966,N,Y,32.8084932,-96.7551914
MLS Listing,,Single Family Residential,1408 San Saba Dr,Dallas,TX,75218,525000,3,2.5,Casa Linda Estates,2062,15115,1940,59,255,,Active,,,http://www.redfin.com/TX/Dallas/1408-San-Saba-Dr-75218/home/30861192,NTREIS,14010843,N,Y,32.8273536,-96.7030184
MLS Listing,,Townhouse,2614 N Henderson,Dallas,TX,75206,509500,3,2.5,Albrights,2546,,2005,59,200,,Active,,,http://www.redfin.com/TX/Dallas/2614-N-Henderson-Ave-75206/home/30808370,NTREIS,14011955,N,Y,32.8169987,-96.7806625
MLS Listing,,Single Family Residential,7003 Irongate Ln,Dallas,TX,75214,539000,4,2.5,North Rdg Estates 06,2355,13286,1958,60,229,,Active,,,http://www.redfin.com/TX/Dallas/7003-Irongate-Ln-75214/home/30824990,NTREIS,14011554,N,Y,32.8317014,-96.7396806
MLS Listing,,Condo/Co-op,2200 Victory Ave #1207,Dallas,TX,75219,549000,1,1.5,House,1549,53709,2007,61,354,1200,Active,,,http://www.redfin.com/TX/Dallas/2200-Victory-Ave-75219/unit-1207/home/30782380,NTREIS,14011637,N,Y,32.7849571,-96.8096512
MLS Listing,,Condo/Co-op,5565 Alta Ave #2,Dallas,TX,75206,525000,2,3.0,ALTA SUMMIT TOWNHOMES HOMEOWNERS ASSOCIATION,2050,,2015,64,256,165,Active,March-31-2019 02:00 AM,March-31-2019 04:00 PM,http://www.redfin.com/TX/Dallas/5565-Alta-Ave-75206/unit-2/home/143838350,NTREIS,14009755,N,Y,32.8134343,-96.7729805
MLS Listing,,Condo/Co-op,7043 Inwood Rd,Dallas,TX,75209,519900,3,3.0,Greenway Villas Rev,2150,4966,1983,64,242,238,Active,March-31-2019 01:00 PM,March-31-2019 04:00 PM,http://www.redfin.com/TX/Dallas/7043-Inwood-Rd-75209/home/31134541,NTREIS,14010429,N,Y,32.843413,-96.821928
MLS Listing,,Townhouse,3238 N Haskell Ave,Dallas,TX,75204,530000,2,2.5,Cityhomes-Travis Terrace,2516,1655,2000,64,211,282,Active,,,http://www.redfin.com/TX/Dallas/3238-N-Haskell-Ave-75204/home/32212194,NTREIS,14009931,N,Y,32.8111851,-96.7962759
MLS Listing,,Single Family Residential,828 La Jolla,Irving,TX,75039,549000,4,3.5,La Villita Ph 1c,3873,5489,2006,66,142,54,Active,March-30-2019 02:00 PM,March-30-2019 04:00 PM,http://www.redfin.com/TX/Irving/828-La-Jolla-75039/home/30768290,NTREIS,14008510,N,Y,32.8992555,-96.9300336
MLS Listing,,Condo/Co-op,3812 Roseland Ave Unit A100,Dallas,TX,75204,515000,3,3.5,MH Residential Properties 1,2350,21127,2016,66,219,350,Active,,,http://www.redfin.com/TX/Dallas/3812-Roseland-Ave-75204/unit-A100/home/143838391,NTREIS,14008229,N,Y,32.7988232,-96.7865098
MLS Listing,,Townhouse,906 Marilla Ct,Dallas,TX,75201,530000,3,3.5,Farmers Market Townhome 02,2488,1960,2007,67,213,110,Active,,,http://www.redfin.com/TX/Dallas/906-Marilla-Ct-75201/home/30773112,NTREIS,14006734,N,Y,32.7786594,-96.787392
MLS Listing,,Single Family Residential,5641 Ellsworth Ave,Dallas,TX,75206,545000,3,2.5,Hoffmans,2360,4269,2003,68,231,,Active,April-14-2019 02:00 PM,April-14-2019 04:00 PM,http://www.redfin.com/TX/Dallas/5641-Ellsworth-Ave-75206/home/30822037,NTREIS,14006948,N,Y,32.833915,-96.770414
MLS Listing,,Condo/Co-op,5200 Keller Springs Rd #1111,Dallas,TX,75248,527500,2,2.0,Bonaventure Condo,1913,331012,1981,72,276,954,Active,,,http://www.redfin.com/TX/Dallas/5200-Keller-Springs-Rd-75248/unit-1111/home/31128870,NTREIS,14005295,N,Y,32.9683918,-96.8197626
MLS Listing,,Single Family Residential,6238 Shadycliff Dr,Dallas,TX,75240,529900,5,2.5,Preston Downs 02,3059,17293,1963,72,173,,Active,,,http://www.redfin.com/TX/Dallas/6238-Shadycliff-Dr-75240/home/31017113,NTREIS,14004205,N,Y,32.9307478,-96.7978221
MLS Listing,,Condo/Co-op,2300 Leonard St #507,Dallas,TX,75201,515000,1,1.5,Metropolitan Club Condo,1340,22651,2004,72,384,495,Active,,,http://www.redfin.com/TX/Dallas/2300-Leonard-St-75201/unit-507/home/30745844,NTREIS,14004334,N,Y,32.7934469,-96.8008546
MLS Listing,,Single Family Residential,14921 Oaks North Dr,Addison,TX,75254,550000,3,3.0,Oaks North,3044,7144,1984,73,181,12,Active,,,http://www.redfin.com/TX/Dallas/14921-N-Oaks-Dr-75254/home/31193941,NTREIS,14003079,N,Y,32.9515375,-96.8159037
MLS Listing,,Single Family Residential,454 Barnes Bridge Rd,Sunnyvale,TX,75182,510000,3,3.0,Polly Road Estates,2605,87120,1986,73,196,,Active,March-30-2019 12:00 PM,March-30-2019 05:00 PM,http://www.redfin.com/TX/Sunnyvale/454-Barnes-Bridge-Rd-75182/home/32048409,NTREIS,14003961,N,Y,32.8331563,-96.5506928
MLS Listing,,Single Family Residential,7837 Northaven Rd,Dallas,TX,75230,525000,3,2.0,Hill Haven Heights 02,1736,17250,1958,75,302,,Active,,,http://www.redfin.com/TX/Dallas/7837-Northaven-Rd-75230/home/30989275,NTREIS,14002250,N,Y,32.9016526,-96.7727172
MLS Listing,,Single Family Residential,11938 Cold Harbor Ln,Dallas,TX,75244,545000,5,4.0,Glen Cove,2659,10890,1964,79,205,,Active,,,http://www.redfin.com/TX/Dallas/11938-Cold-Harbor-Ln-75244/home/30927535,NTREIS,14000952,N,Y,32.9128833,-96.8485427
MLS Listing,,Single Family Residential,8809 Flint Falls Dr,Dallas,TX,75243,529000,4,4.5,Town Creek,3207,9148,1976,80,165,,Active,,,http://www.redfin.com/TX/Dallas/8809-Flint-Falls-Dr-75243/home/31107171,NTREIS,13999959,N,Y,32.8980931,-96.7384051
MLS Listing,,Condo/Co-op,7520 W Northwest Hwy #9,Dallas,TX,75225,500000,3,3.5,Northpark Garden Twnhms,1522,103586,1964,80,329,678,Active,March-30-2019 12:00 PM,March-30-2019 02:00 PM,http://www.redfin.com/TX/Dallas/7520-W-Northwest-Hwy-75225/unit-9/home/30871886,NTREIS,13999425,N,Y,32.8654308,-96.7778044
MLS Listing,,Townhouse,3443 Howell St,Dallas,TX,75204,549000,3,3.5,Hall Howell Townhomes,2420,1437,2004,81,227,100,Active,,,http://www.redfin.com/TX/Dallas/3443-Howell-St-75204/home/30739479,NTREIS,13998879,N,Y,32.8031862,-96.7969107
MLS Listing,,Condo/Co-op,2848 Woodside St Unit 3B,Dallas,TX,75204,550000,2,2.5,The Montane,2100,16683,2003,81,262,771,Active,,,http://www.redfin.com/TX/Dallas/2848-Woodside-St-75204/unit-3B/home/30764635,NTREIS,13998374,N,Y,32.7981428,-96.7993078
MLS Listing,,Condo/Co-op,2300 Leonard St #403,Dallas,TX,75201,520000,1,1.5,Metropolitan Club,1312,,2004,82,396,484,Active,,,http://www.redfin.com/TX/Dallas/2300-Leonard-St-75201/unit-403/home/30745895,NTREIS,13995967,N,Y,32.7934469,-96.8008546
MLS Listing,,Townhouse,907 Marilla Ct,Dallas,TX,75201,539900,3,3.5,Farmers Market Twnhm #2 Rev,2488,2091,2007,82,217,110,Active,,,http://www.redfin.com/TX/Dallas/907-Marilla-Ct-75201/home/30773116,NTREIS,13997181,N,Y,32.7785269,-96.7876116
MLS Listing,,Single Family Residential,17306 Yellow Bells Dr,Dallas,TX,75252,534990,4,3.5,University Place,3094,5750,2019,85,173,54,Active,,,http://www.redfin.com/TX/Dallas/17306-Yellow-Bells-Dr-Unknown/home/148561772,NTREIS,13996602,N,Y,32.991617,-96.766435
MLS Listing,,Condo/Co-op,3030 Mckinney Ave #602,Dallas,TX,75204,544000,2,2.0,La Tour Condos,1710,65601,1981,85,318,1243,Active,,,http://www.redfin.com/TX/Dallas/3030-McKinney-Ave-75204/unit-602/home/31174567,NTREIS,13992465,N,Y,32.8016841,-96.8005017
MLS Listing,,Condo/Co-op,5747 Prospect Ave Unit H,Dallas,TX,75206,512900,2,2.5,Matilda Condo,2265,13852,2006,86,226,240,Active,,,http://www.redfin.com/TX/Dallas/5747-Prospect-Ave-75206/unit-H/home/30780959,NTREIS,13989238,N,Y,32.815092,-96.7682621
MLS Listing,,Single Family Residential,1452 Verwood Cir,Farmers Branch,TX,75234,525000,4,4.0,Verwood at Mercer Crossing,3248,5489,2019,86,162,79,Active,,,http://www.redfin.com/TX/Farmers-Branch/1452-Verwood-Cir-Unknown/home/148312933,NTREIS,13996114,N,Y,32.913583,-96.928111
MLS Listing,,Single Family Residential,5631 Mcshann Rd,Dallas,TX,75230,529000,4,3.0,Mcshann Estates,2736,18600,1970,86,193,,Active,,,http://www.redfin.com/TX/Dallas/5631-Mcshann-Rd-75230/home/30964259,NTREIS,13995707,N,Y,32.9218651,-96.8096667
MLS Listing,,Single Family Residential,1444 Verwood Cir,Farmers Branch,TX,75234,540000,4,3.5,Verwood at Mercer Crossing,3248,5489,2019,87,166,79,Active,,,http://www.redfin.com/TX/Farmers-Branch/1444-Verwood-Cir-Unknown/home/148312931,NTREIS,13995627,N,Y,32.913775,-96.928435
MLS Listing,,Condo/Co-op,4312 Cedar Springs Rd #102,Dallas,TX,75219,525000,2,3.0,Perry Heights,2055,7971,2018,94,255,175,Active,March-31-2019 02:00 PM,March-31-2019 04:00 PM,http://www.redfin.com/TX/Dallas/4312-Cedar-Springs-Rd-75219/unit-102/home/148558615,NTREIS,13993267,N,Y,32.8144571,-96.8151505
MLS Listing,,Single Family Residential,6909 Sonoma,Irving,TX,75039,550000,4,3.5,La Villita Ph1C,4015,6621,2006,101,137,67,Active,,,http://www.redfin.com/TX/Irving/6909-Sonoma-75039/home/30768455,NTREIS,13991130,N,Y,32.9044528,-96.9331158
MLS Listing,,Single Family Residential,5331 Emerson Ave,Dallas,TX,75209,530000,2,1.0,Greenway Crest,1456,8364,1949,109,364,,Active,,,http://www.redfin.com/TX/Dallas/5331-Emerson-Ave-75209/home/30881312,NTREIS,13987466,N,Y,32.8466,-96.82009
MLS Listing,,Single Family Residential,8221 Laflin Ln,Dallas,TX,75231,549900,3,2.5,Merion at Midtown Park,2198,1742,2019,113,250,121,Active,,,http://www.redfin.com/TX/Dallas/8221-Laflin-Dr-75231/home/143838169,NTREIS,13985061,N,Y,32.889661,-96.76188
MLS Listing,,Single Family Residential,6639 Orangewood Dr,Dallas,TX,75248,549000,4,2.5,Preston Meadow Estates,2517,10803,1970,121,218,,Active,,,http://www.redfin.com/TX/Dallas/6639-Orangewood-Dr-75248/home/31077448,NTREIS,13979203,N,Y,32.9576947,-96.7953531
MLS Listing,,Townhouse,3935 N Hall St,Dallas,TX,75219,534000,3,3.5,Hall-Throckmorton,2735,1437,2001,121,195,,Active,,,http://www.redfin.com/TX/Dallas/3935-N-Hall-St-75219/home/32211937,NTREIS,13980106,N,Y,32.8115911,-96.8097611
MLS Listing,,Single Family Residential,618 Promontory Ln,Dallas,TX,75208,544922,3,2.5,Reserve at Kessler Heights,2725,3223,2019,122,200,125,Active,,,http://www.redfin.com/TX/Dallas/618-Promontory-Ln-75208/home/148313354,NTREIS,13979703,N,Y,32.75163,-96.852444
MLS Listing,,Single Family Residential,7035 Halprin St,Dallas,TX,75252,529000,4,3.5,Highlands Of Mckamy V,3465,12632,1984,122,153,20,Active,,,http://www.redfin.com/TX/Dallas/7035-Halprin-St-75252/home/32162559,NTREIS,13972504,N,Y,32.9966136,-96.7815656
MLS Listing,,Single Family Residential,1053 Tea Olive Ln,Dallas,TX,75212,510678,3,3.5,Trinity Green,2322,1960,2019,122,220,108,Active,,,http://www.redfin.com/TX/Dallas/1053-Tea-Olive-Ln-75212/home/148156111,NTREIS,13979583,N,Y,32.778475,-96.840502
MLS Listing,,Multi-Family (2-4 Unit),2341 DOUGLAS Ave,Dallas,TX,75219,545000,3,3.5,CLIFTON PLACE,2354,6882,2018,126,232,,Active,,,http://www.redfin.com/TX/Dallas/2341-Douglas-Ave-75219/home/146991275,NTREIS,13977495,N,Y,32.8065145,-96.8208723
MLS Listing,,Single Family Residential,5114 Elsby Ave,Dallas,TX,75209,517999,3,1.0,Briarwood,1389,7362,1945,128,373,,Active,,,http://www.redfin.com/TX/Dallas/5114-Elsby-Ave-75209/home/30854695,NTREIS,13973745,N,Y,32.8559244,-96.8234855
MLS Listing,,Single Family Residential,5253 Richard Ave,Dallas,TX,75206,534900,3,2.0,Vickery Park Add,1985,5009,1923,133,269,,Active,March-30-2019 01:00 PM,March-30-2019 03:00 PM,http://www.redfin.com/TX/Dallas/5253-Richard-Ave-75206/home/30808246,NTREIS,13972370,N,Y,32.8194316,-96.7800803
MLS Listing,,Single Family Residential,5927 Preston Gate Ct,Dallas,TX,75230,510000,3,2.5,Preston Gate,2233,3049,2003,134,228,200,Active,March-31-2019 02:00 PM,March-31-2019 04:00 PM,http://www.redfin.com/TX/Dallas/5927-Preston-Gate-Ct-75230/home/32214838,NTREIS,13974243,N,Y,32.9186238,-96.8048114
MLS Listing,,Single Family Residential,1408 Ridge Rd,Rockwall,TX,75087,525000,3,2.0,Daniel Atkins Surv #1,2161,91476,1975,134,243,,Active,,,http://www.redfin.com/TX/Rockwall/1408-Ridge-Rd-75087/home/33895729,NTREIS,13973987,N,Y,32.9116744,-96.4627899
MLS Listing,,Single Family Residential,6733 Regalbluff Dr,Dallas,TX,75248,549000,4,3.0,Prestonwood Estates,2969,14244,1977,134,185,,Active,March-30-2019 02:00 PM,March-30-2019 04:00 PM,http://www.redfin.com/TX/Dallas/6733-Regalbluff-Dr-75248/home/31077662,NTREIS,13973742,N,Y,32.9526947,-96.793449
MLS Listing,,Multi-Family (2-4 Unit),2343 DOUGLAS Ave,Dallas,TX,75219,545000,3,3.5,CLIFTON PLACE,2354,6882,2017,135,232,,Active,,,http://www.redfin.com/TX/Dallas/2343-Douglas-Ave-75219/home/30813810,NTREIS,13974112,N,Y,32.8065901,-96.820854
MLS Listing,,Single Family Residential,605 Promontory Ln,Dallas,TX,75208,531190,3,2.5,Reserve at Kessler Heights,2042,2831,2019,135,260,125,Active,,,http://www.redfin.com/TX/Dallas/605-Promontory-Ln-75208/home/147515258,NTREIS,13973803,N,Y,32.75163,-96.852444
MLS Listing,,Condo/Co-op,3180 Carmel #205,Dallas,TX,75204,529000,2,2.5,Building Assn Ground,2403,,2018,137,220,300,Active,,,http://www.redfin.com/TX/Dallas/3180-Carmel-St-75204/unit-205/home/145450585,NTREIS,13972135,N,Y,32.7918663,-96.7865766
MLS Listing,,Single Family Residential,4734 Elsby Ave,Dallas,TX,75209,549900,3,2.0,Linwood Place,1808,5532,1949,141,304,,Active,April-7-2019 02:00 PM,April-7-2019 04:00 PM,http://www.redfin.com/TX/Dallas/4734-Elsby-Ave-75209/home/30880726,NTREIS,13969427,N,Y,32.8555712,-96.8284633
MLS Listing,,Condo/Co-op,,Dallas,TX,75219,549900,3,3.5,Gilbert Condo 3707,2461,31973,1997,141,223,535,Active,,,http://www.redfin.com/TX/Dallas/Undisclosed-address-75219/home/31170829,NTREIS,13970545,N,Y,32.8131779,-96.8024496
MLS Listing,,Townhouse,3210 Carlisle St #36,Dallas,TX,75204,519900,2,2.5,Vine Condo,2057,,2006,143,253,278,Active,April-7-2019 01:00 PM,April-7-2019 03:00 PM,http://www.redfin.com/TX/Dallas/3210-Carlisle-St-75204/unit-36/home/30783897,NTREIS,13968759,N,Y,32.8042829,-96.8021746
MLS Listing,,Single Family Residential,11313 Riddick Ct,Dallas,TX,75218,547900,4,3.0,Enclave Wyrick Estates,3588,5489,2009,145,153,67,Active,,,http://www.redfin.com/TX/Dallas/11313-Riddick-Ct-75218/home/30763977,NTREIS,13967156,N,Y,32.8627832,-96.6974608
MLS Listing,,Single Family Residential,11318 Riddick Ct,Dallas,TX,75218,549900,4,3.0,Enclave Wyrick Estates,3549,5489,2008,149,155,67,Active,,,http://www.redfin.com/TX/Dallas/11318-Riddick-Ct-75218/home/30763968,NTREIS,13953952,N,Y,32.8629438,-96.6969176
MLS Listing,,Single Family Residential,12631 Coventry Ct,Farmers Branch,TX,75230,529000,4,3.5,Mercer Crossing,3228,5663,2018,151,164,79,Active,,,http://www.redfin.com/TX/Dallas/12631-Coventry-Way-75230/home/147236233,NTREIS,13960568,N,Y,32.9190729,-96.7907098
MLS Listing,,Condo/Co-op,2300 Leonard St #405,Dallas,TX,75201,533000,1,1.5,Metropolitan Club,1340,22651,2004,156,398,450,Active,,,http://www.redfin.com/TX/Dallas/2300-Leonard-St-75201/unit-405/home/30745837,NTREIS,13957736,N,Y,32.7934469,-96.8008546
MLS Listing,,Single Family Residential,4529 W Amherst Ave,Dallas,TX,75209,550000,3,2.0,Linwood Place,1906,7231,1939,157,289,,Active,,,http://www.redfin.com/TX/Dallas/4529-W-Amherst-Ave-75209/home/30857323,NTREIS,13960717,N,Y,32.8525126,-96.831478
MLS Listing,,Single Family Residential,8227 Milroy Ln,Dallas,TX,75231,539900,3,3.5,Merion at Midtown Park,2389,1742,2019,162,226,121,Active,,,http://www.redfin.com/TX/Dallas/8227-Milroy-Ln-75231/home/143838138,NTREIS,13956998,N,Y,32.8892744,-96.7625577
MLS Listing,,Single Family Residential,7728 Bantry Ln,Dallas,TX,75248,535000,4,3.0,Highlands North Sec 03,3100,10411,1978,162,173,6,Active,,,http://www.redfin.com/TX/Dallas/7728-Bantry-Ln-75248/home/31112616,NTREIS,13952383,N,Y,32.9854839,-96.7736166
MLS Listing,,Single Family Residential,4342 Congress Ave,Dallas,TX,75219,525000,2,1.0,Clifton Place,820,8102,1925,167,640,,Active,,,http://www.redfin.com/TX/Dallas/4342-Congress-Ave-75219/home/35539291,NTREIS,13953872,N,Y,32.8116726,-96.8169398
MLS Listing,,Single Family Residential,6322 Royal Ln,Dallas,TX,75230,500000,2,2.0,Pemberton,1604,12807,1951,169,312,,Active,,,http://www.redfin.com/TX/Dallas/6322-Royal-Ln-75230/home/30876489,NTREIS,13953277,N,Y,32.8944927,-96.7972332
MLS Listing,,Townhouse,3823 Cole Ave,Dallas,TX,75204,540000,2,2.5,Valencia 02 Amd,2070,1220,2006,171,261,280,Active,March-31-2019 02:00 PM,March-31-2019 04:00 PM,http://www.redfin.com/TX/Dallas/3823-Cole-Ave-75204/home/30773771,NTREIS,13951404,N,Y,32.810281,-96.796266
MLS Listing,,Single Family Residential,9619 Brentgate Dr,Dallas,TX,75238,520000,4,3.5,White Rock North 10 Instl,2873,9235,1964,180,181,8,Active,,,http://www.redfin.com/TX/Dallas/9619-Brentgate-Dr-75238/home/31066001,NTREIS,13945312,N,Y,32.8811744,-96.7233325
MLS Listing,,Single Family Residential,7015 Coronado Ave,Dallas,TX,75214,549000,2,2.0,Wilkes Resub,1682,7449,1945,186,326,,Active,,,http://www.redfin.com/TX/Dallas/7015-Coronado-Ave-75214/home/30818679,NTREIS,13941723,N,Y,32.8119818,-96.7376703
MLS Listing,,Single Family Residential,1468 Verwood Cir,Farmers Branch,TX,75234,500000,4,3.0,Verwood at Mercer Crossing,2905,5227,2019,187,172,79,Active,,,http://www.redfin.com/TX/Farmers-Branch/1468-Verwood-Cir-Unknown/home/147248146,NTREIS,13941011,N,Y,32.913673,-96.928148
MLS Listing,,Single Family Residential,2641 La Altura Ln,Dallas,TX,75212,529000,3,3.5,Soho Square,2312,1742,2019,190,229,167,Active,,,http://www.redfin.com/TX/Dallas/2641-Altura-Ave-75228/home/147160544,NTREIS,13938681,N,Y,32.776364,-96.842243
MLS Listing,,Townhouse,4007 Bowser Ave Unit G,Dallas,TX,75219,509000,3,2.5,Edgemere Place,2494,1830,2001,191,204,100,Active,,,http://www.redfin.com/TX/Dallas/4007-Bowser-Ave-75219/unit-G/home/32256001,NTREIS,13937276,N,Y,32.8146127,-96.8074483
MLS Listing,,Townhouse,4342 Cochran Chapel Cir,Dallas,TX,75209,525000,2,2.0,Cochran Chapel Circle,1967,2526,1974,197,267,200,Active,,,http://www.redfin.com/TX/Dallas/4342-Cochran-Chapel-Cir-75209/home/30879204,NTREIS,13935070,N,Y,32.862964,-96.834723
MLS Listing,,Condo/Co-op,3825 Cole Ave,Dallas,TX,75204,540000,2,2.5,Valencia If,1865,1307,2006,219,290,280,Active,,,http://www.redfin.com/TX/Dallas/3825-Cole-Ave-75204/home/30772082,NTREIS,13920466,N,Y,32.810324,-96.796214
MLS Listing,,Single Family Residential,6711 Duffield Ct,Dallas,TX,75248,524900,4,2.5,Preston Green North Add Ph 02,2632,8973,1976,219,199,,Active,,,http://www.redfin.com/TX/Dallas/6711-Duffield-Ct-75248/home/31113712,NTREIS,13918344,N,Y,32.9850542,-96.7899967
MLS Listing,,Single Family Residential,7835 Verona Pl,Dallas,TX,75231,548990,3,3.5,Merion at Midtown Park,2422,2178,2018,228,227,121,Active,March-30-2019 02:00 PM,March-30-2019 05:00 PM,http://www.redfin.com/TX/Dallas/7835-Verona-Pl-75231/home/147283359,NTREIS,13913815,N,Y,32.888204,-96.762647
MLS Listing,,Multi-Family (2-4 Unit),6044 Vickery Blvd,Dallas,TX,75206,509900,4,4.0,Delmar Heights,3589,6752,1935,246,142,,Active,,,http://www.redfin.com/TX/Dallas/6044-Vickery-Blvd-75206/home/30806980,NTREIS,13900744,N,Y,32.8226388,-96.7617369
MLS Listing,,Single Family Residential,4224 Royal Ridge Dr,Dallas,TX,75229,529900,4,2.5,Royal Ridge Add,2512,16901,1973,255,211,,Active,March-30-2019 12:00 PM,March-30-2019 03:00 PM,http://www.redfin.com/TX/Dallas/4224-Royal-Ridge-Dr-75229/home/30878307,NTREIS,13894134,N,Y,32.8893305,-96.8380521
MLS Listing,,Condo/Co-op,716 W 9th,Dallas,TX,75208,535000,3,3.0,DALLAS LAND AND LOAN 3,2225,9017,2019,256,240,190,Active,,,http://www.redfin.com/TX/Dallas/716-W-9th-St-75208/home/30827396,NTREIS,13892268,N,Y,32.7461649,-96.8347871
MLS Listing,,Single Family Residential,9714 Kilarney Dr,Dallas,TX,75218,524900,3,3.0,Lake Park Estates,2388,15072,1951,277,220,,Active,,,http://www.redfin.com/TX/Dallas/9714-Kilarney-Dr-75218/home/30864035,NTREIS,13875994,N,Y,32.8378012,-96.7020573
MLS Listing,,Single Family Residential,1181 Tea Olive Ln,Dallas,TX,75212,515000,3,3.5,Trinity Green,2483,,2019,282,207,108,Active,March-30-2019 12:00 PM,March-30-2019 04:00 PM,http://www.redfin.com/TX/Dallas/1181-Tea-Olive-Ln-75212/home/143838229,NTREIS,13871919,N,Y,32.778475,-96.840502
MLS Listing,,Single Family Residential,12118 Lochwood Blvd,Dallas,TX,75218,524900,4,2.5,Lochwood Meadows,2317,9191,1970,285,227,,Active,,,http://www.redfin.com/TX/Dallas/12118-Lochwood-Blvd-75218/home/31045755,NTREIS,13869370,N,Y,32.8607227,-96.6925304
MLS Listing,,Condo/Co-op,5091 Gaston Ave,Dallas,TX,75214,549000,3,2.5,Munger Place,2179,7405,2018,310,252,350,Active,,,http://www.redfin.com/TX/Dallas/5091-Gaston-Ave-75214/home/143837882,NTREIS,13846561,N,Y,32.8025346,-96.7664434
MLS Listing,,Single Family Residential,716 7TH St,Dallas,TX,75208,520000,3,2.0,HILLSIDE,1047,,1986,344,497,,Active,,,http://www.redfin.com/TX/Dallas/716-W-7th-St-75208/home/30827523,NTREIS,13822924,N,Y,32.7487078,-96.8347859
MLS Listing,,Single Family Residential,903 N Beckley Ave,Dallas,TX,75203,540000,5,2.0,Zang S Crystal Hill,1544,6970,1925,388,350,,Active,,,http://www.redfin.com/TX/Dallas/903-N-Beckley-Ave-75203/home/30828689,NTREIS,13789553,N,Y,32.7539277,-96.823167
MLS Listing,,Single Family Residential,2020 California Dr,Dallas,TX,75204,500000,0,,Bergfeld Place,907,5881,1925,512,551,,Active,,,http://www.redfin.com/TX/Dallas/2020-California-Dr-75204/home/30792548,NTREIS,13724421,N,Y,32.8064112,-96.7823048
MLS Listing,,Single Family Residential,4602 Lafayette St,Dallas,TX,75204,500000,0,,Elk Park,1116,6011,1936,512,448,,Active,,,http://www.redfin.com/TX/Dallas/4602-Lafayette-St-75204/home/30792622,NTREIS,13724345,N,Y,32.8066423,-96.7821304
MLS Listing,,Vacant Land,2345 Fuqua Rd,Rowlett,TX,75088,550000,0,,La Costa,,78408,,654,,,Active,,,http://www.redfin.com/TX/Rowlett/2345-Fuqua-Rd-75088/home/56371887,NTREIS,13624317,N,Y,32.884506,-96.535943
New Construction Home,,Single Family Residential,8259 Agarito Way,Dallas,TX,75252,510186,3,2.5,University Place,2837,,2019,1,180,,Active,,,http://www.redfin.com/TX/Dallas/8259-Agarito-Way-75252/home/160870233,NewHomeSource.com,1608176,N,Y,32.991617,-96.766435
New Construction Home,,Single Family Residential,626 Promontory Ln,Dallas,TX,75208,521717,3,2.5,The Reserve at Kessler Heights - Garden Series,2682,,2019,6,195,,Active,,,http://www.redfin.com/TX/Dallas/626-Promontory-LN-75208/home/160752065,NewHomeSource.com,1606102,N,Y,32.75163,-96.852444
New Construction Home,,Single Family Residential,8049 Mary Curran Ct,Dallas,TX,75252,520000,4,3.0,University Place,2291,,2019,7,227,,Active,,,http://www.redfin.com/TX/Dallas/8049-Mary-Curran-Dr-75080/home/160745328,NewHomeSource.com,1605853,N,Y,32.985005,-96.766001
New Construction Home,,Single Family Residential,17136 Lacebark Ln,Dallas,TX,75252,523000,4,3.5,University Place,3072,,2019,20,170,,Active,,,http://www.redfin.com/TX/Dallas/17136-Lacebark-Ln-75080/home/160648433,NewHomeSource.com,1599864,N,Y,32.98387,-96.764796
New Construction Home,,Single Family Residential,8034 Copper Way,Dallas,TX,75252,510000,4,3.5,University Place,3335,,2019,20,153,,Active,,,http://www.redfin.com/TX/Dallas/8034-Copper-Way-75080/home/160648432,NewHomeSource.com,1599593,N,Y,32.983442,-96.76391
New Construction Home,,Single Family Residential,8269 Nunley Ln,Dallas,TX,75231,540857,3,2.5,Merion at Midtown Park Executive Series,1811,,2018,127,299,,Active,,,http://www.redfin.com/TX/Dallas/8269-Nunley-Ln-75231/home/143838079,NewHomeSource.com,1549928,N,Y,32.8906614,-96.7620944
New Construction Home,,Single Family Residential,"8203 Laflin Lane, Homesite 95",Dallas,TX,75231,514900,3,3.5,Merion at Midtown Park,1976,,2018,393,261,,Active,,,http://www.redfin.com/TX/Dallas/8203-Laflin-Ln-75231/home/143838172,NewHomeSource.com,1424192,N,Y,32.889772,-96.761744
New Construction Home,,Single Family Residential,"8278 Laflin Lane, Homesite 76",Dallas,TX,75231,509900,3,3.0,Merion at Midtown Park,2056,,2018,393,248,,Active,,,http://www.redfin.com/TX/Dallas/8278-Laflin-Dr-75231/home/143838153,NewHomeSource.com,1424195,N,Y,32.889772,-96.761744
New Construction Home,,Single Family Residential,8272 Milroy Lane  Available Now!,Dallas,TX,75231,529900,3,3.0,Merion at Midtown Park,2361,,2017,583,224,,Active,,,http://www.redfin.com/TX/Dallas/8272-Milroy-Ln-75231/home/143308239,NewHomeSource.com,1366222,N,Y,32.889851,-96.761828
New Construction Plan,,Single Family Residential,Walton,Forney,TX,75126,540990,4,3.5,Travis Ranch Marina,3357,,,,161,,Active,,,http://www.redfin.com/TX/Forney/Travis-Ranch-Marina/Walton/home/160410835,NewHomeSource.com,Plan-81564164,N,Y,32.807478,-96.489108
New Construction Plan,,Single Family Residential,Potter,Forney,TX,75126,534990,4,4.5,Travis Ranch Marina,3263,,,,164,,Active,,,http://www.redfin.com/TX/Forney/Travis-Ranch-Marina/Potter/home/160410836,NewHomeSource.com,Plan-81564163,N,Y,32.807478,-96.489108
New Construction Plan,,Single Family Residential,Mulberry,Forney,TX,75126,537990,4,4.5,Travis Ranch Marina,3231,,,,167,,Active,,,http://www.redfin.com/TX/Forney/Travis-Ranch-Marina/Mulberry/home/160410837,NewHomeSource.com,Plan-81564162,N,Y,32.807478,-96.489108
New Construction Plan,,Single Family Residential,Duke,Forney,TX,75126,536990,4,4.5,Travis Ranch Marina,3295,,,,163,,Active,,,http://www.redfin.com/TX/Forney/Travis-Ranch-Marina/Duke/home/160410839,NewHomeSource.com,Plan-81564161,N,Y,32.807478,-96.489108
New Construction Plan,,Single Family Residential,Edensbury,Dallas,TX,75208,534990,4,3.0,The Reserve at Kessler Heights - Executive Series,2951,,,,181,,Active,,,http://www.redfin.com/TX/Dallas/The-Reserve-at-Kessler-Heights-Executive-Series/Edensbury/home/146276019,NewHomeSource.com,Plan-81526220,N,Y,32.75163,-96.852444
New Construction Plan,,Single Family Residential,Carmel,Forney,TX,75126,512990,4,3.0,Travis Ranch Marina,2855,,,,180,,Active,,,http://www.redfin.com/TX/Forney/Travis-Ranch-Marina/Carmel/home/160410840,NewHomeSource.com,Plan-81564160,N,Y,32.807478,-96.489108
New Construction Plan,,Single Family Residential,Sabine Plan,Dallas,TX,75231,542990,3,3.0,Merion at Midtown Park,2361,,,,230,,Active,,,http://www.redfin.com/TX/Dallas/Merion-at-Midtown-Park/Sabine-Plan/home/148679457,NewHomeSource.com,Plan-81427800,N,Y,32.889851,-96.761828
New Construction Plan,,Single Family Residential,Buckner,Forney,TX,75126,528990,5,4.5,Travis Ranch Marina,3229,,,,164,,Active,,,http://www.redfin.com/TX/Forney/Travis-Ranch-Marina/Buckner/home/160410841,NewHomeSource.com,Plan-81564159,N,Y,32.807478,-96.489108
New Construction Plan,,Single Family Residential,San Marcos Plan,Dallas,TX,75231,538990,3,3.0,Merion at Midtown Park,2410,,,,224,,Active,,,http://www.redfin.com/TX/Dallas/Merion-at-Midtown-Park/San-Marcos-Plan/home/148679459,NewHomeSource.com,Plan-81427799,N,Y,32.889851,-96.761828
New Construction Plan,,Single Family Residential,Broadmoor,Dallas,TX,75252,548990,3,2.5,University Place,2712,,,,202,,Active,,,http://www.redfin.com/TX/Dallas/University-Place/Broadmoor/home/148564346,NewHomeSource.com,Plan-81572488,N,Y,32.992538,-96.761867
New Construction Plan,,Single Family Residential,Trinity Plan,Dallas,TX,75231,537990,3,3.0,Merion at Midtown Park,2422,,,,222,,Active,,,http://www.redfin.com/TX/Dallas/Merion-at-Midtown-Park/Trinity-Plan/home/148679461,NewHomeSource.com,Plan-81427797,N,Y,32.889851,-96.761828
New Construction Plan,,Single Family Residential,Summerfield,Dallas,TX,75252,519990,4,3.0,University Place,2858,,,,182,,Active,,,http://www.redfin.com/TX/Dallas/University-Place/Summerfield/home/144095268,NewHomeSource.com,Plan-81378306,N,Y,32.991617,-96.766435
New Construction Plan,,Single Family Residential,Galveston,Dallas,TX,75252,533990,4,3.5,University Place,3050,,,,175,,Active,,,http://www.redfin.com/TX/Dallas/University-Place/Galveston/home/144095270,NewHomeSource.com,Plan-81378305,N,Y,32.991617,-96.766435
New Construction Plan,,Single Family Residential,Aberdeen,Dallas,TX,75252,509990,4,3.5,University Place,2731,,,,187,,Active,,,http://www.redfin.com/TX/Dallas/University-Place/Aberdeen/home/144095271,NewHomeSource.com,Plan-81378304,N,Y,32.991617,-96.766435
New Construction Plan,,Single Family Residential,Design 2343,Dallas,TX,75231,549990,2,3.0,Merion at Midtown Park Executive Series,2397,,,,229,,Active,,,http://www.redfin.com/TX/Dallas/Merion-at-Midtown-Park-Executive-Series/Design-2343/home/112909864,NewHomeSource.com,Plan-81316703,N,Y,32.889414,-96.761286
New Construction Plan,,Single Family Residential,Design 2032,Dallas,TX,75231,529990,2,2.5,Merion at Midtown Park Executive Series,2040,,,,260,,Active,,,http://www.redfin.com/TX/Dallas/Merion-at-Midtown-Park-Executive-Series/Design-2032/home/112940218,NewHomeSource.com,Plan-81316700,N,Y,32.889414,-96.761286
New Construction Plan,,Single Family Residential,Design 2052,Dallas,TX,75231,534990,2,2.5,Merion at Midtown Park Executive Series,2049,,,,261,,Active,,,http://www.redfin.com/TX/Dallas/Merion-at-Midtown-Park-Executive-Series/Design-2052/home/112940217,NewHomeSource.com,Plan-81316701,N,Y,32.889414,-96.761286
New Construction Plan,,Single Family Residential,Design 2305,Dallas,TX,75231,549990,2,2.5,Merion at Midtown Park Executive Series,2290,,,,240,,Active,,,http://www.redfin.com/TX/Dallas/Merion-at-Midtown-Park-Executive-Series/Design-2305/home/112940216,NewHomeSource.com,Plan-81316702,N,Y,32.889414,-96.761286
New Construction Plan,,Single Family Residential,Doral,Dallas,TX,75252,532990,4,3.5,University Place,3241,,,,164,,Active,,,http://www.redfin.com/TX/Dallas/University-Place/Doral/home/148564353,NewHomeSource.com,Plan-71572479,N,Y,32.992538,-96.761867
New Construction Plan,,Single Family Residential,Turnberry,Dallas,TX,75252,524990,4,3.5,University Place,3239,,,,162,,Active,,,http://www.redfin.com/TX/Dallas/University-Place/Turnberry/home/148564354,NewHomeSource.com,Plan-71572478,N,Y,32.992538,-96.761867
New Construction Plan,,Single Family Residential,Muirfield,Dallas,TX,75252,525990,4,3.5,University Place,3246,,,,162,,Active,,,http://www.redfin.com/TX/Dallas/University-Place/Muirfield/home/148564355,NewHomeSource.com,Plan-71572477,N,Y,32.992538,-96.761867
New Construction Plan,,Single Family Residential,Nueces,Dallas,TX,75231,512990,3,3.5,Merion at Midtown Park,2355,,,,218,,Active,,,http://www.redfin.com/TX/Dallas/Merion-at-Midtown-Park/Nueces/home/148582924,NewHomeSource.com,Plan-71587799,N,Y,32.889849,-96.761831
New Construction Plan,,Single Family Residential,Trinity,Dallas,TX,75231,519990,3,3.5,Merion at Midtown Park,2422,,,,215,,Active,,,http://www.redfin.com/TX/Dallas/Merion-at-Midtown-Park/Trinity/home/148582925,NewHomeSource.com,Plan-71587798,N,Y,32.889849,-96.761831
New Construction Plan,,Single Family Residential,Meredith,Dallas,TX,75231,524900,3,3.5,Merion at Midtown Park,2389,,,,220,,Active,,,http://www.redfin.com/TX/Dallas/Merion-at-Midtown-Park/Meredith/home/148529053,NewHomeSource.com,Plan-71454303,N,Y,32.8897507,-96.7617614
New Construction Plan,,Single Family Residential,Sabine,Dallas,TX,75231,511990,3,3.0,Merion at Midtown Park,2361,,,,217,,Active,,,http://www.redfin.com/TX/Dallas/Merion-at-Midtown-Park/Sabine/home/148582926,NewHomeSource.com,Plan-71587797,N,Y,32.889849,-96.761831
New Construction Plan,,Single Family Residential,San Marcos,Dallas,TX,75231,508990,3,3.5,Merion at Midtown Park,2410,,,,211,,Active,,,http://www.redfin.com/TX/Dallas/Merion-at-Midtown-Park/San-Marcos/home/148582927,NewHomeSource.com,Plan-71587796,N,Y,32.889849,-96.761831
New Construction Plan,,Single Family Residential,Nueces Plan,Dallas,TX,75231,538990,3,3.0,Merion at Midtown Park,2355,,,,229,,Active,,,http://www.redfin.com/TX/Dallas/Merion-at-Midtown-Park/Nueces-Plan/home/148679462,NewHomeSource.com,Plan-71446808,N,Y,32.889851,-96.761828
New Construction Plan,,Single Family Residential,Julienne,Dallas,TX,75215,500990,4,4.5,Southside Place,2534,,,,198,,Active,,,http://www.redfin.com/TX/Dallas/Southside-Place/Julienne/home/113816080,NewHomeSource.com,Plan-71333820,N,Y,32.7689986,-96.7955795
New Construction Plan,,Single Family Residential,Somerville II,Dallas,TX,75252,535999,4,3.5,University Place,3004,,,,178,,Active,,,http://www.redfin.com/TX/Dallas/University-Place/Somerville-II/home/144540818,NewHomeSource.com,Plan-71451626,N,Y,32.9912,-96.7664
New Construction Plan,,Single Family Residential,Bryson II,Dallas,TX,75252,549999,5,4.0,University Place,3310,,,,166,,Active,,,http://www.redfin.com/TX/Dallas/University-Place/Bryson-II/home/144540822,NewHomeSource.com,Plan-71451627,N,Y,32.9912,-96.7664
New Construction Plan,,Single Family Residential,Livingstone II,Dallas,TX,75252,525999,4,3.5,University Place,2804,,,,188,,Active,,,http://www.redfin.com/TX/Dallas/University-Place/Livingstone-II/home/144540819,NewHomeSource.com,Plan-71451624,N,Y,32.9912,-96.7664
New Construction Plan,,Single Family Residential,Granbury II,Dallas,TX,75252,508999,4,3.5,University Place,2697,,,,189,,Active,,,http://www.redfin.com/TX/Dallas/University-Place/Granbury-II/home/144540820,NewHomeSource.com,Plan-71451623,N,Y,32.9912,-96.7664
New Construction Plan,,Single Family Residential,Vendera,Dallas,TX,75208,502990,3,2.5,The Reserve at Kessler Heights - Garden Series,2677,,,,188,,Active,,,http://www.redfin.com/TX/Dallas/The-Reserve-at-Kessler-Heights-Garden-Series/Vendera/home/146203523,NewHomeSource.com,Plan-71524132,N,Y,32.75163,-96.852444
New Construction Plan,,Single Family Residential,Belcourt,Dallas,TX,75208,508990,3,2.5,The Reserve at Kessler Heights - Garden Series,2442,,,,208,,Active,,,http://www.redfin.com/TX/Dallas/The-Reserve-at-Kessler-Heights-Garden-Series/Belcourt/home/146203524,NewHomeSource.com,Plan-71524131,N,Y,32.75163,-96.852444
New Construction Plan,,Single Family Residential,Johnson,Dallas,TX,75208,543990,4,4.0,The Reserve at Kessler Heights - Executive Series,3066,,,,177,,Active,,,http://www.redfin.com/TX/Dallas/The-Reserve-at-Kessler-Heights-Executive-Series/Johnson/home/146203527,NewHomeSource.com,Plan-71524129,N,Y,32.75163,-96.852444
