SALE TYPE,SOLD DATE,PROPERTY TYPE,ADDRESS,CITY,STATE OR PROVINCE,ZIP OR POSTAL CODE,PRICE,BEDS,BATHS,LOCATION,SQUARE FEET,LOT SIZE,YEAR BUILT,DAYS ON MARKET,$/SQUARE FEET,HOA/MONTH,STATUS,NEXT OPEN HOUSE START TIME,NEXT OPEN HOUSE END TIME,URL (SEE http://www.redfin.com/buy-a-home/comparative-market-analysis FOR INFO ON PRICING),SOURCE,MLS#,FAVORITE,INTERESTED,LATITUDE,LONGITUDE
MLS Listing,,Single Family Residential,631 Lake Point Dr,Irving,TX,75039,1160000,5,5.5,Lakes Of Las Colinas Ph 01,5277,8581,2011,15,220,155,Active,,,http://www.redfin.com/TX/Irving/631-Lake-Point-Dr-75039/home/30790094,NTREIS,14038277,N,Y,32.881157,-96.9341289
MLS Listing,,Single Family Residential,7210 Elmridge Dr,Dallas,TX,75240,999500,4,3.5,Northwood Hills Add Sec 01,4803,20691,1969,17,208,25,Active,April-7-2019 01:00 PM,April-7-2019 03:00 PM,http://www.redfin.com/TX/Dallas/7210-Elmridge-Dr-75240/home/31015496,NTREIS,14026834,N,Y,32.9379322,-96.7813146
MLS Listing,,Single Family Residential,11208 Cinderella Ln,Dallas,TX,75229,1089000,4,3.5,Midway Hills 04 03 Inst,3512,15987,1955,1,310,,Active,,,http://www.redfin.com/TX/Dallas/11208-Cinderella-Ln-75229/home/30927119,NTREIS,14051560,N,Y,32.9011836,-96.8393084
MLS Listing,,Condo/Co-op,3130 N Harwood St #807,Dallas,TX,75201,1150000,2,2.0,Bleu Ciel,1639,,2018,1,702,,Active,,,http://www.redfin.com/TX/Dallas/3130-N-Harwood-St-75201/unit-807/home/160897922,NTREIS,14053307,N,Y,32.7970118,-96.8112353
MLS Listing,,Single Family Residential,3533 Rosedale Ave,University Park,TX,75205,975000,4,4.5,Francis Daniels Park Rep,3066,6011,1980,1,318,,Active,,,http://www.redfin.com/TX/Dallas/3533-Rosedale-Ave-75205/home/32058045,NTREIS,14053920,N,Y,32.846936,-96.791665
MLS Listing,,Single Family Residential,3132 Amherst Ave,University Park,TX,75225,1200000,3,2.0,Caruth Hills,1848,9583,1936,1,649,,Active,,,http://www.redfin.com/TX/Dallas/3132-Amherst-Ave-75225/home/32056669,NTREIS,14052638,N,Y,32.8523421,-96.7822141
MLS Listing,,Single Family Residential,6301 Mercedes Ave,Dallas,TX,75214,1200000,5,4.5,Green Meadows,4836,15987,1948,1,248,,Active,,,http://www.redfin.com/TX/Dallas/6301-Mercedes-Ave-75214/home/30820235,NTREIS,14054461,N,Y,32.8285975,-96.7557709
MLS Listing,,Single Family Residential,3953 Merrell Rd,Dallas,TX,75229,1075000,5,4.5,Rosser Terrace 01,3829,17380,2015,1,281,,Active,March-31-2019 02:00 PM,March-31-2019 04:00 PM,http://www.redfin.com/TX/Dallas/3953-Merrell-Rd-75229/home/30928525,NTREIS,14052015,N,Y,32.887991,-96.8465115
MLS Listing,,Single Family Residential,3825 Purdue Ave,University Park,TX,75225,1249000,4,3.0,University Heights,3264,7013,1950,1,383,,Active,March-30-2019 02:00 PM,March-30-2019 04:00 PM,http://www.redfin.com/TX/Dallas/3825-Purdue-Ave-75225/home/32108224,NTREIS,14052975,N,Y,32.8536638,-96.7979267
MLS Listing,,Single Family Residential,5718 Greenbrier Dr,Dallas,TX,75209,949000,3,2.0,Highway Estates #2,2347,12284,1946,1,404,,Active,March-31-2019 02:30 PM,March-31-2019 04:30 PM,http://www.redfin.com/TX/Dallas/5718-Greenbrier-Dr-75209/home/30880688,NTREIS,14054216,N,Y,32.857672,-96.8144595
MLS Listing,,Single Family Residential,6931 Coronado Ave,Dallas,TX,75214,1215000,5,4.5,Gastonwood 04,3862,7797,2016,1,315,,Active,March-31-2019 12:00 PM,March-31-2019 01:30 PM,http://www.redfin.com/TX/Dallas/6931-Coronado-Ave-75214/home/30818752,NTREIS,14053416,N,Y,32.8123102,-96.739719
MLS Listing,,Single Family Residential,4060 Beechwood Ln,Dallas,TX,75220,999900,4,3.5,Glenridge Estates,4015,7275,2019,1,249,,Active,March-30-2019 02:00 PM,March-30-2019 04:00 PM,http://www.redfin.com/TX/Dallas/4060-Beechwood-Ln-75220/home/30910569,NTREIS,14049311,N,Y,32.8759999,-96.8437474
MLS Listing,,Single Family Residential,7023 Lupton Dr,Dallas,TX,75225,1099000,4,4.5,Windsor Park 08,4161,13591,1971,1,264,,Active,March-31-2019 12:00 PM,March-31-2019 01:30 PM,http://www.redfin.com/TX/Dallas/7023-Lupton-Dr-75225/home/30872309,NTREIS,14032822,N,Y,32.8766767,-96.7842433
MLS Listing,,Single Family Residential,5320 Emerson Ave,Dallas,TX,75209,1249000,4,3.5,Greenway Crest,4000,10062,1949,1,312,,Active,March-31-2019 02:00 PM,March-31-2019 04:00 PM,http://www.redfin.com/TX/Dallas/5320-Emerson-Ave-75209/home/30851208,NTREIS,14053038,N,Y,32.8458922,-96.8205234
MLS Listing,,Single Family Residential,4540 Northaven Rd,Dallas,TX,75229,1049000,4,3.0,Northaven Manor,4407,24132,1957,1,238,,Active,March-31-2019 01:00 PM,March-31-2019 03:00 PM,http://www.redfin.com/TX/Dallas/4540-Northaven-Rd-75229/home/30927260,NTREIS,14052030,N,Y,32.9018048,-96.8299497
MLS Listing,,Single Family Residential,4515 Briar Oaks Cir,Dallas,TX,75287,950000,5,5.0,Oakdale Sec Three Ph A,5101,10890,2000,2,186,214,Active,April-7-2019 03:00 PM,April-7-2019 05:00 PM,http://www.redfin.com/TX/Dallas/4515-Briar-Oaks-Cir-75287/home/32069786,NTREIS,14052442,N,Y,32.9988577,-96.819148
MLS Listing,,Single Family Residential,5349 Southern Ave,Dallas,TX,75209,1129900,4,3.5,Mockingbird Park Addition 4th Installment,3013,10280,1954,2,375,,Active,March-31-2019 02:00 PM,March-31-2019 04:00 PM,http://www.redfin.com/TX/Dallas/5349-Southern-Ave-75209/home/30815658,NTREIS,14052453,N,Y,32.8359804,-96.8202155
MLS Listing,,Vacant Land,11430 Crestbrook Dr,Dallas,TX,75230,1250000,0,,Benefield and Younger,,27332,,2,,,Active,,,http://www.redfin.com/TX/Dallas/11430-Crestbrook-Dr-75230/home/30925877,NTREIS,14052324,N,Y,32.9048134,-96.7975471
MLS Listing,,Single Family Residential,4046 Highgrove Dr,Dallas,TX,75220,1175000,4,3.5,Midway Hlnds Add,3521,11326,2013,2,334,,Active,,,http://www.redfin.com/TX/Dallas/4046-Highgrove-Dr-75220/home/30909592,NTREIS,14052577,N,Y,32.8686715,-96.8430773
MLS Listing,,Single Family Residential,8715 Glencrest Ln,Dallas,TX,75209,975000,4,3.5,Shore Crest Terrace,4319,9409,2007,2,226,,Active,March-31-2019 01:00 PM,March-31-2019 03:00 PM,http://www.redfin.com/TX/Dallas/8715-Glencrest-Ln-75209/home/30855619,NTREIS,14051203,N,Y,32.8572756,-96.8462183
MLS Listing,,Single Family Residential,6011 Prospect Ave,Dallas,TX,75206,1200000,4,4.0,Belmont Sub,3793,8756,2019,3,316,,Active,,,http://www.redfin.com/TX/Dallas/6011-Prospect-Ave-75206/home/30806627,NTREIS,14047181,N,Y,32.8150122,-96.7632426
MLS Listing,,Condo/Co-op,2200 Victory Ave #1704,Dallas,TX,75219,1098000,2,2.5,House,2127,53709,2007,3,516,1528,Active,,,http://www.redfin.com/TX/Dallas/2200-Victory-Ave-75219/unit-1704/home/30782343,NTREIS,14048242,N,Y,32.7847939,-96.80978
MLS Listing,,Condo/Co-op,3030 Mckinney Ave #2305,Dallas,TX,75204,945000,3,2.5,La Tour Condo,2760,65601,1981,3,342,1915,Active,,,http://www.redfin.com/TX/Dallas/3030-McKinney-Ave-75204/unit-2305/home/31174488,NTREIS,14052149,N,Y,32.8016841,-96.8005017
MLS Listing,,Single Family Residential,5341 Springmeadow Dr,Dallas,TX,75229,1200000,4,4.0,Russwood Acres 02 Instl,4609,21736,1963,3,260,,Active,March-31-2019 01:00 PM,March-31-2019 03:00 PM,http://www.redfin.com/TX/Dallas/5341-Springmeadow-Dr-75229/home/30926277,NTREIS,14051807,N,Y,32.8994263,-96.815314
MLS Listing,,Single Family Residential,4502 Ridge Rd,Dallas,TX,75229,1225000,4,4.0,Walnut Hill Ridge,3957,24873,1948,4,310,3,Active,,,http://www.redfin.com/TX/Dallas/4502-Ridge-Rd-75229/home/30878821,NTREIS,14049013,N,Y,32.8835038,-96.8331198
MLS Listing,,Single Family Residential,3733 Juniper Dr,Dallas,TX,75220,950000,3,3.5,Marsh Lane,3405,9670,2017,4,279,,Active,,,http://www.redfin.com/TX/Dallas/3733-Juniper-Dr-75220/home/30912205,NTREIS,14051645,N,Y,32.879103,-96.854484
MLS Listing,,Single Family Residential,9938 Mixon Dr,Dallas,TX,75220,975000,3,4.0,Marsh Lane Rev,4081,8451,2017,4,239,,Active,,,http://www.redfin.com/TX/Dallas/9938-Mixon-Dr-75220/home/30912105,NTREIS,14051608,N,Y,32.8783007,-96.8521657
MLS Listing,,Single Family Residential,19123 Windmill Ln,Dallas,TX,75252,995000,4,3.5,Preston Villa,2753,16553,2017,4,361,,Active,,,http://www.redfin.com/TX/Dallas/19123-Windmill-Ln-75252/home/32164773,NTREIS,14032187,N,Y,33.0086518,-96.7900804
MLS Listing,,Single Family Residential,7239 Lane Park Dr,Dallas,TX,75225,910000,2,2.5,Lane Park Add,2824,5837,1983,4,322,133,Active,March-31-2019 01:00 PM,March-31-2019 03:00 PM,http://www.redfin.com/TX/Dallas/7239-Lane-Park-Dr-75225/home/31136173,NTREIS,14048662,N,Y,32.8716519,-96.7802895
MLS Listing,,Single Family Residential,4224 Santa Barbara Dr,Dallas,TX,75214,989000,4,3.5,Bob O Links Downs,3765,8102,2006,4,263,,Active,March-31-2019 01:00 PM,March-31-2019 03:00 PM,http://www.redfin.com/TX/Dallas/4224-Santa-Barbara-Dr-75214/home/30825500,NTREIS,14048346,N,Y,32.8381533,-96.7371685
MLS Listing,,Single Family Residential,5539 Willis Ave,Dallas,TX,75206,975000,4,4.0,Vickery Place,3149,7797,2014,4,310,,Active,,,http://www.redfin.com/TX/Dallas/5539-Willis-Ave-75206/home/30807124,NTREIS,14049105,N,Y,32.8204579,-96.7729541
MLS Listing,,Single Family Residential,4415 University Blvd,University Park,TX,75205,1075000,4,4.5,Armstrong Fairway 2nd Instl,3659,3877,2007,4,294,,Active,March-31-2019 02:00 PM,March-31-2019 04:00 PM,http://www.redfin.com/TX/Dallas/4415-University-Blvd-75205/home/35533026,NTREIS,14050564,N,Y,32.8450002,-96.8112671
MLS Listing,,Single Family Residential,3922 Beechwood Ln,Dallas,TX,75220,1075000,4,3.5,Glenridge Estates,4192,7318,2017,5,256,,Active,,,http://www.redfin.com/TX/Dallas/3922-Beechwood-Ln-75220/home/30911000,NTREIS,14050134,N,Y,32.8759534,-96.8494013
MLS Listing,,Vacant Land,3657 Mockingbird Ln,Highland Park,TX,75205,1099000,0,,Highland Park,,13199,1921,5,,,Active,,,http://www.redfin.com/TX/Dallas/3657-Mockingbird-Ln-75205/home/32064080,NTREIS,14050576,N,Y,32.8362143,-96.7941395
MLS Listing,,Single Family Residential,4076 Northview Ln,Dallas,TX,75229,998950,4,2.5,Midway Hills 05,3625,15943,1959,5,276,,Active,March-31-2019 02:00 PM,March-31-2019 04:00 PM,http://www.redfin.com/TX/Dallas/4076-Northview-Ln-75229/home/30927065,NTREIS,14048642,N,Y,32.9029026,-96.8407322
MLS Listing,,Townhouse,4110 Cole Ave,Dallas,TX,75204,1150000,3,3.5,Miers Cole & Mckinney Ave,3368,4400,2014,5,341,,Active,,,http://www.redfin.com/TX/Dallas/4110-Cole-Ave-75204/home/30799169,NTREIS,14050258,N,Y,32.8148944,-96.7930216
MLS Listing,,Condo/Co-op,4502 Abbott Ave #215,Highland Park,TX,75205,965000,1,1.5,Mondara Condos,1600,72484,2017,6,603,677,Active,,,http://www.redfin.com/TX/Dallas/4502-Abbott-Ave-75205/unit-215/home/112852573,NTREIS,14046085,N,Y,32.8227959,-96.793395
MLS Listing,,Single Family Residential,11031 Lawnhaven Rd,Dallas,TX,75230,925000,5,4.0,Royal Crest,3546,15333,1953,7,261,,Active,March-31-2019 01:00 PM,March-31-2019 03:00 PM,http://www.redfin.com/TX/Dallas/11031-Lawnhaven-Rd-75230/home/30876568,NTREIS,14049554,N,Y,32.8982034,-96.7942666
MLS Listing,,Single Family Residential,5247 Miller Ave,Dallas,TX,75206,1199000,4,4.0,Vivkery Park,3960,8015,2019,7,303,,Active,March-31-2019 01:00 PM,March-31-2019 04:00 PM,http://www.redfin.com/TX/Dallas/5247-Miller-Ave-75206/home/30808373,NTREIS,14036928,N,Y,32.821519,-96.780415
MLS Listing,,Single Family Residential,602 Swan Dr,Coppell,TX,75019,950000,4,4.5,Northlake Woodlands East Ph 06 Rep,4732,27356,1991,8,201,,Active,,,http://www.redfin.com/TX/Coppell/602-Swan-Dr-75019/home/31266301,NTREIS,14046241,N,Y,32.9579205,-96.9763874
MLS Listing,,Single Family Residential,6814 Stefani Dr,Dallas,TX,75225,1149000,4,4.0,Jackson Heights 01,3810,17990,1951,8,302,,Active,March-31-2019 03:00 PM,March-31-2019 05:00 PM,http://www.redfin.com/TX/Dallas/6814-Stefani-Dr-75225/home/30875001,NTREIS,14048843,N,Y,32.8777875,-96.7880097
MLS Listing,,Single Family Residential,10811 Royal Park Dr,Dallas,TX,75230,924500,4,4.5,Royal Park Estates,5156,21475,1983,8,179,,Active,,,http://www.redfin.com/TX/Dallas/10811-Royal-Park-Dr-75230/home/30990471,NTREIS,13998576,N,Y,32.8964203,-96.7774655
MLS Listing,,Single Family Residential,5223 Oak Lake Dr,Dallas,TX,75287,1049000,4,4.5,Oakdale Sec Three Ph A,4614,13504,1991,8,227,467,Active,,,http://www.redfin.com/TX/Dallas/5223-Oak-Lake-Dr-75287/home/32069893,NTREIS,14048886,N,Y,32.9961196,-96.8183736
MLS Listing,,Single Family Residential,7307 Robin Rd,Dallas,TX,75209,1195000,4,4.0,Lovers Lane Heights,4208,7492,2016,8,284,,Active,,,http://www.redfin.com/TX/Dallas/7307-Robin-Rd-75209/home/30851281,NTREIS,14044757,N,Y,32.8459733,-96.8228433
MLS Listing,,Multi-Family (2-4 Unit),6508 Del Norte Ln,Dallas,TX,75225,939000,4,4.5,Prestonville,3573,10280,2017,8,263,,Active,April-7-2019 01:00 PM,April-7-2019 03:00 PM,http://www.redfin.com/TX/Dallas/6508-Del-Norte-Ln-75225/home/30874357,NTREIS,14042175,N,Y,32.8685553,-96.7930067
MLS Listing,,Single Family Residential,6732 Vanderbilt Ave,Dallas,TX,75214,1099999,4,3.5,Lakeway,4646,9060,2007,8,237,,Active,March-31-2019 01:30 PM,March-31-2019 03:00 PM,http://www.redfin.com/TX/Dallas/6732-Vanderbilt-Ave-75214/home/30824477,NTREIS,14047472,N,Y,32.8255802,-96.7445924
MLS Listing,,Single Family Residential,3914 Lively Ln,Dallas,TX,75220,1195000,4,5.0,Glenridge Estates,4194,9496,2018,9,285,,Active,,,http://www.redfin.com/TX/Dallas/3914-Lively-Ln-75220/home/30910870,NTREIS,14047884,N,Y,32.8733939,-96.8496936
MLS Listing,,Single Family Residential,6516 Bob O Link Dr,Dallas,TX,75214,1195000,4,3.5,Bob O Link Estates Rev,4153,19036,1981,10,288,,Active,March-31-2019 01:30 PM,March-31-2019 03:00 PM,http://www.redfin.com/TX/Dallas/6516-Bob-O-Link-Dr-75214/home/30824019,NTREIS,14047283,N,Y,32.831311,-96.7493784
MLS Listing,,Single Family Residential,80 Vanguard Way,Dallas,TX,75243,1119000,4,3.5,Urban Reserve,3568,8015,2015,10,314,108,Active,,,http://www.redfin.com/TX/Dallas/80-Vanguard-Way-75243/home/30763641,NTREIS,14047067,N,Y,32.899737,-96.7627215
MLS Listing,,Multi-Family (2-4 Unit),,Dallas,TX,75219,925000,5,,Melrose Condo,5014,9496,1925,10,184,,Active,,,http://www.redfin.com/TX/Dallas/Undisclosed-address-75219/home/30796684,NTREIS,14047197,N,Y,32.8131832,-96.809621
MLS Listing,,Single Family Residential,10929 Candlelight Ln,Dallas,TX,75229,929000,4,4.0,Midway Hills 04 06 Instl,4052,16814,1960,10,229,,Active,,,http://www.redfin.com/TX/Dallas/10929-Candlelight-Ln-75229/home/30910643,NTREIS,14038078,N,Y,32.8969714,-96.846198
MLS Listing,,Single Family Residential,5207 Vickery Blvd,Dallas,TX,75206,920000,5,3.0,Vickery Place & Vickery Park Rev,3472,8494,1926,11,265,,Active,,,http://www.redfin.com/TX/Dallas/5207-Vickery-Blvd-75206/home/30807592,NTREIS,14041955,N,Y,32.8226172,-96.7820103
MLS Listing,,Single Family Residential,5806 Prospect Ave,Dallas,TX,75206,1000000,3,3.0,Ross Ave Anx 03,3472,7187,1926,11,288,,Active,,,http://www.redfin.com/TX/Dallas/5806-Prospect-Ave-75206/home/30806711,NTREIS,14041984,N,Y,32.8145764,-96.7676556
MLS Listing,,Single Family Residential,5425 Miller Ave,Dallas,TX,75206,1000000,4,3.0,Vickery Place,3516,8015,1920,11,284,,Active,,,http://www.redfin.com/TX/Dallas/5425-Miller-Ave-75206/home/30807528,NTREIS,14042045,N,Y,32.8215149,-96.7764405
MLS Listing,,Single Family Residential,5835 Vickery Blvd,Dallas,TX,75206,989000,4,5.0,Delmar Heights,3157,6970,2018,11,313,,Active,,,http://www.redfin.com/TX/Dallas/5835-Vickery-Blvd-75206/home/30806945,NTREIS,14046043,N,Y,32.82315,-96.7664843
MLS Listing,,Single Family Residential,6267 Ellsworth Ave,Dallas,TX,75214,1099000,5,4.5,Bel Air,3669,7057,2017,11,300,,Active,,,http://www.redfin.com/TX/Dallas/6267-Ellsworth-Ave-75214/home/30820995,NTREIS,14022185,N,Y,32.8340066,-96.7555182
MLS Listing,,Single Family Residential,6629 Sondra Dr,Dallas,TX,75214,1150000,4,4.0,Lake Way Add,4579,8146,2007,11,251,,Active,,,http://www.redfin.com/TX/Dallas/6629-Sondra-Dr-75214/home/30824452,NTREIS,14045361,N,Y,32.8269042,-96.7460957
MLS Listing,,Single Family Residential,7815 Deer Trail Dr,Dallas,TX,75238,1150000,5,5.5,White Rock Forrest,3180,9104,2016,12,362,,Active,,,http://www.redfin.com/TX/Dallas/7815-Deer-Trail-Dr-75238/home/30871710,NTREIS,14042491,N,Y,32.8662534,-96.729225
MLS Listing,,Single Family Residential,3 Ashmere Ct,Dallas,TX,75225,999000,3,3.5,Glen Lakes 09,4093,6273,1996,12,244,575,Active,,,http://www.redfin.com/TX/Dallas/3-Ashmere-Ct-75225/home/31135870,NTREIS,14035449,N,Y,32.8740341,-96.7763777
MLS Listing,,Single Family Residential,4826 March Ave,Dallas,TX,75209,949000,4,3.5,Greenway Terrace,3484,6273,2019,12,272,,Active,,,http://www.redfin.com/TX/Dallas/4826-March-Ave-75209/home/30850626,NTREIS,14043889,N,Y,32.8466299,-96.827584
MLS Listing,,Single Family Residential,3 Knightwood Ct,Dallas,TX,75225,1149000,3,4.0,Glen Lakes 9,4149,6970,1994,12,277,580,Active,March-31-2019 01:00 PM,March-31-2019 03:00 PM,http://www.redfin.com/TX/Dallas/3-Knightwood-Ct-75225/home/31135877,NTREIS,14045240,N,Y,32.8745402,-96.7771517
MLS Listing,,Single Family Residential,7832 Southwestern Blvd,Dallas,TX,75225,949000,4,3.5,Caruth Hills 01,3460,10629,1950,12,274,,Active,,,http://www.redfin.com/TX/Dallas/7832-Southwestern-Blvd-75225/home/30871947,NTREIS,14042165,N,Y,32.8567675,-96.771755
MLS Listing,,Single Family Residential,7007 Inwood Rd,Dallas,TX,75209,1049000,3,2.0,Shannon Estates,1461,19994,1936,12,718,,Active,,,http://www.redfin.com/TX/Dallas/7007-Inwood-Rd-75209/home/30852853,NTREIS,14038541,N,Y,32.842636,-96.8220157
MLS Listing,,Single Family Residential,7318 Casa Loma Ave,Dallas,TX,75214,1125000,4,4.0,Gaston Terrace,3812,7362,2016,12,295,,Active,March-31-2019 02:00 PM,March-31-2019 04:00 PM,http://www.redfin.com/TX/Dallas/7318-Casa-Loma-Ave-75214/home/30818651,NTREIS,14035307,N,Y,32.8100351,-96.7320574
MLS Listing,,Single Family Residential,3931 Fairfax Ave,Dallas,TX,75209,1095000,4,4.5,Mockingbird Park Rev,3576,13896,1954,12,306,,Active,,,http://www.redfin.com/TX/Dallas/3931-Fairfax-Ave-75209/home/30816272,NTREIS,14044592,N,Y,32.8333928,-96.8202155
MLS Listing,,Single Family Residential,7735 Verbena Ct,Dallas,TX,75230,1099000,4,2.5,Verbena,2975,8756,2017,15,369,160,Active,,,http://www.redfin.com/TX/Dallas/7735-Verbena-Ct-75230/home/143838264,NTREIS,14041950,N,Y,32.8991788,-96.7748802
MLS Listing,,Condo/Co-op,3535 Gillespie St #404,Dallas,TX,75219,1079000,3,3.5,Plaza at Turtle Creek Residences,2670,136473,2000,15,404,2140,Active,March-30-2019 01:00 PM,March-30-2019 03:00 PM,http://www.redfin.com/TX/Dallas/3535-Gillespie-St-75219/unit-404/home/32259908,NTREIS,14042314,N,Y,32.8053299,-96.8079925
MLS Listing,,Single Family Residential,3922 Valley Ridge Rd,Dallas,TX,75220,1057000,4,3.0,Glenridge Estates,3687,7318,2016,16,287,,Active,March-31-2019 03:00 PM,March-31-2019 05:00 PM,http://www.redfin.com/TX/Dallas/3922-Valley-Ridge-Rd-75220/home/30914200,NTREIS,14043498,N,Y,32.8769219,-96.847726
MLS Listing,,Single Family Residential,4715 March Ave,Dallas,TX,75209,905000,4,3.5,Greenway Terrace,3414,6273,2018,16,265,,Active,,,http://www.redfin.com/TX/Dallas/4715-March-Ave-75209/home/30850669,NTREIS,14037120,N,Y,32.847067,-96.829454
MLS Listing,,Single Family Residential,8411 Midway Rd,Dallas,TX,75209,995000,4,3.5,Glover Midway Add,4260,8973,2007,16,234,,Active,March-31-2019 02:00 PM,March-31-2019 05:00 PM,http://www.redfin.com/TX/Dallas/8411-Midway-Rd-75209/home/30781069,NTREIS,14031882,N,Y,32.8543115,-96.840362
MLS Listing,,Single Family Residential,7007 Pemberton Dr,Dallas,TX,75230,950000,5,3.5,Brookshire Park,3953,16204,1964,16,240,,Active,,,http://www.redfin.com/TX/Dallas/7007-Pemberton-Dr-75230/home/30873237,NTREIS,14041571,N,Y,32.89215,-96.78435
MLS Listing,,Single Family Residential,11316 Valleydale Dr,Dallas,TX,75230,1149000,4,4.0,Hill Haven Heights Add 3rd Sec,3756,16814,1959,16,306,,Active,April-14-2019 02:00 PM,April-14-2019 04:00 PM,http://www.redfin.com/TX/Dallas/11316-Valleydale-Dr-75230/home/30989104,NTREIS,14032684,N,Y,32.9031976,-96.7721106
MLS Listing,,Single Family Residential,6615 Willow Ln,Dallas,TX,75230,1250000,3,4.5,Willow Chase,4586,17903,1997,17,273,83,Active,,,http://www.redfin.com/TX/Dallas/6615-Willow-Ln-75230/home/31150634,NTREIS,14041036,N,Y,32.9137042,-96.7912479
MLS Listing,,Townhouse,3625 Brown St,Dallas,TX,75219,1095000,3,3.5,Pecan Plaza,3734,3485,2001,17,293,100,Active,,,http://www.redfin.com/TX/Dallas/3625-Brown-St-75219/home/32212164,NTREIS,14036061,N,Y,32.80493,-96.811256
MLS Listing,,Vacant Land,5729 Caruth Blvd,Dallas,TX,75209,1200000,0,,Highway Estates,,18687,1946,18,,,Active,,,http://www.redfin.com/TX/Dallas/5729-Caruth-Blvd-75209/home/30880701,NTREIS,14040819,N,Y,32.8591231,-96.8139684
MLS Listing,,Single Family Residential,7037 Alpha Rd,Dallas,TX,75240,1085000,5,3.5,Northwood Hills Add Sec 01,4837,28009,1962,19,224,,Active,March-30-2019 01:00 PM,March-30-2019 03:00 PM,http://www.redfin.com/TX/Dallas/7037-Alpha-Rd-75240/home/31015568,NTREIS,14040893,N,Y,32.9325922,-96.7824233
MLS Listing,,Townhouse,4528 Roland Ave Unit B,Highland Park,TX,75219,999000,3,3.5,CHATEAU ROLAND CONDOS,3251,10411,2008,20,307,,Active,,,http://www.redfin.com/TX/Dallas/4528-Roland-Ave-75219/unit-B/home/58428189,NTREIS,14038294,N,Y,32.8224679,-96.8150455
MLS Listing,,Single Family Residential,11835 Brookhill Ln,Dallas,TX,75230,998000,4,4.5,Lake Forest Ph D,3640,4138,2000,20,274,492,Active,,,http://www.redfin.com/TX/Dallas/11835-Brookhill-Ln-75230/home/31150463,NTREIS,14039764,N,Y,32.9113885,-96.7815028
MLS Listing,,Single Family Residential,5504 Emerson Ave,Dallas,TX,75209,1100000,5,3.5,Greenway Crest Add 02,4342,9670,1951,20,253,,Active,March-31-2019 02:00 PM,March-31-2019 04:00 PM,http://www.redfin.com/TX/Dallas/5504-Emerson-Ave-75209/home/30851145,NTREIS,14036645,N,Y,32.8461706,-96.8163014
MLS Listing,,Single Family Residential,6 Duncannon Ct,Dallas,TX,75225,1050000,4,3.5,Glen Lakes 02 Rev,3610,6273,1981,21,291,575,Active,March-31-2019 01:00 PM,March-31-2019 03:00 PM,http://www.redfin.com/TX/Dallas/6-Duncannon-Ct-75225/home/30872573,NTREIS,14039832,N,Y,32.8788567,-96.7763777
MLS Listing,,Single Family Residential,9739 Mixon Dr,Dallas,TX,75220,999000,4,4.5,North Davilla Drive Estates,3788,7144,2019,21,264,,Active,March-31-2019 01:00 PM,March-31-2019 04:00 PM,http://www.redfin.com/TX/Dallas/9739-Mixon-Dr-75220/home/30911778,NTREIS,14039305,N,Y,32.8719906,-96.8529196
MLS Listing,,Townhouse,5858 Farquhar Ln,Dallas,TX,75209,1095000,3,3.0,Munger Square Rev,3321,4487,1977,22,330,200,Active,,,http://www.redfin.com/TX/Dallas/5858-Farquhar-Ln-75209/home/30880569,NTREIS,14038157,N,Y,32.8618202,-96.8127642
MLS Listing,,Single Family Residential,4328 Stanford Ave,University Park,TX,75225,1250000,3,2.5,Idlewild,2821,8407,1940,22,443,,Active,March-31-2019 01:00 PM,March-31-2019 03:00 PM,http://www.redfin.com/TX/Dallas/4328-Stanford-Ave-75225/home/32073383,NTREIS,14036081,N,Y,32.8533581,-96.8103364
MLS Listing,,Single Family Residential,2829 Reagan St,Dallas,TX,75219,1150000,4,4.5,Hawkins W E,3673,7275,2003,22,313,,Active,,,http://www.redfin.com/TX/Dallas/2829-Reagan-St-75219/home/30797036,NTREIS,14037875,N,Y,32.8093239,-96.8119693
MLS Listing,,Single Family Residential,4010 Dunhaven Rd,Dallas,TX,75220,1164000,5,5.5,Northway Estates,4015,10106,2019,22,290,,Active,March-31-2019 01:00 PM,March-31-2019 04:00 PM,http://www.redfin.com/TX/Dallas/4010-Dunhaven-Rd-75220/home/30910371,NTREIS,14031344,N,Y,32.8716222,-96.844424
MLS Listing,,Single Family Residential,4312 Emerson Ave,University Park,TX,75205,1249000,4,4.0,Methodist University,3756,7144,1937,22,333,,Active,,,http://www.redfin.com/TX/Dallas/4312-Emerson-Ave-75205/home/32091671,NTREIS,14037228,N,Y,32.846558,-96.8091853
MLS Listing,,Vacant Land,6027 Park Ln,Dallas,TX,75225,1200000,0,,Preston Estates,,18992,,22,,,Active,,,http://www.redfin.com/TX/Dallas/6027-Park-Ln-75225/home/30874654,NTREIS,14033958,N,Y,32.8738172,-96.8029908
MLS Listing,,Single Family Residential,2007 McMillan Ave,Dallas,TX,75206,985000,4,3.5,Ross Ave Annex,3520,7492,2018,23,280,,Active,March-30-2019 02:00 AM,March-30-2019 04:00 PM,http://www.redfin.com/TX/Dallas/2007-McMillan-Ave-75206/home/30809000,NTREIS,14038441,N,Y,32.814446,-96.7749344
MLS Listing,,Single Family Residential,7220 CLEMSON Dr,Dallas,TX,75214,919900,4,3.5,University Terrace Rev,4166,8015,2019,23,221,,Active,March-31-2019 02:00 PM,March-31-2019 04:00 PM,http://www.redfin.com/TX/Dallas/7220-Clemson-Dr-75214/home/30869886,NTREIS,14038191,N,Y,32.8516752,-96.7377108
MLS Listing,,Single Family Residential,7140 Royal Ln,Dallas,TX,75230,979000,3,3.5,HILLCREST HAVENS NO 2 REVISED,3631,26572,1957,23,270,,Active,,,http://www.redfin.com/TX/Dallas/7140-Royal-Ln-75230/home/30934139,NTREIS,14038269,N,Y,32.8944978,-96.781597
MLS Listing,,Single Family Residential,5023 Stanford Ave,Dallas,TX,75209,1029000,4,3.5,Briarwood 2nd Inst,4249,7449,2005,23,242,,Active,,,http://www.redfin.com/TX/Dallas/5023-Stanford-Ave-75209/home/30854766,NTREIS,14036184,N,Y,32.8535217,-96.8242346
MLS Listing,,Single Family Residential,4156 Beechwood Ln,Dallas,TX,75220,1100000,4,3.5,Glenridge Estates,4006,9017,2019,23,275,,Active,,,http://www.redfin.com/TX/Dallas/4156-Beechwood-Ln-75220/home/30910292,NTREIS,14037997,N,Y,32.8759201,-96.8403971
MLS Listing,,Single Family Residential,5525 Prestwick Ln,Dallas,TX,75252,1225000,3,3.5,Cambridge Place At Preston Tr Ph 02,4311,6882,2000,23,284,258,Active,March-31-2019 02:00 PM,March-31-2019 05:00 PM,http://www.redfin.com/TX/Dallas/5525-Prestwick-Ln-75252/home/31154170,NTREIS,14014124,N,Y,32.9847139,-96.8099178
MLS Listing,,Single Family Residential,2607 Hood St,Dallas,TX,75219,1200000,2,2.0,Oak Lawn Place,1014,1786,1932,23,1183,,Active,,,http://www.redfin.com/TX/Dallas/2607-Hood-St-75219/home/30794600,NTREIS,14037030,N,Y,32.8042877,-96.8109643
MLS Listing,,Single Family Residential,3600 Routh St,Dallas,TX,75219,1200000,2,2.0,Oak Lawn Place,1906,4487,1979,23,630,,Active,,,http://www.redfin.com/TX/Dallas/3600-Routh-St-75219/home/30794601,NTREIS,14037010,N,Y,32.8041141,-96.8111158
MLS Listing,,Vacant Land,645 E Tripp Rd,Sunnyvale,TX,75182,959250,0,,Samuel Coats,,561053,,24,,,Active,,,http://www.redfin.com/TX/Sunnyvale/645-E-Tripp-Rd-75182/home/32125067,NTREIS,14036708,N,Y,32.794308,-96.528576
MLS Listing,,Single Family Residential,6247 Northwood Rd,Dallas,TX,75225,969000,3,2.5,Preston Highlands 02,3049,16553,1941,27,318,,Active,,,http://www.redfin.com/TX/Dallas/6247-Northwood-Rd-75225/home/30874613,NTREIS,14031564,N,Y,32.8697864,-96.7979519
MLS Listing,,Single Family Residential,8507 Craighill Ave,Dallas,TX,75209,900000,4,3.5,Crest Haven Place,3000,10890,2019,28,300,,Active,,,http://www.redfin.com/TX/Dallas/8507-Craighill-Ave-75209/home/30855793,NTREIS,14033688,N,Y,32.8550339,-96.8439149
MLS Listing,,Single Family Residential,8510 Craighill Ave,Dallas,TX,75209,925000,4,3.5,Crest Haven Place,3000,10890,2019,28,308,,Active,,,http://www.redfin.com/TX/Dallas/8510-Craighill-Ave-75209/home/30855783,NTREIS,14033608,N,Y,32.8551491,-96.8434124
MLS Listing,,Single Family Residential,1905 Malone Cliff Vw,Dallas,TX,75208,1025000,3,2.5,Belmont Hotel Ph 02,3286,4182,2015,28,312,220,Active,,,http://www.redfin.com/TX/Dallas/1905-Malone-Cliff-Vw-75208/home/108272619,NTREIS,14030401,N,Y,32.7699992,-96.8377176
MLS Listing,,Condo/Co-op,2828 Hood St #1106,Dallas,TX,75219,1245000,3,3.5,Plaza At Turtle Creek Residence Ph,2662,136473,2000,29,468,2117,Active,,,http://www.redfin.com/TX/Dallas/2828-Hood-St-75219/unit-1106/home/32259969,NTREIS,14034052,N,Y,32.8055056,-96.8089307
MLS Listing,,Single Family Residential,3827 Van Ness Pl,Dallas,TX,75220,950000,4,3.5,North Davilla Drive Estates,3029,8059,2019,29,314,,Active,March-31-2019 01:00 PM,March-31-2019 04:00 PM,http://www.redfin.com/TX/Dallas/3827-Van-Ness-Pl-75220/home/30911818,NTREIS,14030325,N,Y,32.8727171,-96.8508217
MLS Listing,,Single Family Residential,6908 Forest Cove Cir,Dallas,TX,75230,1249000,3,3.5,Lake Forest PH A,4181,11195,2000,29,299,492,Active,March-31-2019 01:00 PM,March-31-2019 03:00 PM,http://www.redfin.com/TX/Dallas/6908-Forest-Cove-Cir-75230/home/31150663,NTREIS,14033704,N,Y,32.9103291,-96.7860844
MLS Listing,,Condo/Co-op,3211 Armstrong Ave #10,Dallas,TX,75205,955000,2,2.5,Armstrong Ave Condo,2691,40511,1981,29,355,610,Active,,,http://www.redfin.com/TX/Dallas/3211-Armstrong-Ave-75205/unit-10/home/147456348,NTREIS,14033735,N,Y,32.82159,-96.790828
MLS Listing,,Single Family Residential,12101 Madeleine Cir,Dallas,TX,75230,1150000,4,4.5,Dallas Project 01 East,4239,11805,1988,29,271,,Active,,,http://www.redfin.com/TX/Dallas/12101-Madeleine-Cir-75230/home/31150347,NTREIS,14032405,N,Y,32.9136038,-96.7955963
MLS Listing,,Condo/Co-op,3449 Milton Ave #5,University Park,TX,75205,914900,3,3.5,Hursey Add,2362,28096,2015,29,387,271,Active,,,http://www.redfin.com/TX/Dallas/3449-Milton-Ave-75205/unit-5/home/147561719,NTREIS,14033043,N,Y,32.848231,-96.789824
MLS Listing,,Single Family Residential,5311 Channelbrook Ct,Dallas,TX,75287,989000,5,4.5,Oaktree Ph Four,5244,9148,1997,30,189,121,Active,,,http://www.redfin.com/TX/Dallas/5311-Channelbrook-Ct-75287/home/32237574,NTREIS,14029082,N,Y,33.0016502,-96.8177247
MLS Listing,,Single Family Residential,6338 Lakeshore Dr,Dallas,TX,75214,1149000,4,4.0,Lakewood Heights,3641,7492,2016,30,316,,Active,,,http://www.redfin.com/TX/Dallas/6338-Lakeshore-Dr-75214/home/30810154,NTREIS,14030096,N,Y,32.818848,-96.7543549
MLS Listing,,Single Family Residential,3509 Edgewater St,Dallas,TX,75205,1250000,3,3.0,Northern Heights,3595,4225,2015,30,348,,Active,,,http://www.redfin.com/TX/Dallas/3509-Edgewater-St-75205/home/30809255,NTREIS,14032759,N,Y,32.8200938,-96.7947593
MLS Listing,,Single Family Residential,8 Stonecourt Dr,Dallas,TX,75225,945000,2,3.5,Caruth Homeplace 6th Edition,3156,6011,1984,30,299,267,Active,,,http://www.redfin.com/TX/Dallas/8-Stonecourt-Dr-75225/home/31135134,NTREIS,14032720,N,Y,32.859904,-96.7753175
MLS Listing,,Single Family Residential,4011 Parkside Dr,Dallas,TX,75209,969000,5,5.5,Midway Manor Add,3781,9104,2014,31,256,,Active,April-14-2019 01:00 PM,April-14-2019 03:00 PM,http://www.redfin.com/TX/Dallas/4011-Parkside-Dr-75209/home/30855600,NTREIS,14030275,N,Y,32.8522175,-96.8416953
MLS Listing,,Single Family Residential,3853 Van Ness Ln,Dallas,TX,75220,1150000,4,3.5,North Davilla Drive Estates,4216,10542,2017,32,273,,Active,,,http://www.redfin.com/TX/Dallas/3853-Van-Ness-Ln-75220/home/30911825,NTREIS,14028740,N,Y,32.8726912,-96.8495167
MLS Listing,,Single Family Residential,13 Saint Laurent Pl,Dallas,TX,75225,1175000,2,2.0,Caruth Homeplace,2844,,1980,33,413,292,Active,April-14-2019 03:00 PM,April-14-2019 05:00 PM,http://www.redfin.com/TX/Dallas/13-St-Laurent-Pl-75225/home/30871827,NTREIS,13997935,N,Y,32.858391,-96.77597
MLS Listing,,Single Family Residential,7707 Idlewood Ln,Dallas,TX,75230,928700,4,3.5,Hill Haven Heights 01,3683,18252,1994,34,252,,Active,,,http://www.redfin.com/TX/Dallas/7707-Idlewood-Ln-75230/home/30989214,NTREIS,14029811,N,Y,32.9041484,-96.7759007
MLS Listing,,Multi-Family (2-4 Unit),5036 W University Blvd,Dallas,TX,75209,925000,3,3.0,Greenway Village,3504,8494,1951,36,264,,Active,,,http://www.redfin.com/TX/Dallas/5036-W-University-Blvd-75209/home/30852888,NTREIS,14029206,N,Y,32.844683,-96.824684
MLS Listing,,Single Family Residential,3207 Mockingbird Ln,Highland Park,TX,75205,1149975,4,4.0,Highland Park,4358,9017,1924,36,264,,Active,,,http://www.redfin.com/TX/Dallas/3207-Mockingbird-Ln-75205/home/32064127,NTREIS,14019336,N,Y,32.8362857,-96.7839295
MLS Listing,,Single Family Residential,12216 Park Forest Dr,Dallas,TX,75230,1000000,4,3.5,Lake Forest Ph F,3952,5358,2002,36,253,492,Active,,,http://www.redfin.com/TX/Dallas/12216-Park-Forest-Dr-75230/home/32196050,NTREIS,14028929,N,Y,32.9149202,-96.7818375
MLS Listing,,Single Family Residential,5419 Richmond Ave,Dallas,TX,75206,1199990,5,5.5,Vickery Place,4684,7187,2019,36,256,,Active,,,http://www.redfin.com/TX/Dallas/5419-Richmond-Ave-75206/home/30807696,NTREIS,14028366,N,Y,32.8164819,-96.7766288
MLS Listing,,Single Family Residential,5747 Vanderbilt,Dallas,TX,75206,1250000,4,5.5,Geneva Heights,4453,8756,2019,36,281,,Active,,,http://www.redfin.com/TX/Dallas/5747-Vanderbilt-Ave-75206/home/30812005,NTREIS,14028804,N,Y,32.8251832,-96.7681437
MLS Listing,,Single Family Residential,4827 Cowan Ave,Dallas,TX,75209,1200000,3,3.5,Greenway Terrace,3328,7492,2019,36,361,,Active,,,http://www.redfin.com/TX/Dallas/4827-Cowan-Ave-75209/home/30850633,NTREIS,14027287,N,Y,32.84619,-96.827579
MLS Listing,,Single Family Residential,7131 Cornelia Ln,Dallas,TX,75214,995000,3,3.0,North Ridge Estates #5,3216,11195,1953,36,309,,Active,March-31-2019 01:00 PM,March-31-2019 03:00 PM,http://www.redfin.com/TX/Dallas/7131-Cornelia-Ln-75214/home/30824773,NTREIS,14028423,N,Y,32.830085,-96.7363742
MLS Listing,,Single Family Residential,9169 Vintage Oaks Ct,Dallas,TX,75231,959000,5,4.0,Bordeaux Lake Highlands,4573,8843,2015,36,210,71,Active,March-31-2019 01:00 PM,March-31-2019 03:00 PM,http://www.redfin.com/TX/Dallas/9169-Vintage-Oaks-Ct-75231/home/106431057,NTREIS,14018855,N,Y,32.8847846,-96.7348164
MLS Listing,,Single Family Residential,6826 La Vista Dr,Dallas,TX,75214,1185000,5,3.5,Gastonwood 05,4263,7579,2012,36,278,,Active,,,http://www.redfin.com/TX/Dallas/6826-La-Vista-Dr-75214/home/30819492,NTREIS,14018860,N,Y,32.8113079,-96.742855
MLS Listing,,Single Family Residential,8185 Santa Clara,Dallas,TX,75218,1095000,4,3.5,Forest Hills,3909,19166,1940,37,280,,Active,,,http://www.redfin.com/TX/Dallas/8185-Santa-Clara-Dr-75218/home/30860286,NTREIS,14019051,N,Y,32.8117426,-96.7184402
MLS Listing,,Condo/Co-op,3535 Gillespie St #303,Dallas,TX,75219,949000,3,4.0,Plaza At Turtle Creek Residence Ph,2673,136473,2000,37,355,2043,Active,,,http://www.redfin.com/TX/Dallas/3535-Gillespie-St-75219/unit-303/home/32253527,NTREIS,14028171,N,Y,32.8053299,-96.8079925
MLS Listing,,Single Family Residential,17110 Spanky Pl,Dallas,TX,75248,989000,5,5.5,Highland Of Mckamy 02,5460,19123,1978,37,181,13,Active,March-31-2019 01:00 PM,March-31-2019 03:00 PM,http://www.redfin.com/TX/Dallas/17110-Spanky-Pl-75248/home/31113362,NTREIS,14007377,N,Y,32.9830931,-96.7874024
MLS Listing,,Single Family Residential,7921 Goforth Rd,Dallas,TX,75238,1150000,5,3.5,Goforth Road,3851,48221,1978,38,299,,Active,,,http://www.redfin.com/TX/Dallas/7921-Goforth-Rd-75238/home/31152475,NTREIS,14020526,N,Y,32.8686549,-96.728598
MLS Listing,,Single Family Residential,7307 Azalea Ln,Dallas,TX,75230,975000,4,3.5,Meyers & Rosser,3528,20560,1967,38,276,,Active,,,http://www.redfin.com/TX/Dallas/7307-Azalea-Ln-75230/home/30990751,NTREIS,14027585,N,Y,32.8981434,-96.779641
MLS Listing,,Single Family Residential,4529 Livingston Ave,Highland Park,TX,75205,1090000,2,2.5,Highland Park West 04 Instl,2109,7405,1925,38,517,,Active,,,http://www.redfin.com/TX/Dallas/4529-Livingston-Ave-75205/home/32068917,NTREIS,14024895,N,Y,32.834611,-96.814481
MLS Listing,,Single Family Residential,3846 Lively Pkwy,Dallas,TX,75220,929000,4,3.5,Glenridge Estates,3230,10454,2018,38,288,,Active,March-31-2019 03:30 PM,March-31-2019 05:00 PM,http://www.redfin.com/TX/Dallas/3846-Lively-Cir-75220/home/30910871,NTREIS,14027393,N,Y,32.8734658,-96.8512863
MLS Listing,,Single Family Residential,7239 Lakewood Blvd,Dallas,TX,75214,989000,3,3.0,Monticello,2803,12110,1941,38,353,,Active,,,http://www.redfin.com/TX/Dallas/7239-Lakewood-Blvd-75214/home/30820438,NTREIS,14014125,N,Y,32.8237355,-96.7336566
MLS Listing,,Single Family Residential,5454 Belmont Ave,Dallas,TX,75206,994000,4,5.0,Vickey Place,3561,6970,2019,39,279,,Active,,,http://www.redfin.com/TX/Dallas/5454-Belmont-Ave-75206/home/30807715,NTREIS,14025703,N,Y,32.8170252,-96.7751018
MLS Listing,,Single Family Residential,5510 Goodwin Ave,Dallas,TX,75206,999000,4,4.5,Vickery Place,3765,8015,2013,40,265,,Active,,,http://www.redfin.com/TX/Dallas/5510-Goodwin-Ave-75206/home/30806967,NTREIS,14025758,N,Y,32.8232852,-96.7742071
MLS Listing,,Single Family Residential,8828 Mccraw Dr,Dallas,TX,75209,1199000,2,3.5,Munger Square Rev,4295,4138,1974,40,279,180,Active,,,http://www.redfin.com/TX/Dallas/8828-McCraw-Dr-75209/home/30880577,NTREIS,14025569,N,Y,32.8613977,-96.8124712
MLS Listing,,Vacant Land,5811 Waggoner Dr,Dallas,TX,75230,950000,0,,Meaders Lane,,17772,,40,,,Active,,,http://www.redfin.com/TX/Dallas/5811-Waggoner-Dr-75230/home/30877661,NTREIS,14025625,N,Y,32.887939,-96.808192
MLS Listing,,Single Family Residential,2309 Boll St,Dallas,TX,75204,999000,3,3.5,Tophi,3379,3093,1996,42,296,,Active,March-31-2019 03:00 PM,March-31-2019 05:00 PM,http://www.redfin.com/TX/Dallas/2309-Boll-St-75204/home/31122524,NTREIS,14023595,N,Y,32.7953957,-96.7992844
MLS Listing,,Single Family Residential,8335 Forest Hills Blvd,Dallas,TX,75218,1150000,4,4.5,Forest Hills,4855,25003,1995,43,237,,Active,,,http://www.redfin.com/TX/Dallas/8335-Forest-Hills-Blvd-75218/home/30860202,NTREIS,14024581,N,Y,32.8156723,-96.7167474
MLS Listing,,Multi-Family (2-4 Unit),4311 Glenwick Ln,University Park,TX,75205,938000,6,4.0,Highland Park High School,3172,7144,1967,43,296,,Active,,,http://www.redfin.com/TX/Dallas/4311-Glenwick-Ln-75205/home/32071709,NTREIS,14024599,N,Y,32.8470938,-96.8089947
MLS Listing,,Single Family Residential,236 Summer Tanager Ln,Heath,TX,75032,995000,5,6.0,Shepherds Highlands Ph II,5948,35284,2014,43,167,142,Active,,,http://www.redfin.com/TX/Heath/236-Summer-Tanager-Ln-75032/home/33937731,NTREIS,14017653,N,Y,32.8652556,-96.4784452
MLS Listing,,Single Family Residential,7730 Southwestern Blvd,Dallas,TX,75225,1200000,4,3.0,Caruth Hills 1,3581,13896,1946,43,335,,Active,,,http://www.redfin.com/TX/Dallas/7730-Southwestern-Blvd-75225/home/30871409,NTREIS,14024519,N,Y,32.8567578,-96.7735539
MLS Listing,,Vacant Land,5915 Park Ln,Dallas,TX,75225,995000,0,,El Parado,,17076,,43,,,Active,,,http://www.redfin.com/TX/Dallas/5915-Park-Ln-75225/home/30879982,NTREIS,14023469,N,Y,32.8742807,-96.8057531
MLS Listing,,Single Family Residential,5321 Drane Dr,Dallas,TX,75209,1085000,3,3.0,Greenway Parks,3111,13983,1952,43,349,89,Active,March-31-2019 02:00 PM,March-31-2019 04:00 PM,http://www.redfin.com/TX/Dallas/5321-Drane-Dr-75209/home/30853838,NTREIS,14023479,N,Y,32.8428682,-96.8205714
MLS Listing,,Single Family Residential,6055 Penrose Ave,Dallas,TX,75206,1099000,5,3.5,Ballard Burghers,3464,7187,2016,43,317,,Active,,,http://www.redfin.com/TX/Dallas/6055-Penrose-Ave-75206/home/30821380,NTREIS,14018290,N,Y,32.8326955,-96.7619251
MLS Listing,,Single Family Residential,8408 Santa Clara Dr,Dallas,TX,75218,949000,3,3.5,Forest Hills,3560,24829,1998,44,267,,Active,,,http://www.redfin.com/TX/Dallas/8408-Santa-Clara-Dr-75218/home/30860099,NTREIS,14023603,N,Y,32.8155259,-96.713341
MLS Listing,,Vacant Land,8611 Lakemont Dr,Dallas,TX,75209,975000,0,,Lakemont Add,,32539,1936,44,,,Active,,,http://www.redfin.com/TX/Dallas/8611-Lakemont-Dr-75209/home/30855962,NTREIS,14022075,N,Y,32.8561875,-96.8432658
MLS Listing,,Single Family Residential,10221 E Lake Highlands Dr,Dallas,TX,75218,950000,3,3.5,Enclave-Northcliff Add,3353,13068,2011,44,283,,Active,,,http://www.redfin.com/TX/Dallas/10221-E-Lake-Highlands-Dr-75218/home/40347738,NTREIS,14022398,N,Y,32.852616,-96.7030602
MLS Listing,,Single Family Residential,6811 Gateridge Dr,Dallas,TX,75254,965000,4,5.0,Northwood Hills Estates,6002,31625,1966,45,161,,Active,March-31-2019 02:00 PM,March-31-2019 04:00 PM,http://www.redfin.com/TX/Dallas/6811-Gateridge-Dr-75254/home/31073367,NTREIS,14017584,N,Y,32.9460081,-96.787507
MLS Listing,,Condo/Co-op,2025 Woodall Rodgers #22,Dallas,TX,75201,1245000,2,2.5,Parkside Residential Condo,2412,45128,2014,45,516,1915,Active,March-31-2019 03:30 PM,March-31-2019 05:00 PM,http://www.redfin.com/TX/Dallas/2025-Woodall-Rodgers-Fwy-75201/unit-22/home/110137281,NTREIS,14019449,N,Y,32.7899758,-96.8017802
MLS Listing,,Single Family Residential,4531 Bluffview Blvd,Dallas,TX,75209,1195000,3,3.0,Bluffview Estates,3810,23087,1937,46,314,,Active,,,http://www.redfin.com/TX/Dallas/4531-Bluffview-Blvd-75209/home/30854508,NTREIS,14008803,N,Y,32.8574841,-96.8323782
MLS Listing,,Single Family Residential,5829 Belmont Ave,Dallas,TX,75206,1000000,4,3.0,Belmont Sub,3286,10280,1918,46,304,,Active,,,http://www.redfin.com/TX/Dallas/5829-Belmont-Ave-75206/home/30806415,NTREIS,14021283,N,Y,32.8177177,-96.7667562
MLS Listing,,Condo/Co-op,3601 Turtle Creek Blvd #504,Dallas,TX,75219,1239000,2,3.0,Gold Crest Condo,2070,48569,1964,47,599,1878,Active,,,http://www.redfin.com/TX/Dallas/3601-Turtle-Creek-Blvd-75219/unit-504/home/30795245,NTREIS,14020861,N,Y,32.8113849,-96.802148
MLS Listing,,Single Family Residential,4033 Wycliff Ave,Dallas,TX,75219,1069000,3,3.5,University Place,3376,7187,1925,48,317,,Active,,,http://www.redfin.com/TX/Dallas/4033-Wycliff-Ave-75219/home/32256318,NTREIS,14019945,N,Y,32.8199341,-96.8071971
MLS Listing,,Single Family Residential,7123 Coronado Ave,Dallas,TX,75214,1199000,4,5.0,Coronado Hills,4479,7057,2015,49,268,,Active,April-14-2019 03:00 PM,April-14-2019 05:00 PM,http://www.redfin.com/TX/Dallas/7123-Coronado-Ave-75214/home/30818550,NTREIS,14016138,N,Y,32.8112179,-96.7347436
MLS Listing,,Single Family Residential,4919 Sea Pines Dr,Dallas,TX,75287,995000,5,5.5,Bent Tree North #2,6456,12720,2002,49,154,33,Active,,,http://www.redfin.com/TX/Dallas/4919-Sea-Pines-Dr-75287/home/31847858,NTREIS,14016354,N,Y,32.9951123,-96.8235857
MLS Listing,,Single Family Residential,2729 Amherst Ave,University Park,TX,75225,929500,2,1.0,Caruth Hills 04,1580,8407,1941,50,588,,Active,,,http://www.redfin.com/TX/Dallas/2729-Amherst-Ave-75225/home/32056884,NTREIS,14020255,N,Y,32.8517694,-96.7749763
MLS Listing,,Single Family Residential,6863 Carolyncrest Dr,Dallas,TX,75214,1189000,4,4.0,North Ridge Estates Rev,3150,12153,1959,50,377,,Active,March-31-2019 01:00 PM,March-31-2019 03:00 PM,http://www.redfin.com/TX/Dallas/6863-Carolyncrest-Dr-75214/home/30824970,NTREIS,14019749,N,Y,32.8264411,-96.7416633
MLS Listing,,Single Family Residential,4229 Amherst Ave,University Park,TX,75225,1249000,4,3.5,Idlewild,3434,8407,1937,50,364,,Active,March-31-2019 02:00 PM,March-31-2019 04:00 PM,http://www.redfin.com/TX/Dallas/4229-Amherst-Ave-75225/home/32071571,NTREIS,14018827,N,Y,32.8518609,-96.8080342
MLS Listing,,Single Family Residential,5209 Vickery Blvd,Dallas,TX,75206,1099900,5,4.5,Vickery Place Add,4406,4269,2019,51,250,,Active,,,http://www.redfin.com/TX/Dallas/5209-Vickery-Blvd-75206/home/30807541,NTREIS,14019395,N,Y,32.8225885,-96.7818839
MLS Listing,,Single Family Residential,7314 Inglecliff Dr,Dallas,TX,75230,1195000,4,4.0,The Meadows,2646,12807,1964,51,452,,Active,March-31-2019 01:00 PM,March-31-2019 03:00 PM,http://www.redfin.com/TX/Dallas/7314-Inglecliff-Dr-75230/home/30873301,NTREIS,14019021,N,Y,32.8832362,-96.7764614
MLS Listing,,Single Family Residential,5833 Portsmouth Ln,Dallas,TX,75252,1150000,4,5.0,Cambridge Place At Preston Trail,4591,6055,1997,51,250,250,Active,,,http://www.redfin.com/TX/Dallas/5833-Portsmouth-Ln-75252/home/31154186,NTREIS,14018919,N,Y,32.9865013,-96.8076575
MLS Listing,,Single Family Residential,5827 Royal Crest Dr,Dallas,TX,75230,950000,5,3.5,Northaven Park,3928,17729,1954,51,242,,Active,March-31-2019 01:00 PM,March-31-2019 03:00 PM,http://www.redfin.com/TX/Dallas/5827-Royal-Crest-Dr-75230/home/30926188,NTREIS,14018324,N,Y,32.8993384,-96.8093517
MLS Listing,,Single Family Residential,605 Kessler Reserve Ct,Dallas,TX,75208,1099000,3,3.0,Kessler Reserve,3621,11500,2016,52,304,63,Active,,,http://www.redfin.com/TX/Dallas/605-Kessler-Reserve-Ct-75208/home/105997348,NTREIS,14017071,N,Y,32.7562346,-96.8319804
MLS Listing,,Single Family Residential,6834 Mimosa Ln,Dallas,TX,75230,1199000,5,3.5,Pemberton Add,4236,11413,2007,52,283,,Active,March-30-2019 12:00 PM,March-30-2019 02:00 PM,http://www.redfin.com/TX/Dallas/6834-Mimosa-Ln-75230/home/30875553,NTREIS,14017963,N,Y,32.8829275,-96.7870049
MLS Listing,,Single Family Residential,1007 Moreland Ave,Dallas,TX,75204,945000,4,4.5,A C Ardreys,4012,6316,1902,52,236,,Active,,,http://www.redfin.com/TX/Dallas/1007-Moreland-Ave-75204/home/30793876,NTREIS,14017901,N,Y,32.7980178,-96.7736794
MLS Listing,,Single Family Residential,24 Vanguard Way,Dallas,TX,75243,1095000,3,3.0,Urban Reserve,2429,11456,2014,53,451,167,Active,,,http://www.redfin.com/TX/Dallas/24-Vanguard-Way-75243/home/30763662,NTREIS,14011986,N,Y,32.9028998,-96.7634344
MLS Listing,,Condo/Co-op,3510 Turtle Creek Blvd Unit 5E,Dallas,TX,75219,925000,2,3.5,Claridge Condos,2811,83984,1984,57,329,1919,Active,,,http://www.redfin.com/TX/Dallas/3510-Turtle-Creek-Blvd-75219/unit-5E/home/31166480,NTREIS,14015488,N,Y,32.8092538,-96.8017407
MLS Listing,,Single Family Residential,3827 Valley Ridge Rd,Dallas,TX,75220,1029000,5,4.5,Valley Ridge,3953,7841,2019,57,260,,Active,March-31-2019 01:00 PM,March-31-2019 04:00 PM,http://www.redfin.com/TX/Dallas/3827-Valley-Ridge-Rd-75220/home/30914499,NTREIS,14015111,N,Y,32.8773126,-96.8501971
MLS Listing,,Single Family Residential,9 Meadowlake Dr,Heath,TX,75032,930000,6,7.0,Meadow Lake Village,7000,44867,1983,57,133,2,Active,,,http://www.redfin.com/TX/Heath/9-Meadowlake-Dr-75032/home/33914934,NTREIS,14015195,N,Y,32.849948,-96.4898352
MLS Listing,,Single Family Residential,12131 Lueders Ln,Dallas,TX,75230,929000,3,3.5,Lake Forest Ph F,3716,5489,2000,57,250,492,Active,March-31-2019 02:00 PM,March-31-2019 04:00 PM,http://www.redfin.com/TX/Dallas/12131-Lueders-Ln-75230/home/32196109,NTREIS,14013480,N,Y,32.9142796,-96.779913
MLS Listing,,Single Family Residential,4803 March Ave,Dallas,TX,75209,989500,4,4.0,Greenway Terrace,3724,8494,2018,57,266,,Active,,,http://www.redfin.com/TX/Dallas/4803-March-Ave-75209/home/30850674,NTREIS,14012583,N,Y,32.8470152,-96.8285544
MLS Listing,,Single Family Residential,4032 Colgate Ave Unit B,University Park,TX,75225,1085000,3,2.5,University Heights 05,3552,6970,2001,58,305,,Active,April-14-2019 02:00 PM,April-14-2019 04:00 PM,http://www.redfin.com/TX/Dallas/4032-Colgate-Ave-75225/unit-B/home/30736820,NTREIS,14012536,N,Y,32.8599999,-96.8039115
MLS Listing,,Single Family Residential,5323 Brandenburg Ct,Dallas,TX,75287,1198000,5,5.5,Oaktree Ph Four,5077,9583,2000,58,236,242,Active,March-31-2019 02:00 PM,March-31-2019 04:00 PM,http://www.redfin.com/TX/Dallas/5323-Brandenburg-Ct-75287/home/32101430,NTREIS,14013380,N,Y,33.0025348,-96.8171595
MLS Listing,,Single Family Residential,1910 Kessler Pkwy,Dallas,TX,75208,995000,5,3.5,Kessler Park,3113,18426,1948,58,320,,Active,,,http://www.redfin.com/TX/Dallas/1910-Kessler-Pkwy-75208/home/30836434,NTREIS,14012800,N,Y,32.7639458,-96.8404704
MLS Listing,,Condo/Co-op,3510 Turtle Creek Blvd Unit 4D,Dallas,TX,75219,999500,2,3.5,Claridge Condos,2943,83984,1984,59,340,1913,Active,,,http://www.redfin.com/TX/Dallas/3510-Turtle-Creek-Blvd-75219/unit-4D/home/146041739,NTREIS,14013358,N,Y,32.8092538,-96.8017407
MLS Listing,,Single Family Residential,3838 Cedarbrush Dr,Dallas,TX,75229,1075000,4,4.5,Midway Hills 06 01 Inst,4000,16117,1962,60,269,,Active,,,http://www.redfin.com/TX/Dallas/3838-Cedarbrush-Dr-75229/home/30928236,NTREIS,14003412,N,Y,32.9077356,-96.8500527
MLS Listing,,Single Family Residential,12003 Timberlake Ct,Dallas,TX,75230,900000,3,2.5,Timberlake Gardens,3521,4008,1978,60,256,317,Active,March-30-2019 02:00 PM,March-30-2019 04:00 PM,http://www.redfin.com/TX/Dallas/12003-Timberlake-Ct-75230/home/31018795,NTREIS,14000408,N,Y,32.9124098,-96.8010643
MLS Listing,,Single Family Residential,17911 Cedar Creek Canyon Dr,Dallas,TX,75252,1139000,5,5.0,Prestonwood West Sec One Ph III,6087,13068,1984,63,187,9,Active,March-30-2019 12:00 PM,March-30-2019 02:00 PM,http://www.redfin.com/TX/Dallas/17911-Cedar-Creek-Canyon-Dr-75252/home/31923866,NTREIS,14010338,N,Y,32.9965078,-96.8108596
MLS Listing,,Single Family Residential,5138 Vanderbilt Ave,Dallas,TX,75206,955000,4,3.0,Greenland Hills Hill Top Sec,3100,7231,2019,64,308,,Active,March-31-2019 01:00 PM,March-31-2019 04:00 PM,http://www.redfin.com/TX/Dallas/5138-Vanderbilt-Ave-75206/home/30812043,NTREIS,13999406,N,Y,32.8242736,-96.7830091
MLS Listing,,Single Family Residential,4915 Purdue Ave,Dallas,TX,75209,1250000,4,5.0,Rector Place 02,4976,7318,2009,64,251,,Active,,,http://www.redfin.com/TX/Dallas/4915-Purdue-Ave-75209/home/30788120,NTREIS,13997048,N,Y,32.8544811,-96.8260655
MLS Listing,,Single Family Residential,6840 Coronado Ave,Dallas,TX,75214,1200000,4,4.5,Gastonwood Add 4,4200,8712,2019,64,286,,Active,,,http://www.redfin.com/TX/Dallas/6840-Coronado-Ave-75214/home/30819476,NTREIS,14010574,N,Y,32.8122236,-96.7421442
MLS Listing,,Single Family Residential,4434 Rawlins St,Dallas,TX,75219,1175000,4,3.5,Perry Heights Add,4948,18731,1936,64,237,,Active,,,http://www.redfin.com/TX/Dallas/4434-Rawlins-St-75219/home/30810409,NTREIS,14005181,N,Y,32.8183165,-96.8143548
MLS Listing,,Single Family Residential,8018 Glen Albens Cir,Dallas,TX,75225,1095000,3,4.0,Glen Lakes 02 Rev,5631,7144,1983,64,194,575,Active,,,http://www.redfin.com/TX/Dallas/8018-Glen-Albens-Cir-75225/home/30872584,NTREIS,13999548,N,Y,32.8772286,-96.7772981
MLS Listing,,Single Family Residential,5006 Linnet Ln,Dallas,TX,75209,924900,4,3.5,Shannon Estates,4316,7754,2018,64,214,,Active,,,http://www.redfin.com/TX/Dallas/5006-Linnet-Ln-75209/home/30881460,NTREIS,14010313,N,Y,32.8430815,-96.8259093
MLS Listing,,Single Family Residential,4430 Sexton Ln,Dallas,TX,75229,979000,4,4.5,Northcrest Rev,4569,6752,2018,64,214,,Active,,,http://www.redfin.com/TX/Dallas/4430-Sexton-Ln-75229/home/30878852,NTREIS,14009354,N,Y,32.886535,-96.833287
MLS Listing,,Single Family Residential,7128 Wildgrove Ave,Dallas,TX,75214,1150000,4,4.5,Lakeshore Hills Rev,2834,7754,2006,65,406,,Active,,,http://www.redfin.com/TX/Dallas/7128-Wildgrove-Ave-75214/home/30818922,NTREIS,14009953,N,Y,32.8160275,-96.7346391
MLS Listing,,Single Family Residential,3918 Rochelle Dr,Dallas,TX,75220,1175000,4,4.5,Glenridge Estates,4263,6273,2019,65,276,,Active,March-30-2019 03:00 PM,March-30-2019 05:00 PM,http://www.redfin.com/TX/Dallas/3918-Rochelle-Dr-75220/home/30910952,NTREIS,14009846,N,Y,32.8745302,-96.8505741
MLS Listing,,Single Family Residential,4827 Stanford Ave,Dallas,TX,75209,1049000,4,3.5,Rector Place Add 02,4202,7318,2006,65,250,,Active,March-31-2019 02:00 PM,March-31-2019 04:00 PM,http://www.redfin.com/TX/Dallas/4827-Stanford-Ave-75209/home/30854538,NTREIS,14008856,N,Y,32.8534724,-96.8267467
MLS Listing,,Single Family Residential,11053 Strayhorn Dr,Dallas,TX,75228,975000,5,5.0,Saint Andrews,6918,39596,1969,65,141,,Active,,,http://www.redfin.com/TX/Dallas/11053-Strayhorn-Dr-75228/home/31009034,NTREIS,14007146,N,Y,32.8378664,-96.6510756
MLS Listing,,Single Family Residential,6929 Prosper St,Dallas,TX,75209,1045000,3,3.5,Mount Vernon Heights,3033,6795,2018,65,345,,Active,,,http://www.redfin.com/TX/Dallas/6929-Prosper-St-75209/home/30855208,NTREIS,14003155,N,Y,32.8430716,-96.828704
MLS Listing,,Single Family Residential,6923 Charade Dr,Dallas,TX,75214,1145000,4,4.5,Lakewood North Estates,4263,7710,2013,65,269,,Active,,,http://www.redfin.com/TX/Dallas/6923-Charade-Dr-75214/home/30825185,NTREIS,14008591,N,Y,32.8365237,-96.737294
MLS Listing,,Single Family Residential,5429 Castlewood Rd,Dallas,TX,75229,1145000,4,3.5,Russwood Acres 7th INST 2nd SEC,3822,23087,1965,66,300,,Active,March-31-2019 02:00 PM,March-31-2019 04:00 PM,http://www.redfin.com/TX/Dallas/5429-Castlewood-Rd-75229/home/30926265,NTREIS,14007180,N,Y,32.9003966,-96.8140416
MLS Listing,,Townhouse,3451 Normandy Ave,University Park,TX,75205,949500,5,4.0,Stinsons Rev,3750,4182,2005,67,253,,Active,,,http://www.redfin.com/TX/Dallas/3451-Normandy-Ave-75205/home/30758814,NTREIS,14007986,N,Y,32.838411,-96.789515
MLS Listing,,Condo/Co-op,2025 Woodall Rodgers #31,Dallas,TX,75201,1250000,2,2.5,Parkside Residential Condominium,2185,125714,2014,67,572,1613,Active,,,http://www.redfin.com/TX/Dallas/2025-Woodall-Rodgers-Fwy-75201/unit-31/home/143838387,NTREIS,14002737,N,Y,32.7899758,-96.8017802
MLS Listing,,Single Family Residential,6935 Shook Ave,Dallas,TX,75214,975000,3,2.5,Pasadena Add Sec 01,2594,10367,1926,71,376,,Active,,,http://www.redfin.com/TX/Dallas/6935-Shook-Ave-75214/home/30819594,NTREIS,14005067,N,Y,32.8165786,-96.7379701
MLS Listing,,Single Family Residential,34 Vanguard Way,Dallas,TX,75243,1150000,3,2.5,Urban Reserve Add,2582,9322,2016,71,445,167,Active,,,http://www.redfin.com/TX/Dallas/34-Vanguard-Way-75243/home/30763666,NTREIS,13987529,N,Y,32.9023495,-96.763891
MLS Listing,,Single Family Residential,7131 Greenbrook Ln,Dallas,TX,75214,1069500,4,3.5,Green Cove Estates,2884,16117,1956,71,371,,Active,March-31-2019 01:00 PM,March-31-2019 04:00 PM,http://www.redfin.com/TX/Dallas/7131-Greenbrook-Ln-75214/home/30845441,NTREIS,14005068,N,Y,32.8449415,-96.7357152
MLS Listing,,Single Family Residential,9836 Mixon Dr,Dallas,TX,75220,930000,4,4.0,Marsh Lane Rev,4057,8015,2018,71,229,,Active,,,http://www.redfin.com/TX/Dallas/9836-Mixon-Dr-75220/home/30912341,NTREIS,14002726,N,Y,32.8741154,-96.8521447
MLS Listing,,Single Family Residential,11714 Parwen Dr,Dallas,TX,75230,950000,3,3.0,Forest Place,4704,15377,1981,72,202,64,Active,,,http://www.redfin.com/TX/Dallas/11714-Parwen-Dr-75230/home/31015930,NTREIS,14003251,N,Y,32.9084084,-96.7956251
MLS Listing,,Single Family Residential,6708 Vanderbilt Ave,Dallas,TX,75214,1075000,5,4.5,Lake Way Add,4359,7797,2004,72,247,,Active,,,http://www.redfin.com/TX/Dallas/6708-Vanderbilt-Ave-75214/home/30824476,NTREIS,14000457,N,Y,32.8256107,-96.7456775
MLS Listing,,Single Family Residential,7306 Colgate Ave,Dallas,TX,75225,1199000,4,4.0,Caruth Hills 07,2866,9453,1948,72,418,,Active,,,http://www.redfin.com/TX/Dallas/7306-Colgate-Ave-75225/home/30872155,NTREIS,14004339,N,Y,32.8601142,-96.78121
MLS Listing,,Condo/Co-op,3130 N Harwood St #1802,Dallas,TX,75201,1129000,2,2.5,Bleu Ciel Condo,1527,,2018,73,739,996,Active,,,http://www.redfin.com/TX/Dallas/3130-N-Harwood-St-75201/unit-1802/home/148026213,NTREIS,14004351,N,Y,32.797012,-96.8112363
MLS Listing,,Single Family Residential,6142 Velasco Ave,Dallas,TX,75214,919000,5,3.5,Lakewood Heights,3884,7492,2007,73,237,,Active,,,http://www.redfin.com/TX/Dallas/6142-Velasco-Ave-75214/home/30810598,NTREIS,14004656,N,Y,32.820784,-96.7598674
MLS Listing,,Single Family Residential,4310 Merrell Rd,Dallas,TX,75229,949000,4,4.5,Northcrest Rev,4569,6752,2018,73,208,,Active,,,http://www.redfin.com/TX/Dallas/4310-Merrell-Rd-75229/home/30878047,NTREIS,14004002,N,Y,32.8874656,-96.836084
MLS Listing,,Single Family Residential,6938 Briar Cove Dr,Dallas,TX,75254,995000,5,3.5,Northwood Hills,4015,17424,1966,73,248,,Active,,,http://www.redfin.com/TX/Dallas/6938-Briar-Cove-Dr-75254/home/31074611,NTREIS,14004238,N,Y,32.9435703,-96.7839923
MLS Listing,,Townhouse,2804 Thomas Ave #102,Dallas,TX,75204,1099000,3,3.5,Lexington State Thomas,3204,1917,2019,73,343,,Active,,,http://www.redfin.com/TX/Dallas/2804-Thomas-Ave-75204/unit-102/home/160358571,NTREIS,14004209,N,Y,32.795751,-96.797496
MLS Listing,,Vacant Land,37 Sagecliff Ct,Dallas,TX,75248,1250000,0,,Glen Abbey,,23000,,74,,492,Active,,,http://www.redfin.com/TX/Dallas/37-Sagecliff-Ct-75248/home/32217947,NTREIS,14003531,N,Y,32.973292,-96.813443
MLS Listing,,Single Family Residential,6629 Gaston Ave,Dallas,TX,75214,1170000,4,3.5,Country Club Estates,4000,12371,1929,74,293,,Active,,,http://www.redfin.com/TX/Dallas/6629-Gaston-Ave-75214/home/30819116,NTREIS,14002888,N,Y,32.8168504,-96.7486884
MLS Listing,,Condo/Co-op,3510 Turtle Creek Blvd Unit 7A,Dallas,TX,75219,1133000,2,2.5,Claridge Condos,2770,83984,1984,74,409,1891,Active,,,http://www.redfin.com/TX/Dallas/3510-Turtle-Creek-Blvd-75219/unit-7A/home/31166477,NTREIS,13982545,N,Y,32.8092538,-96.8017407
MLS Listing,,Single Family Residential,5435 Byron Ave,Highland Park,TX,75205,1225000,0,1.0,Highland Park,2230,14157,1918,75,549,,Active,,,http://www.redfin.com/TX/Dallas/5435-Byron-Ave-75205/home/147309288,NTREIS,14003255,N,Y,32.8362249,-96.7909689
MLS Listing,,Single Family Residential,8423 Ridgelea St,Dallas,TX,75209,1199000,5,6.0,Crest Haven Place,4816,7492,2016,75,249,,Active,,,http://www.redfin.com/TX/Dallas/8423-Ridgelea-St-75209/home/30855736,NTREIS,14002976,N,Y,32.8545987,-96.8414912
MLS Listing,,Single Family Residential,3939 Lively Ln,Dallas,TX,75220,949000,4,4.0,Glenridge Estates,3850,7754,2018,75,246,,Active,March-31-2019 02:00 PM,March-31-2019 04:00 PM,http://www.redfin.com/TX/Dallas/3939-Lively-Ln-75220/home/30910866,NTREIS,14002655,N,Y,32.8737209,-96.8487417
MLS Listing,,Single Family Residential,3965 Lively Ln,Dallas,TX,75220,959000,4,4.0,Glenridge Estates,3850,7841,2018,75,249,,Active,March-31-2019 02:00 PM,March-31-2019 04:00 PM,http://www.redfin.com/TX/Dallas/3965-Lively-Ln-75220/home/30910840,NTREIS,14002918,N,Y,32.8737647,-96.8477267
MLS Listing,,Single Family Residential,5610 Purdue Ave,Dallas,TX,75209,1139000,4,3.5,Idlewild Acres 04,3660,7492,2005,75,311,,Active,March-31-2019 02:00 PM,March-31-2019 03:30 PM,http://www.redfin.com/TX/Dallas/5610-Purdue-Ave-75209/home/30880187,NTREIS,14000663,N,Y,32.8539512,-96.8171595
MLS Listing,,Single Family Residential,731 N Oak Cliff Blvd,Dallas,TX,75208,1100000,4,4.5,West Kessler Heights Rev,3249,8407,2019,76,339,,Active,,,http://www.redfin.com/TX/Dallas/731-N-Oak-Cliff-Blvd-75208/home/30848846,NTREIS,14001866,N,Y,32.752108,-96.854928
MLS Listing,,Single Family Residential,4064 Beechwood Ln,Dallas,TX,75220,999000,5,4.5,GLENRIDGE ESTATES 2ND SEC,4306,13068,2018,77,232,,Active,,,http://www.redfin.com/TX/Dallas/4064-Beechwood-Ln-75220/home/30910568,NTREIS,14002139,N,Y,32.8759675,-96.843538
MLS Listing,,Single Family Residential,14320 Hughes,Dallas,TX,75254,1059000,3,3.5,Williamsburg,4986,,1981,78,212,21,Active,,,http://www.redfin.com/TX/Dallas/14320-Hughes-Ln-75254/home/31073679,NTREIS,14000648,N,Y,32.9433992,-96.8020491
MLS Listing,,Multi-Family (2-4 Unit),4216 Bowser Ave,Dallas,TX,75219,1125000,3,2.5,Bowser & Lemmons Oak Lawn,3600,4008,2019,78,313,,Active,,,http://www.redfin.com/TX/Dallas/4216-Bowser-Ave-75219/home/30799635,NTREIS,14000950,N,Y,32.8171793,-96.8094574
MLS Listing,,Single Family Residential,5320 Tennington Park,Dallas,TX,75287,924900,5,4.5,Oaktree Ph Four,4744,8276,1998,79,195,121,Active,March-31-2019 02:00 PM,March-31-2019 04:00 PM,http://www.redfin.com/TX/Dallas/5320-Tennington-Park-75287/home/32101432,NTREIS,14000941,N,Y,33.002899,-96.8173061
MLS Listing,,Single Family Residential,4918 Milam St,Dallas,TX,75206,1075000,3,3.5,Alcotts Fitzhugh Heights,3000,,2019,79,358,,Active,March-31-2019 02:00 PM,March-31-2019 04:00 PM,http://www.redfin.com/TX/Dallas/4918-Milam-St-75206/home/148695871,NTREIS,14000451,N,Y,32.8159093,-96.787195
MLS Listing,,Single Family Residential,26 Abbey Creek Way,Dallas,TX,75248,1250000,3,3.0,The Lawn at Glen Abbey,3690,6534,2016,79,339,425,Active,March-30-2019 01:00 PM,March-30-2019 04:00 PM,http://www.redfin.com/TX/Dallas/26-Abbey-Creek-Way-75248/home/108468585,NTREIS,14000563,N,Y,32.9693136,-96.8096248
MLS Listing,,Multi-Family (2-4 Unit),2605 Hibernia St,Dallas,TX,75204,975000,0,,Overlands,2635,4225,1925,80,370,,Active,,,http://www.redfin.com/TX/Dallas/2605-Hibernia-St-75204/home/148692047,NTREIS,14000258,N,Y,32.7962626,-96.8011158
MLS Listing,,Single Family Residential,2700 Hibernia St,Dallas,TX,75204,1200000,3,2.5,Smith & Watson,2825,10062,1925,80,425,,Active,,,http://www.redfin.com/TX/Dallas/2700-Hibernia-St-75204/home/32401635,NTREIS,14000184,N,Y,32.7965387,-96.8001247
MLS Listing,,Single Family Residential,4627 Edmondson Ave,Highland Park,TX,75209,999000,4,4.5,Highland Park West 9th Inst,2915,7318,1945,80,343,,Active,March-31-2019 01:00 PM,March-31-2019 04:00 PM,http://www.redfin.com/TX/Dallas/4627-Edmondson-Ave-75209/home/32070207,NTREIS,13999684,N,Y,32.8339352,-96.8166991
MLS Listing,,Single Family Residential,9882 Mixon Dr,Dallas,TX,75220,999000,4,3.5,Marsh Lane,4091,8015,2018,82,244,,Active,March-31-2019 02:00 PM,March-31-2019 04:00 PM,http://www.redfin.com/TX/Dallas/9882-Mixon-Dr-75220/home/30912121,NTREIS,13998581,N,Y,32.876065,-96.8521657
MLS Listing,,Single Family Residential,5511 Bent Tree Dr,Dallas,TX,75248,1100000,4,3.5,Bent Tree,5155,22782,1982,84,213,,Active,,,http://www.redfin.com/TX/Dallas/5511-Bent-Tree-Dr-75248/home/31086532,NTREIS,13995859,N,Y,32.9794371,-96.8127223
MLS Listing,,Single Family Residential,9929 Coppedge Ln,Dallas,TX,75220,999000,5,4.0,Valley Rdg Add,3871,7579,2018,86,258,,Active,March-31-2019 01:00 PM,March-31-2019 04:00 PM,http://www.redfin.com/TX/Dallas/9929-Coppedge-Ln-75220/home/30914121,NTREIS,13996124,N,Y,32.8780237,-96.8516212
MLS Listing,,Single Family Residential,6231 Velasco Ave,Dallas,TX,75214,1099900,5,4.0,Lakewood Heights,4341,7492,2019,86,253,,Active,,,http://www.redfin.com/TX/Dallas/6231-Velasco-Ave-75214/home/30810676,NTREIS,13995917,N,Y,32.8213096,-96.7574411
MLS Listing,,Condo/Co-op,3515 Normandy Ave #6,Highland Park,TX,75205,1050000,3,3.5,3515 Normandy Place,3000,16161,2014,87,350,375,Active,,,http://www.redfin.com/TX/Dallas/3515-Normandy-Ave-75205/unit-6/home/59237746,NTREIS,13992655,N,Y,32.8385828,-96.7902557
MLS Listing,,Condo/Co-op,3505 Turtle Creek Blvd Unit 6G,Dallas,TX,75219,995000,2,2.0,Vendome on Turtle Creek Condo,1941,90997,2000,93,513,1086,Active,,,http://www.redfin.com/TX/Dallas/3505-Turtle-Creek-Blvd-75219/unit-6G/home/30731968,NTREIS,13993345,N,Y,32.8107535,-96.8037013
MLS Listing,,Single Family Residential,31 Stonecourt Dr,Dallas,TX,75225,1250000,3,5.0,Caruth Homeplace Sec 06,4430,6752,1982,93,282,292,Active,March-30-2019 01:00 PM,March-30-2019 03:00 PM,http://www.redfin.com/TX/Dallas/31-Stonecourt-Dr-75225/home/31135130,NTREIS,13978502,N,Y,32.8610964,-96.7756247
MLS Listing,,Multi-Family (5+ Unit),4007 Rawlins St,Dallas,TX,75219,1200000,9,2.0,Floyd Coles,6000,9496,1955,100,200,,Active,,,http://www.redfin.com/TX/Dallas/4007-Rawlins-St-75219/home/30796682,NTREIS,13987522,N,Y,32.8129242,-96.8094574
MLS Listing,,Multi-Family (5+ Unit),2727 Welborn,Dallas,TX,75219,900000,0,,Mansion Park,3442,14375,1971,101,261,750,Active,,,http://www.redfin.com/TX/Dallas/2727-Welborn-St-75219/unit-109/home/30794769,NTREIS,13991160,N,Y,32.8060933,-96.8108387
MLS Listing,,Single Family Residential,5339 Willis Ave,Dallas,TX,75206,1150000,4,6.0,Vickery Place,3857,7797,2019,102,298,,Active,March-31-2019 01:00 PM,March-31-2019 03:00 PM,http://www.redfin.com/TX/Dallas/5339-Willis-Ave-75206/home/30807337,NTREIS,13982950,N,Y,32.820525,-96.77827
MLS Listing,,Vacant Land,12100 Garden Grove Dr,Dallas,TX,75253,1235960,0,,"Blk 8830, Tract 27",,923951,,108,,,Active,,,http://www.redfin.com/TX/Dallas/12100-Garden-Grove-Dr-75253/home/31159260,NTREIS,13952433,N,Y,32.693379,-96.605383
MLS Listing,,Single Family Residential,3915 Durango Dr,Dallas,TX,75220,1025000,4,3.5,Ridgecrest Village,3963,9583,2019,109,259,,Active,,,http://www.redfin.com/TX/Dallas/3915-Durango-Dr-75220/home/30911915,NTREIS,13987548,N,Y,32.8673685,-96.84826
MLS Listing,,Vacant Land,5535 Amherst Ave,Dallas,TX,75209,950000,0,,"Idelwild Devonshire, Preston Park Add",,14593,1940,113,,,Active,April-14-2019 01:00 PM,April-14-2019 03:00 PM,http://www.redfin.com/TX/Dallas/5535-W-Amherst-Ave-75209/home/30854602,NTREIS,13985002,N,Y,32.8525207,-96.8176619
MLS Listing,,Single Family Residential,6923 Royal Ln,Dallas,TX,75230,900000,4,3.5,Hillcrest Havens,3921,16291,2008,113,230,,Active,,,http://www.redfin.com/TX/Dallas/6923-Royal-Ln-75230/home/30934160,NTREIS,13984840,N,Y,32.8951438,-96.7868585
MLS Listing,,Condo/Co-op,2555 N Pearl St #1504,Dallas,TX,75201,1100000,1,1.5,Tower & Regency Row Residence Condo,1375,52969,2007,114,800,1350,Active,,,http://www.redfin.com/TX/Dallas/2555-N-Pearl-St-75201/unit-1504/home/30783791,NTREIS,13982708,N,Y,32.7930223,-96.8045832
MLS Listing,,Single Family Residential,6416 Preston Crest Ln,Dallas,TX,75230,1250000,5,3.5,Huffhines Hill,3989,27007,1956,115,313,,Active,,,http://www.redfin.com/TX/Dallas/6416-Preston-Crest-Ln-75230/home/31017038,NTREIS,13982322,N,Y,32.9213941,-96.795374
MLS Listing,,Single Family Residential,3929 Lively Ln,Dallas,TX,75220,949000,4,4.5,Glenridge Estates,3929,8102,2016,122,242,,Active,March-31-2019 01:00 PM,March-31-2019 04:00 PM,http://www.redfin.com/TX/Dallas/3929-Lively-Ln-75220/home/30910864,NTREIS,13979433,N,Y,32.8737307,-96.84915
MLS Listing,,Single Family Residential,7065 Hillgreen Dr,Dallas,TX,75214,1250000,0,,Green Cove Estates,,26572,2018,122,,,Active,,,http://www.redfin.com/TX/Dallas/7065-Hillgreen-Dr-75214/home/30845412,NTREIS,13979154,N,Y,32.8455713,-96.7329876
MLS Listing,,Single Family Residential,6622 Ellsworth Ave,Dallas,TX,75214,999000,4,3.5,North Ridge Estates,3720,9453,2005,123,269,,Active,,,http://www.redfin.com/TX/Dallas/6622-Ellsworth-Ave-75214/home/30823965,NTREIS,13978309,N,Y,32.8329709,-96.7458448
MLS Listing,,Single Family Residential,10728 Brookport Pl,Dallas,TX,75229,985000,4,3.0,Les Jardins Rev,3757,36068,1969,124,262,,Active,,,http://www.redfin.com/TX/Dallas/10728-Brookport-Pl-75229/home/30878139,NTREIS,13978367,N,Y,32.8940709,-96.8379266
MLS Listing,,Multi-Family (2-4 Unit),4136 Prescott Ave,Dallas,TX,75219,925000,4,4.5,University Place #2,3477,3572,2006,130,266,,Active,,,http://www.redfin.com/TX/Dallas/4136-Prescott-Ave-75219/home/30788066,NTREIS,13969462,N,Y,32.821401,-96.805346
MLS Listing,,Single Family Residential,4167 Park Ln,Dallas,TX,75220,925000,5,5.0,Glenridge Estates,4301,10019,2014,131,215,,Active,,,http://www.redfin.com/TX/Dallas/4167-Park-Ln-75220/home/30910316,NTREIS,13975545,N,Y,32.8751562,-96.8399365
MLS Listing,,Condo/Co-op,1999 Mckinney Ave #604,Dallas,TX,75201,995000,2,2.0,Mckinney Condo 1999,2387,29098,2000,131,417,1355,Active,,,http://www.redfin.com/TX/Dallas/1999-McKinney-Ave-75201/unit-604/home/30731545,NTREIS,13972959,N,Y,32.7907753,-96.8037039
MLS Listing,,Single Family Residential,11909 Edgestone Rd,Dallas,TX,75230,995000,3,3.5,Lake Forest Ph C,4542,7928,2000,134,219,492,Active,March-31-2019 02:00 PM,March-31-2019 04:00 PM,http://www.redfin.com/TX/Dallas/11909-Edgestone-Rd-75230/home/31150519,NTREIS,13969154,N,Y,32.9121716,-96.7828208
MLS Listing,,Single Family Residential,2014 Cullen Dr,Dallas,TX,75206,985000,4,3.5,Ross Ave Annex,3473,7492,2018,134,284,,Active,,,http://www.redfin.com/TX/Dallas/2014-Cullen-Dr-75206/home/30808955,NTREIS,13966131,N,Y,32.8144814,-96.7756979
MLS Listing,,Townhouse,3819 Hawthorne Ave,Dallas,TX,75219,990000,3,4.5,Gilbert-Hawthorne Add,3055,3485,1998,135,324,285,Active,March-31-2019 02:00 PM,March-31-2019 04:00 PM,http://www.redfin.com/TX/Dallas/3819-Hawthorne-Ave-75219/home/31125459,NTREIS,13972094,N,Y,32.822634,-96.8115921
MLS Listing,,Single Family Residential,6543 Sondra Dr,Dallas,TX,75214,1080000,4,3.5,Lakeway,3769,8015,2007,138,287,,Active,March-31-2019 01:00 PM,March-31-2019 03:00 PM,http://www.redfin.com/TX/Dallas/6543-Sondra-Dr-75214/home/30824526,NTREIS,13971804,N,Y,32.826787,-96.7482702
MLS Listing,,Multi-Family (5+ Unit),4115 Gilbert Ave,Dallas,TX,75219,975000,0,,Bowser & Lemmons Oak Lawn Add,3952,8015,1923,138,247,,Active,,,http://www.redfin.com/TX/Dallas/4115-Gilbert-Ave-75219/home/30800036,NTREIS,13965232,N,Y,32.8173828,-96.8069251
MLS Listing,,Single Family Residential,5611 Stonegate Rd,Dallas,TX,75209,1050000,2,2.0,Highway Estates,1906,20473,1941,138,551,,Active,,,http://www.redfin.com/TX/Dallas/5611-Stonegate-Rd-75209/home/30880636,NTREIS,13970647,N,Y,32.8601037,-96.8169084
MLS Listing,,Multi-Family (2-4 Unit),3441 Normandy Ave Unit B,University Park,TX,75205,1220000,4,4.5,Walker,3616,7405,2013,139,337,,Active,March-31-2019 01:00 PM,March-31-2019 03:00 PM,http://www.redfin.com/TX/Dallas/3441-Normandy-Ave-75205/unit-B/home/52061333,NTREIS,13969914,N,Y,32.8384582,-96.7891598
MLS Listing,,Single Family Residential,7245 Inwood Rd,Dallas,TX,75209,999000,4,5.5,Bentley Place,4649,3790,2017,143,215,67,Active,,,http://www.redfin.com/TX/Dallas/7245-Inwood-Rd-75209/home/110135204,NTREIS,13969090,N,Y,32.845418,-96.821631
MLS Listing,,Single Family Residential,5542 Willis Ave,Dallas,TX,75206,1250000,4,4.0,Vickery Place,3792,7492,2019,144,330,,Active,,,http://www.redfin.com/TX/Dallas/5542-Willis-Ave-75206/home/30807193,NTREIS,13968100,N,Y,32.8200449,-96.7728009
MLS Listing,,Condo/Co-op,2011 Cedar Springs Rd #502,Dallas,TX,75201,998000,2,2.0,Cedar Spgs,2359,42732,1999,145,423,593,Active,,,http://www.redfin.com/TX/Dallas/2011-Cedar-Springs-Rd-75201/unit-502/home/30792263,NTREIS,13967756,N,Y,32.7909033,-96.8051408
MLS Listing,,Single Family Residential,5318 Belmont Ave,Dallas,TX,75206,1149900,4,4.5,Henderson Ave,4083,7492,2018,148,282,,Active,March-30-2019 02:00 PM,March-30-2019 04:00 PM,http://www.redfin.com/TX/Dallas/5318-Belmont-Ave-75206/home/30808265,NTREIS,13923884,N,Y,32.8167489,-96.777978
MLS Listing,,Single Family Residential,5627 Vanderbilt Ave,Dallas,TX,75206,1195000,4,4.0,Greenland Hills 1st Sec,3656,7231,2018,149,327,,Active,,,http://www.redfin.com/TX/Dallas/5627-Vanderbilt-Ave-75206/home/30811948,NTREIS,13963282,N,Y,32.8247598,-96.7711903
MLS Listing,,Condo/Co-op,5656 N Central Expy #805,Dallas,TX,75206,995000,3,3.5,Realty America Hotel Add,3211,232523,2005,149,310,2187,Active,,,http://www.redfin.com/TX/Dallas/5656-N-Central-Expy-75205/unit-805/home/30775750,NTREIS,13964666,N,Y,32.8355513,-96.7784876
MLS Listing,,Single Family Residential,7 Parliament Pl,Dallas,TX,75225,1099000,4,3.5,Glen Lakes 02 Rev,3843,5445,1983,150,286,525,Active,April-14-2019 01:00 PM,April-14-2019 03:00 PM,http://www.redfin.com/TX/Dallas/7-Parliament-Pl-75225/home/30872626,NTREIS,13938051,N,Y,32.8779133,-96.7743697
MLS Listing,,Single Family Residential,4326 Margate Dr,Dallas,TX,75220,1145000,5,5.0,Lansdowne Estates,4725,18295,1949,154,242,,Active,,,http://www.redfin.com/TX/Dallas/4326-Margate-Dr-75220/home/30879095,NTREIS,13961371,N,Y,32.864429,-96.833915
MLS Listing,,Single Family Residential,7435 Kenshire Ln,Dallas,TX,75230,1099000,4,4.0,Janmar Circle 06,4970,27269,1963,156,221,,Active,,,http://www.redfin.com/TX/Dallas/7435-Kenshire-Ln-75230/home/31008536,NTREIS,13961451,N,Y,32.9082883,-96.7764405
MLS Listing,,Single Family Residential,11339 Royalshire Dr,Dallas,TX,75230,1240000,5,4.5,Preston Haven Estates,4778,20430,1953,156,260,,Active,March-31-2019 02:00 PM,March-31-2019 04:00 PM,http://www.redfin.com/TX/Dallas/11339-Royalshire-Dr-75230/home/30925745,NTREIS,13955077,N,Y,32.9028806,-96.8005633
MLS Listing,,Single Family Residential,4303 Rawlins St,Dallas,TX,75219,915000,3,3.5,Perry Heights Add,3197,11238,1925,156,286,42,Active,,,http://www.redfin.com/TX/Dallas/4303-Rawlins-St-75219/home/30810437,NTREIS,13960607,N,Y,32.8159028,-96.8127642
MLS Listing,,Multi-Family (5+ Unit),5616 Bryan Pkwy,Dallas,TX,75206,1100000,8,1.0,Alta Vista Add,5920,7187,1937,157,186,,Active,,,http://www.redfin.com/TX/Dallas/5616-Bryan-Pkwy-75206/home/30792708,NTREIS,13958306,N,Y,32.8076991,-96.7686804
MLS Listing,,Single Family Residential,6809 Bert Ln,Dallas,TX,75240,948000,4,4.5,Hillcrest Wood,5234,18644,1978,162,181,,Active,,,http://www.redfin.com/TX/Dallas/6809-Bert-Ln-75240/home/31073813,NTREIS,13956710,N,Y,32.939013,-96.786874
MLS Listing,,Multi-Family (5+ Unit),736 N Zang Blvd,Dallas,TX,75208,1067500,6,10.0,Zang S Crystal Hill,3909,7623,1925,162,273,,Active,,,http://www.redfin.com/TX/Dallas/736-N-Zang-Blvd-75208/home/30828898,NTREIS,13956770,N,Y,32.752087,-96.823633
MLS Listing,,Single Family Residential,7 Brockfield Ct,Heath,TX,75032,1175000,5,4.5,Stillwater Estates,6092,102366,2006,163,193,21,Active,,,http://www.redfin.com/TX/Heath/7-Brockfield-Ct-75032/home/33885443,NTREIS,13943951,N,Y,32.8288187,-96.4924383
MLS Listing,,Single Family Residential,4341 Hallmark Dr,Dallas,TX,75229,1019000,5,4.5,North Highland Estates,4664,15551,1962,163,218,,Active,,,http://www.redfin.com/TX/Dallas/4341-Hallmark-Dr-75229/home/30927372,NTREIS,13950215,N,Y,32.9056272,-96.8354845
MLS Listing,,Single Family Residential,6137 Llano Ave,Dallas,TX,75214,1035000,5,4.5,Llano Place,4502,7797,2006,164,230,,Active,,,http://www.redfin.com/TX/Dallas/6137-Llano-Ave-75214/home/30811866,NTREIS,13955168,N,Y,32.8223119,-96.759817
MLS Listing,,Single Family Residential,4513 Pomona Rd,Dallas,TX,75209,1095000,4,3.5,Wunderlick,3146,15377,2005,164,348,,Active,,,http://www.redfin.com/TX/Dallas/4513-Pomona-Rd-75209/home/30854525,NTREIS,13952436,N,Y,32.8557875,-96.8317292
MLS Listing,,Townhouse,4143 Buena Vista St Unit B,Dallas,TX,75204,1199000,3,2.5,4143 Buena Vista Condos,3475,12632,2007,166,345,400,Active,,,http://www.redfin.com/TX/Dallas/4143-Buena-Vista-St-75204/unit-B/home/30788581,NTREIS,13954372,N,Y,32.817059,-96.795152
MLS Listing,,Single Family Residential,5330 Stone Falls Ln,Dallas,TX,75287,1025000,4,4.5,Oakdale 03,5357,16553,1993,166,191,233,Active,,,http://www.redfin.com/TX/Dallas/5330-Stone-Falls-Ln-75287/home/32069915,NTREIS,13951001,N,Y,32.9974412,-96.81582
MLS Listing,,Single Family Residential,5806 Colhurst St,Dallas,TX,75230,974000,4,3.5,Avalon,3284,16596,1975,172,297,,Active,,,http://www.redfin.com/TX/Dallas/5806-Colhurst-St-75230/home/30877546,NTREIS,13950871,N,Y,32.8809314,-96.809182
MLS Listing,,Single Family Residential,3974 Beechwood Ln,Dallas,TX,75220,935000,4,4.0,Glenridge Estates,3293,7449,2018,172,284,,Active,March-31-2019 01:00 PM,March-31-2019 04:00 PM,http://www.redfin.com/TX/Dallas/3974-Beechwood-Ln-75220/home/30911010,NTREIS,13950336,N,Y,32.8759394,-96.8472637
MLS Listing,,Single Family Residential,5020 Tanbark Rd,Dallas,TX,75229,1224000,4,5.0,Russwood Acres,4915,31625,1962,173,249,,Active,March-30-2019 01:00 PM,March-30-2019 04:00 PM,http://www.redfin.com/TX/Dallas/5020-Tanbark-Rd-75229/home/30876958,NTREIS,13949870,N,Y,32.8969969,-96.820069
MLS Listing,,Vacant Land,7401 W Camp Wisdom Rd,Dallas,TX,75236,1050000,0,,Not Applicable,,739954,,177,,,Active,,,http://www.redfin.com/TX/Dallas/7401-W-Camp-Wisdom-Rd-75236/home/35572378,NTREIS,13947880,N,Y,32.666589,-96.956765
MLS Listing,,Single Family Residential,4426 Pomona Rd,Dallas,TX,75209,987654,4,3.0,Bluffview Estates,3266,19123,1998,180,302,,Active,,,http://www.redfin.com/TX/Dallas/4426-Pomona-Rd-75209/home/30854017,NTREIS,13945168,N,Y,32.8547173,-96.8328597
MLS Listing,,Single Family Residential,6915 Lakeshore Dr,Dallas,TX,75214,1225000,5,4.5,Westlake Park,4016,13112,1960,183,305,,Active,,,http://www.redfin.com/TX/Dallas/6915-Lakeshore-Dr-75214/home/30819904,NTREIS,13943556,N,Y,32.8206687,-96.7401858
MLS Listing,,Single Family Residential,18712 Wainsborough Ln,Dallas,TX,75287,1239000,5,4.5,Oaktree Ph Four,5499,10454,2000,185,225,125,Active,,,http://www.redfin.com/TX/Dallas/18712-Wainsborough-Ln-75287/home/32237604,NTREIS,13940221,N,Y,32.9993033,-96.815799
MLS Listing,,Single Family Residential,9924 Coppedge Ln,Dallas,TX,75220,1069000,4,4.5,Valley Ridge Add,3668,10542,2018,190,291,,Active,March-31-2019 01:00 PM,March-31-2019 04:00 PM,http://www.redfin.com/TX/Dallas/9924-Coppedge-Ln-75220/home/30914492,NTREIS,13938655,N,Y,32.8781055,-96.851129
MLS Listing,,Single Family Residential,11828 Brookhill Ln,Dallas,TX,75230,1100000,3,3.5,Lake Forest Ph D,3872,7231,1999,193,284,492,Active,,,http://www.redfin.com/TX/Dallas/11828-Brookhill-Ln-75230/home/31150455,NTREIS,13925536,N,Y,32.9108896,-96.7821493
MLS Listing,,Condo/Co-op,3401 Lee Pkwy #2005,Dallas,TX,75219,1250000,2,2.5,Mayfair Turtle Creek Condos,2574,85508,1998,198,486,1777,Active,,,http://www.redfin.com/TX/Dallas/3401-Lee-Pkwy-75219/unit-2005/home/32219872,NTREIS,13933537,N,Y,32.8092977,-96.8046809
MLS Listing,,Single Family Residential,5307 Ambergate Ln,Dallas,TX,75287,995000,5,4.5,Oaktree Ph Four,5707,10019,1998,201,174,112,Active,,,http://www.redfin.com/TX/Dallas/5307-Ambergate-Ln-75287/home/32237592,NTREIS,13931702,N,Y,33.0,-96.8174735
MLS Listing,,Condo/Co-op,3525 Turtle Creek Blvd Unit 9D,Dallas,TX,75219,995000,3,4.0,3525 Condos,4069,123013,1957,205,245,4060,Active,,,http://www.redfin.com/TX/Dallas/3525-Turtle-Creek-Blvd-75219/unit-9D/home/30794885,NTREIS,13929139,N,Y,32.8114835,-96.8032005
MLS Listing,,Single Family Residential,7255 Inwood Rd,Dallas,TX,75209,1079000,4,5.5,Bentley Place,4585,4356,2018,206,235,67,Active,,,http://www.redfin.com/TX/Dallas/7255-Inwood-Rd-75209/home/110135192,NTREIS,13927804,N,Y,32.8453908,-96.8218156
MLS Listing,,Single Family Residential,10823 Pagewood Pl,Dallas,TX,75230,1120000,4,3.5,Brookshire Park 6th Sec,3901,27181,1979,211,287,,Active,,,http://www.redfin.com/TX/Dallas/10823-Pagewood-Pl-75230/home/30992712,NTREIS,13919294,N,Y,32.8947654,-96.7760724
MLS Listing,,Single Family Residential,6550 Dykes Way,Dallas,TX,75230,949000,4,3.0,C P Nevill 2a,3279,18861,2001,212,289,,Active,April-7-2019 03:30 PM,April-7-2019 05:00 PM,http://www.redfin.com/TX/Dallas/6550-Dykes-Way-75230/home/31018601,NTREIS,13924242,N,Y,32.9193807,-96.7925075
MLS Listing,,Single Family Residential,4428 Goodfellow Dr,Dallas,TX,75229,1075000,5,5.5,North Highlands Estates,4247,16422,1962,221,253,,Active,,,http://www.redfin.com/TX/Dallas/4428-Goodfellow-Dr-75229/home/30926622,NTREIS,13910696,N,Y,32.9087216,-96.8332994
MLS Listing,,Condo/Co-op,3510 Turtle Creek Blvd Unit 5D,Dallas,TX,75219,1189000,2,3.5,Claridge Condos,3049,83984,1984,222,390,2073,Active,April-14-2019 01:00 PM,April-14-2019 03:00 PM,http://www.redfin.com/TX/Dallas/3510-Turtle-Creek-Blvd-75219/unit-5D/home/31165562,NTREIS,13918061,N,Y,32.8092538,-96.8017407
MLS Listing,,Single Family Residential,6 Glenmeadow Ct,Dallas,TX,75225,1175000,4,5.5,Glen Lakes 5th Sec,6120,6795,1985,232,192,575,Active,,,http://www.redfin.com/TX/Dallas/6-Glenmeadow-Ct-75225/home/31135861,NTREIS,13911857,N,Y,32.8737814,-96.7729473
MLS Listing,,Single Family Residential,1404 Sylvan Ave,Dallas,TX,75208,950000,4,4.5,East Kessler,4365,17685,2004,232,218,,Active,,,http://www.redfin.com/TX/Dallas/1404-Sylvan-Ave-75208/home/30850297,NTREIS,13909910,N,Y,32.760293,-96.8352255
MLS Listing,,Vacant Land,6800 Forest Ln,Dallas,TX,75230,1125000,0,,Wander Wood,,32845,1966,235,,,Active,,,http://www.redfin.com/TX/Dallas/6800-Forest-Ln-75230/home/32214851,NTREIS,13909134,N,Y,32.910323,-96.7847929
MLS Listing,,Single Family Residential,6009 Jericho Ct,Dallas,TX,75248,1249500,5,4.5,Preston Trails Sec 05,5759,35196,1979,239,217,343,Active,April-14-2019 03:00 PM,April-14-2019 05:00 PM,http://www.redfin.com/TX/Dallas/6009-Jericho-Ct-75248/home/31086937,NTREIS,13906183,N,Y,32.9774692,-96.8054392
MLS Listing,,Vacant Land,17 Terry Ln,Heath,TX,75032,1242150,0,,Le Ruisseau,,360720,1968,240,,,Active,,,http://www.redfin.com/TX/Heath/17-Terry-Ln-75032/home/146450885,NTREIS,13897252,N,Y,32.8394653,-96.5001165
MLS Listing,,Single Family Residential,3456 Granada Ave,University Park,TX,75205,925000,3,3.5,University Annex 02,3502,4487,1998,246,264,,Active,,,http://www.redfin.com/TX/Dallas/3456-Granada-Ave-75205/home/32099722,NTREIS,13900145,N,Y,32.8420801,-96.7894946
MLS Listing,,Multi-Family (2-4 Unit),5046 W University Blvd,Dallas,TX,75209,975000,6,,Greenway Village,3564,8756,1945,252,274,,Active,,,http://www.redfin.com/TX/Dallas/5046-W-University-Blvd-75209/home/30852886,NTREIS,13896409,N,Y,32.844678,-96.824186
MLS Listing,,Single Family Residential,6147 Goliad Ave,Dallas,TX,75214,949000,5,3.5,Lakewood Heights Add,3864,7492,2008,264,246,,Active,,,http://www.redfin.com/TX/Dallas/6147-Goliad-Ave-75214/home/30810635,NTREIS,13885795,N,Y,32.8184297,-96.7596665
MLS Listing,,Single Family Residential,6913 Valley View Ln,Dallas,TX,75240,999000,3,3.5,Hillcrest Park Estates,3418,22085,2018,264,292,200,Active,April-14-2019 02:00 PM,April-14-2019 04:00 PM,http://www.redfin.com/TX/Dallas/6913-Valley-View-Ln-75240/home/32214852,NTREIS,13886537,N,Y,32.928193,-96.785922
MLS Listing,,Vacant Land,2004 Hearne Ave,Dallas,TX,75208,1000000,0,,Oneal & Huffmans Rev,,19602,1945,266,,,Active,,,http://www.redfin.com/TX/Dallas/2004-Hearne-Ave-75208/home/30987184,NTREIS,13885523,N,Y,32.771134,-96.8500715
MLS Listing,,Single Family Residential,1022 Forest Grove Dr,Dallas,TX,75218,1150000,5,6.0,Eastwood Estates,6927,14593,2006,276,166,,Active,,,http://www.redfin.com/TX/Dallas/1022-Forest-Grove-Dr-75218/home/30866695,NTREIS,13876971,N,Y,32.8455511,-96.6962731
MLS Listing,,Single Family Residential,21 Saint Laurent Pl,Dallas,TX,75225,1100000,2,3.5,Caruth Homeplace 03,3249,,1979,277,339,258,Active,,,http://www.redfin.com/TX/Dallas/21-St-Laurent-Pl-75225/home/30871835,NTREIS,13875911,N,Y,32.8588253,-96.7754574
MLS Listing,,Single Family Residential,5140 Northaven Rd,Dallas,TX,75229,998000,5,4.5,Russwood Acres 1ST INST,4241,43734,1964,280,235,,Active,,,http://www.redfin.com/TX/Dallas/5140-Northaven-Rd-75229/home/30876979,NTREIS,13873796,N,Y,32.901873,-96.8190643
MLS Listing,,Condo/Co-op,5909 Luther Ln #2101,Dallas,TX,75225,1025000,3,3.5,Shelton Condo,2849,65993,1983,296,360,1794,Active,March-31-2019 02:00 PM,March-31-2019 04:00 PM,http://www.redfin.com/TX/Dallas/5909-Luther-Ln-75225/unit-2101/home/31186455,NTREIS,13861336,N,Y,32.8637187,-96.8111691
MLS Listing,,Single Family Residential,5323 Goodwin Ave,Dallas,TX,75206,925000,5,4.5,Vickery Place,4192,8015,2007,302,221,,Active,,,http://www.redfin.com/TX/Dallas/5323-Goodwin-Ave-75206/home/30810262,NTREIS,13855755,N,Y,32.8237246,-96.7789716
MLS Listing,,Single Family Residential,10339 Epping Ln,Dallas,TX,75229,1124900,5,4.0,Kelsey Square,4901,25613,1969,319,230,,Active,,,http://www.redfin.com/TX/Dallas/10339-Epping-Ln-75229/home/30878554,NTREIS,13817755,N,Y,32.8873812,-96.8324698
MLS Listing,,Vacant Land,4625 Walnut Hill Ln,Dallas,TX,75229,995000,0,,Walnut Park,,41818,1951,332,,,Active,,,http://www.redfin.com/TX/Dallas/4625-Walnut-Hill-Ln-75229/home/30878657,NTREIS,13823705,N,Y,32.8805344,-96.8297613
MLS Listing,,Single Family Residential,7408 Glen Albens Cir,Dallas,TX,75225,1250000,3,3.5,Glen Lakes 01 Rev,4527,5793,1983,333,276,575,Active,,,http://www.redfin.com/TX/Dallas/7408-Glen-Albens-Cir-75225/home/30872725,NTREIS,13811748,N,Y,32.8768234,-96.7783022
MLS Listing,,Single Family Residential,3040 Coombs Creek Dr,Dallas,TX,75233,950000,5,2.0,,7000,191882,1953,337,136,,Active,,,http://www.redfin.com/TX/Dallas/3040-Coombs-Creek-Dr-75233/home/30961903,NTREIS,13828572,N,Y,32.710681,-96.8802972
MLS Listing,,Single Family Residential,10219 Hedgeway,Dallas,TX,75229,975000,4,3.0,Midway Estates,3142,15899,1956,365,310,,Active,,,http://www.redfin.com/TX/Dallas/10219-Hedgeway-Dr-75229/home/30928993,NTREIS,13803914,N,Y,32.8853123,-96.8489828
MLS Listing,,Vacant Land,4000 W Northwest Hwy,Dallas,TX,75220,1200000,0,,Bluff View,,51836,,381,,,Active,,,http://www.redfin.com/TX/Dallas/4000-W-Northwest-Hwy-75220/home/35572739,NTREIS,13767134,N,Y,32.8629356,-96.8453213
MLS Listing,,Condo/Co-op,3030 Mckinney Ave Unit 2101-3,Dallas,TX,75204,1240000,3,3.0,La Tour Condo,3324,65601,1981,402,373,2417,Active,,,http://www.redfin.com/TX/Dallas/3030-McKinney-Ave-75204/unit-2101-3/home/144906237,NTREIS,13768721,N,Y,32.8016841,-96.8005017
MLS Listing,,Single Family Residential,7515 Northaven,Dallas,TX,75230,989000,4,3.5,Highland Estates,4189,16291,1955,405,236,,Active,,,http://www.redfin.com/TX/Dallas/7515-Northaven-Rd-75230/home/30989363,NTREIS,13779318,N,Y,32.9010711,-96.7773818
MLS Listing,,Single Family Residential,4606 Lafayette St,Dallas,TX,75204,1000000,0,,Alexander Park,912,15115,1928,512,1096,,Active,,,http://www.redfin.com/TX/Dallas/4606-Lafayette-St-75204/home/30792623,NTREIS,13724404,N,Y,32.8067784,-96.782011
MLS Listing,,Condo/Co-op,1505 Elm St,Dallas,TX,75201,980000,0,,Elm Street Condo 1505,6465,10019,1957,3070,152,,Active,,,http://www.redfin.com/TX/Dallas/1505-Elm-St-75201/unit-PHouse/home/147480860,NTREIS,11499092,N,Y,32.7815136,-96.7994207
