SALE TYPE,SOLD DATE,PROPERTY TYPE,ADDRESS,CITY,STATE OR PROVINCE,ZIP OR POSTAL CODE,PRICE,BEDS,BATHS,LOCATION,SQUARE FEET,LOT SIZE,YEAR BUILT,DAYS ON MARKET,$/SQUARE FEET,HOA/MONTH,STATUS,NEXT OPEN HOUSE START TIME,NEXT OPEN HOUSE END TIME,URL (SEE http://www.redfin.com/buy-a-home/comparative-market-analysis FOR INFO ON PRICING),SOURCE,MLS#,FAVORITE,INTERESTED,LATITUDE,LONGITUDE
MLS Listing,,Single Family Residential,10101 Edgeway Cir,Rowlett,TX,75089,385000,3,3.0,Waters Edge Ph 1,2652,10019,2014,17,145,92,Active,,,http://www.redfin.com/TX/Rowlett/10101-Edgeway-Cir-75089/home/58647858,NTREIS,14042025,N,Y,32.9473151,-96.5197463
MLS Listing,,Condo/Co-op,1001 Belleview St #506,Dallas,TX,75215,382000,2,2.0,Beat At The South Side Station,1198,41077,2007,22,319,453,Active,,,http://www.redfin.com/TX/Dallas/1001-Belleview-St-75215/unit-506/home/30788526,NTREIS,14038281,N,Y,32.769071,-96.7948718
MLS Listing,,Condo/Co-op,4904 Live Oak St #303,Dallas,TX,75206,385000,2,2.5,Metropolitan On Live Oak Ph 1a,1745,29664,2005,99,221,343,Active,,,http://www.redfin.com/TX/Dallas/4904-Live-Oak-St-75206/unit-303/home/30772982,NTREIS,13986972,N,Y,32.8027566,-96.772089
MLS Listing,,Condo/Co-op,4202 Camden Ave,Dallas,TX,75206,399000,2,2.0,Montebello Park,1118,6403,1940,1,357,,Active,,,http://www.redfin.com/TX/Dallas/4202-Camden-Ave-75206/home/30822136,NTREIS,14054817,N,Y,32.8367023,-96.7632635
MLS Listing,,Townhouse,4810 Chambers St,Dallas,TX,75204,399900,2,2.5,Chambers Corner,1641,1002,2018,1,244,150,Active,,,http://www.redfin.com/TX/Dallas/4810-Chambers-St-75204/home/110137217,NTREIS,14050293,N,Y,32.8084314,-96.7793489
MLS Listing,,Condo/Co-op,2200 Victory Ave #2206,Dallas,TX,75219,375000,1,1.0,The House,894,53709,2007,1,419,750,Active,,,http://www.redfin.com/TX/Dallas/2200-Victory-Ave-75219/unit-2206/home/30782507,NTREIS,14047909,N,Y,32.7849571,-96.8096512
MLS Listing,,Single Family Residential,9708 Lakemont Dr,Dallas,TX,75220,400000,2,1.0,Glenridge Estates,1189,5881,1952,1,336,,Active,,,http://www.redfin.com/TX/Dallas/9708-Lakemont-Dr-75220/home/30910295,NTREIS,14053536,N,Y,32.8756765,-96.8424557
MLS Listing,,Single Family Residential,8529 Rolling Rock Ln,Dallas,TX,75238,399900,3,2.0,First Instl Lakeland Hills Rep,1626,7971,1956,1,246,,Active,,,http://www.redfin.com/TX/Dallas/8529-Rolling-Rock-Ln-75238/home/31021924,NTREIS,14053550,N,Y,32.8653332,-96.6932407
MLS Listing,,Single Family Residential,694 Hollow Ridge Pl,Coppell,TX,75019,395000,3,2.0,Hollows Northlake Woodlands,2193,10324,2002,2,180,10,Active,,,http://www.redfin.com/TX/Coppell/694-Hollow-Ridge-Pl-75019/home/32201987,NTREIS,14049622,N,Y,32.9542794,-96.9630602
MLS Listing,,Townhouse,724 Cannen John Ln,Dallas,TX,75204,399000,2,2.5,Habitat At 3020,1766,1220,2005,2,226,85,Active,,,http://www.redfin.com/TX/Dallas/724-Cannen-John-Ln-75204/home/30761028,NTREIS,14043003,N,Y,32.791246,-96.787527
MLS Listing,,Townhouse,3915 Cole Ave #2,Dallas,TX,75204,399900,2,2.5,3915 Cole Ave Condos,2038,9496,2001,2,196,,Active,,,http://www.redfin.com/TX/Dallas/3915-Cole-Ave-75204/unit-2/home/40149582,NTREIS,14053629,N,Y,32.8109445,-96.7955511
MLS Listing,,Single Family Residential,6427 Wrenwood Dr,Dallas,TX,75252,399000,3,2.5,Preston Highlands,2184,7841,1982,2,183,15,Active,,,http://www.redfin.com/TX/Dallas/6427-Wrenwood-Dr-75252/home/32164928,NTREIS,14053258,N,Y,33.0035397,-96.7922982
MLS Listing,,Single Family Residential,3037 Westminster Dr,Farmers Branch,TX,75234,389000,3,2.5,Chapel Glen,2418,14201,1996,2,161,83,Active,March-31-2019 02:00 PM,March-31-2019 04:00 PM,http://www.redfin.com/TX/Farmers-Branch/3037-Westminster-Dr-75234/home/31333027,NTREIS,14052466,N,Y,32.9163078,-96.8735722
MLS Listing,,Single Family Residential,3668 Norcross Ln,Dallas,TX,75229,400000,3,2.0,Walnut Hill North 03,1652,10019,1956,3,242,,Active,March-31-2019 01:00 PM,March-31-2019 03:00 PM,http://www.redfin.com/TX/Dallas/3668-Norcross-Ln-75229/home/30929587,NTREIS,14052332,N,Y,32.8902186,-96.8578151
MLS Listing,,Single Family Residential,8541 Capri Dr,Dallas,TX,75238,379900,3,2.5,Caribbean Estates,2004,8886,1972,3,190,,Active,,,http://www.redfin.com/TX/Dallas/8541-Capri-Dr-75238/home/31044524,NTREIS,14052152,N,Y,32.8657105,-96.6952045
MLS Listing,,Single Family Residential,6529 Kingsbury Dr,Dallas,TX,75231,375000,3,2.0,Merriman Park,1675,10454,1963,4,224,,Active,March-31-2019 02:00 PM,March-31-2019 04:00 PM,http://www.redfin.com/TX/Dallas/6529-Kingsbury-Dr-75231/home/30870904,NTREIS,14047368,N,Y,32.8559578,-96.7428968
MLS Listing,,Single Family Residential,9224 Coral Cove Dr,Dallas,TX,75243,395000,4,2.5,Town Creek,2409,8973,1974,4,164,,Active,,,http://www.redfin.com/TX/Dallas/9224-Coral-Cove-Dr-75243/home/31069418,NTREIS,14051186,N,Y,32.9029953,-96.7368976
MLS Listing,,Single Family Residential,6902 Vista Willow Dr,Dallas,TX,75248,385000,4,3.0,Prestonwood,2466,11805,1976,4,156,,Active,,,http://www.redfin.com/TX/Dallas/6902-Vista-Willow-Dr-75248/home/31080131,NTREIS,14051259,N,Y,32.9737354,-96.7887414
MLS Listing,,Townhouse,17214 Lechlade Ln,Dallas,TX,75252,400000,3,2.5,Amber Trails 02,1947,741,2005,5,205,325,Active,,,http://www.redfin.com/TX/Dallas/17214-Lechlade-Ln-75252/home/30743544,NTREIS,14050494,N,Y,32.9854393,-96.8057031
MLS Listing,,Single Family Residential,17582 Sequoia Dr,Dallas,TX,75252,398990,3,2.0,University Place,1800,4400,2019,5,222,54,Active,,,http://www.redfin.com/TX/Dallas/17582-Sequoia-Dr-75252/home/160755552,NTREIS,14050482,N,Y,32.990862,-96.761506
MLS Listing,,Condo/Co-op,2323 N Houston St N #310,Dallas,TX,75219,399000,2,2.0,Terrace Condos,1382,39727,2005,6,289,775,Active,,,http://www.redfin.com/TX/Dallas/2323-N-Houston-St-75219/unit-310/home/30765333,NTREIS,14043587,N,Y,32.7850316,-96.8100004
MLS Listing,,Condo/Co-op,6016 Hudson St #4,Dallas,TX,75206,385000,2,2.5,Munger Place,1420,7013,2019,8,271,255,Active,March-31-2019 03:00 AM,March-31-2019 05:00 PM,http://www.redfin.com/TX/Dallas/6016-Hudson-St-75206/unit-4/home/160726075,NTREIS,14048343,N,Y,32.810251,-96.7648873
MLS Listing,,Single Family Residential,16808 Old Pond Dr,Dallas,TX,75248,399900,4,3.0,Hillcrest Manor 2nd Sec,2668,9496,1976,8,150,6,Active,March-31-2019 02:00 PM,March-31-2019 04:00 PM,http://www.redfin.com/TX/Dallas/16808-Old-Pond-Dr-75248/home/31108215,NTREIS,14046566,N,Y,32.9804082,-96.7820049
MLS Listing,,Condo/Co-op,3801 Gilbert Ave Unit L,Dallas,TX,75219,375000,2,2.5,Gilbert Condo 3801,1963,24002,1981,8,191,634,Active,,,http://www.redfin.com/TX/Dallas/3801-Gilbert-Ave-75219/unit-L/home/30799883,NTREIS,14048202,N,Y,32.8142434,-96.8032189
MLS Listing,,Condo/Co-op,6231 Bandera Ave Unit D,Dallas,TX,75225,385000,2,2.0,Harcourt House Condo,1772,86249,1958,8,217,685,Active,March-31-2019 02:00 PM,March-31-2019 04:00 PM,http://www.redfin.com/TX/Dallas/6231-Bandera-Ave-75225/unit-D/home/31171039,NTREIS,14040301,N,Y,32.8678155,-96.7992213
MLS Listing,,Condo/Co-op,8616 Turtle Creek Blvd #323,Dallas,TX,75225,399900,2,2.5,Sorrento Condos,1288,,2006,8,310,656,Active,,,http://www.redfin.com/TX/Dallas/8616-Turtle-Creek-Blvd-75225/unit-323/home/30783443,NTREIS,14047174,N,Y,32.8661655,-96.7894867
MLS Listing,,Single Family Residential,7938 Woodstone Ln,Dallas,TX,75248,399750,4,2.5,Spring Creek,2103,17947,1968,9,190,4,Active,March-31-2019 01:00 PM,March-31-2019 03:00 PM,http://www.redfin.com/TX/Dallas/7938-Woodstone-Ln-75248/home/31074817,NTREIS,14047027,N,Y,32.9556248,-96.7705419
MLS Listing,,Single Family Residential,3406 Jubilee Trl,Dallas,TX,75229,394000,3,2.0,Kenilworth Estates,1917,14462,1960,9,206,,Active,,,http://www.redfin.com/TX/Dallas/3406-Jubilee-Trl-75229/home/30931276,NTREIS,14046536,N,Y,32.9002005,-96.8620512
MLS Listing,,Single Family Residential,5605 Worth St,Dallas,TX,75214,395000,3,2.0,Junius Heights Add,1754,7492,1936,10,225,,Active,,,http://www.redfin.com/TX/Dallas/5605-Worth-St-75214/home/30800105,NTREIS,14046581,N,Y,32.8046012,-96.7598338
MLS Listing,,Single Family Residential,417 N Montreal Ave,Dallas,TX,75208,399900,4,2.0,L O Daniel Jr,1821,7710,1943,10,220,,Active,,,http://www.redfin.com/TX/Dallas/417-N-Montreal-Ave-75208/home/30847496,NTREIS,14045949,N,Y,32.7483119,-96.8540924
MLS Listing,,Single Family Residential,6555 Fisher Rd,Dallas,TX,75214,385000,3,2.0,Fisher Road Heights 03,1379,7362,1956,10,279,,Active,,,http://www.redfin.com/TX/Dallas/6555-Fisher-Rd-75214/home/30870201,NTREIS,14041666,N,Y,32.8512263,-96.7468271
MLS Listing,,Single Family Residential,1201 College Park Blvd,Richardson,TX,75081,384900,4,3.0,College Park Sec 02,2548,9627,1977,11,151,,Active,,,http://www.redfin.com/TX/Richardson/1201-College-Park-Blvd-75081/home/31925747,NTREIS,14046009,N,Y,32.933908,-96.7076989
MLS Listing,,Single Family Residential,4557 Surf Dr,Dallas,TX,75214,375000,2,1.5,Mockingbird Hill,1356,8015,1952,11,277,,Active,March-30-2019 01:30 PM,March-30-2019 03:00 PM,http://www.redfin.com/TX/Dallas/4557-Surf-Dr-75214/home/30823127,NTREIS,14046643,N,Y,32.8430026,-96.7464153
MLS Listing,,Condo/Co-op,2103 Bennett Ave #50,Dallas,TX,75206,400000,2,2.5,The Block,1610,35981,2016,11,248,230,Active,,,http://www.redfin.com/TX/Dallas/2103-Bennett-Ave-75206/unit-50/home/147236033,NTREIS,14046082,N,Y,32.8103165,-96.7795298
MLS Listing,,Single Family Residential,6708 Roundrock Rd,Dallas,TX,75248,389000,4,2.5,Preston Meadow Estates 2,2517,9714,1971,11,155,,Active,,,http://www.redfin.com/TX/Dallas/6708-Roundrock-Rd-75248/home/31077485,NTREIS,14046322,N,Y,32.956405,-96.7940976
MLS Listing,,Townhouse,5926 Chipping Way,Dallas,TX,75252,385000,3,3.0,Amber Trails 02,1947,1742,2004,11,198,325,Active,,,http://www.redfin.com/TX/Dallas/5926-Chipping-Way-75252/home/30743527,NTREIS,14044809,N,Y,32.98683,-96.806042
MLS Listing,,Single Family Residential,5700 Worth St,Dallas,TX,75214,375000,3,2.0,Junius Heights,1482,8712,1912,12,253,,Active,,,http://www.redfin.com/TX/Dallas/5700-Worth-St-75214/home/30801832,NTREIS,14045406,N,Y,32.8052135,-96.7582445
MLS Listing,,Single Family Residential,11517 Rockcraft St,Dallas,TX,75218,399900,3,2.0,Lochwood,2062,7928,1961,12,194,,Active,,,http://www.redfin.com/TX/Dallas/11517-Rockcraft-St-75218/home/30863277,NTREIS,14033732,N,Y,32.8494424,-96.6951627
MLS Listing,,Single Family Residential,3621 Coral Gables Dr,Dallas,TX,75229,399990,4,2.0,Park Forest Add Instl 01,2168,11718,1958,13,184,,Active,,,http://www.redfin.com/TX/Dallas/3621-Coral-Gables-Dr-75229/home/30932155,NTREIS,14044744,N,Y,32.9060332,-96.8587838
MLS Listing,,Single Family Residential,2006 Indian Trl,Rowlett,TX,75088,385000,4,2.5,Westwood Shores Ph 01,3477,10324,1997,14,111,,Active,March-31-2019 02:00 PM,March-31-2019 04:00 PM,http://www.redfin.com/TX/Rowlett/2006-Indian-Trl-75088/home/32029832,NTREIS,14041268,N,Y,32.8872517,-96.5809454
MLS Listing,,Single Family Residential,702 N Windomere Ave,Dallas,TX,75208,399000,3,2.0,Oak Cliff Annex,1576,5009,1923,15,253,,Active,April-7-2019 03:00 PM,April-7-2019 05:00 PM,http://www.redfin.com/TX/Dallas/702-N-Windomere-Ave-75208/home/30831156,NTREIS,14043273,N,Y,32.7510459,-96.8450025
MLS Listing,,Single Family Residential,11561 Coral Hills Dr,Dallas,TX,75229,389500,3,3.0,Coral Hills,1683,10324,1960,15,231,,Active,,,http://www.redfin.com/TX/Dallas/11561-Coral-Hills-Dr-75229/home/30931787,NTREIS,14042092,N,Y,32.9078684,-96.8680628
MLS Listing,,Single Family Residential,9424 Hunters Creek Dr,Dallas,TX,75243,375000,4,2.5,Forest Mdws Sec 01,2142,10367,1969,15,175,,Active,,,http://www.redfin.com/TX/Dallas/9424-Hunters-Creek-Dr-75243/home/31070850,NTREIS,14042333,N,Y,32.9046122,-96.7345554
MLS Listing,,Condo/Co-op,5200 Keller Springs Rd #1233,Dallas,TX,75248,400000,2,2.0,Bonaventure Condos,2006,331012,1981,16,199,1000,Active,,,http://www.redfin.com/TX/Dallas/5200-Keller-Springs-Rd-75248/unit-1233/home/31129152,NTREIS,14041136,N,Y,32.9683918,-96.8197626
MLS Listing,,Condo/Co-op,5906 Lindell Ave #104,Dallas,TX,75206,379900,2,2.5,ALTA VISTA,1354,6534,2019,19,281,150,Active,,,http://www.redfin.com/TX/Dallas/5906-Lindell-Ave-75206/unit-104/home/160666699,NTREIS,14040731,N,Y,32.8087126,-96.766568
MLS Listing,,Single Family Residential,9309 Chimneywood Dr,Rowlett,TX,75089,389000,6,3.5,Graham Estates,2956,6534,2018,19,132,,Active,March-31-2019 02:00 AM,March-31-2019 04:00 PM,http://www.redfin.com/TX/Rowlett/9309-Chimneywood-Dr-75089/home/33933307,NTREIS,14036030,N,Y,32.9222191,-96.5109548
MLS Listing,,Single Family Residential,3558 Vinecrest Dr,Dallas,TX,75229,399000,3,2.0,Royal Hills 3rd Inst,1962,10193,1957,19,203,,Active,March-31-2019 02:00 PM,March-31-2019 04:00 PM,http://www.redfin.com/TX/Dallas/3558-Vinecrest-Dr-75229/home/30931097,NTREIS,14037562,N,Y,32.8979171,-96.8597447
MLS Listing,,Single Family Residential,12105 Cox Ln,Dallas,TX,75244,390000,4,2.0,Meadow Park Inst 02,2059,10280,1965,19,189,,Active,,,http://www.redfin.com/TX/Dallas/12105-Cox-Ln-75244/home/30927643,NTREIS,14040325,N,Y,32.9139174,-96.851663
MLS Listing,,Condo/Co-op,1500 Pecos St #13,Dallas,TX,75204,375000,3,2.5,GEORGETOWN COURT TOWNHOME,1821,,2002,19,206,327,Active,,,http://www.redfin.com/TX/Dallas/1500-Pecos-St-75204/unit-13/home/147447905,NTREIS,14040336,N,Y,32.7962928,-96.7845522
MLS Listing,,Single Family Residential,4309 Running Brook Dr,Rowlett,TX,75088,398000,4,3.0,Pecan Harbor Estates,3806,14375,1995,22,105,42,Active,,,http://www.redfin.com/TX/Rowlett/4309-Running-Brook-Dr-75088/home/32009995,NTREIS,14035044,N,Y,32.8785142,-96.560699
MLS Listing,,Single Family Residential,10816 Beauty Ln,Dallas,TX,75229,375000,3,2.0,Webster Grove,1557,10106,1960,22,241,,Active,,,http://www.redfin.com/TX/Dallas/10816-Beauty-Ln-75229/home/30930989,NTREIS,14038923,N,Y,32.8959099,-96.8643491
MLS Listing,,Townhouse,721 Colten James Ln,Dallas,TX,75204,400000,2,2.5,Habitat At 3020,1766,1220,2005,23,227,90,Active,,,http://www.redfin.com/TX/Dallas/721-Colten-James-Ln-75204/home/30760565,NTREIS,14038251,N,Y,32.791347,-96.788231
MLS Listing,,Single Family Residential,7446 Clearhaven Dr,Dallas,TX,75248,389500,4,3.0,Prestonwood,2184,9714,1971,23,178,,Active,April-7-2019 03:00 PM,April-7-2019 05:00 PM,http://www.redfin.com/TX/Dallas/7446-Clearhaven-Dr-75248/home/31079235,NTREIS,14037922,N,Y,32.9667863,-96.7787833
MLS Listing,,Single Family Residential,16055 Longvista Dr,Dallas,TX,75248,399900,4,4.0,Prestonwood #4,2609,10237,1972,24,153,,Active,,,http://www.redfin.com/TX/Dallas/16055-Longvista-Dr-75248/home/31080073,NTREIS,14036114,N,Y,32.9686265,-96.7852266
MLS Listing,,Single Family Residential,10647 Chesterton Dr,Dallas,TX,75238,375000,4,2.0,Lake Highlands Estates,1937,9888,1960,24,194,,Active,,,http://www.redfin.com/TX/Dallas/10647-Chesterton-Dr-75238/home/31064272,NTREIS,14034032,N,Y,32.8814383,-96.7007828
MLS Listing,,Single Family Residential,644 Laketrail Dr,Richardson,TX,75081,399000,3,2.5,Lakes of buckingham,2611,5184,2003,25,153,171,Active,,,http://www.redfin.com/TX/Richardson/644-Laketrail-Dr-75081/home/32256322,NTREIS,14035894,N,Y,32.930801,-96.718693
MLS Listing,,Single Family Residential,2208 Ray Hubbard,Wylie,TX,75098,392227,3,2.5,Grayhawk Park ***Now Selling***,2866,7841,2019,27,137,38,Active,,,http://www.redfin.com/TX/Unknown/2208-Ray-Hubbard-Way-75098/home/160468879,NTREIS,14034763,N,Y,33.009722,-96.497074
MLS Listing,,Single Family Residential,9433 Lynngrove Dr,Dallas,TX,75238,389900,3,2.0,Lake Ridge Estates,1677,8233,1961,28,232,,Active,,,http://www.redfin.com/TX/Dallas/9433-Lynngrove-Dr-75238/home/31031952,NTREIS,14034259,N,Y,32.8764054,-96.7108333
MLS Listing,,Townhouse,1008 Pavillion St,Dallas,TX,75204,390000,3,2.5,Villas Of Bryan Place,1874,1045,2004,29,208,165,Active,,,http://www.redfin.com/TX/Dallas/1008-Pavillion-St-75204/home/30730304,NTREIS,14032727,N,Y,32.793989,-96.789588
MLS Listing,,Condo/Co-op,2200 Victory Ave #706,Dallas,TX,75219,400000,1,1.5,The House,1212,53709,2007,29,330,914,Active,March-31-2019 02:00 PM,March-31-2019 04:00 PM,http://www.redfin.com/TX/Dallas/2200-Victory-Ave-75219/unit-706/home/30782292,NTREIS,14033716,N,Y,32.7849571,-96.8096512
MLS Listing,,Single Family Residential,7015 Chackbay Ln,Dallas,TX,75227,390000,4,2.0,Enclave At Grove Hill 02,2403,7492,2012,29,162,53,Active,,,http://www.redfin.com/TX/Dallas/7015-Chackbay-Ln-75227/home/30740487,NTREIS,14033464,N,Y,32.7888702,-96.714156
MLS Listing,,Condo/Co-op,3448 Rankin St,University Park,TX,75205,380000,2,2.5,Rankins Place Condo,1365,7013,1984,29,278,70,Active,,,http://www.redfin.com/TX/Dallas/3448-Rankin-St-75205/home/32093530,NTREIS,14033295,N,Y,32.8495555,-96.7898145
MLS Listing,,Single Family Residential,3762 Rockdale Dr,Dallas,TX,75220,379900,3,2.0,Marsh Lane,1427,8189,1950,30,266,,Active,,,http://www.redfin.com/TX/Dallas/3762-Rockdale-Dr-75220/home/30912074,NTREIS,14025952,N,Y,32.8764735,-96.8535022
MLS Listing,,Single Family Residential,11115 Manorview Cir,Dallas,TX,75228,382500,3,2.5,Club Manor,2983,13460,1985,30,128,31,Active,,,http://www.redfin.com/TX/Dallas/11115-Manorview-Cir-75228/home/31156112,NTREIS,14032543,N,Y,32.8430768,-96.6541446
MLS Listing,,Single Family Residential,622 W 8th St,Dallas,TX,75208,400000,5,2.0,Dallas Land & Loan 03,1800,6011,1996,30,222,,Active,,,http://www.redfin.com/TX/Dallas/622-W-Eighth-St-75208/home/30827466,NTREIS,14030750,N,Y,32.7478543,-96.8331319
MLS Listing,,Townhouse,1614 Jensen Ct,Dallas,TX,75204,379000,3,3.5,San Jacinto Lofts 02,1785,1263,2007,33,212,99,Active,,,http://www.redfin.com/TX/Dallas/1614-Jensen-Ct-75204/home/30773761,NTREIS,14030156,N,Y,32.7984878,-96.7840066
MLS Listing,,Vacant Land,720 Peavy Rd,Dallas,TX,75218,395000,0,,Henfred Add,,28401,1949,33,,,Active,,,http://www.redfin.com/TX/Dallas/720-Peavy-Rd-75218/home/30907820,NTREIS,14029914,N,Y,32.8478752,-96.7095268
MLS Listing,,Single Family Residential,6943 Winchester St,Dallas,TX,75231,400000,3,2.0,Merriman Park,1606,8364,1959,35,249,,Active,March-30-2019 02:00 PM,March-30-2019 04:00 PM,http://www.redfin.com/TX/Dallas/6943-Winchester-St-75231/home/30870947,NTREIS,14027581,N,Y,32.8612999,-96.7422278
MLS Listing,,Single Family Residential,3401 Anthony Cir,Rowlett,TX,75088,375000,4,3.5,Lake Forest Estates,4080,19950,2000,36,92,100,Active,,,http://www.redfin.com/TX/Rowlett/3401-Anthony-Cir-75088/home/32232529,NTREIS,14026004,N,Y,32.8932594,-96.5504427
MLS Listing,,Single Family Residential,1143 Clifftop Ln,Dallas,TX,75208,378350,2,2.5,Meridian,1315,3267,2019,36,288,159,Active,,,http://www.redfin.com/TX/Dallas/1143-Clifftop-Ln-75208/home/160516048,NTREIS,14028879,N,Y,32.771954,-96.839748
MLS Listing,,Condo/Co-op,5200 Keller Springs Rd #915,Dallas,TX,75248,380000,2,2.0,Bonaventure Condo,1685,331012,1981,36,226,761,Active,,,http://www.redfin.com/TX/Dallas/5200-Keller-Springs-Rd-75248/unit-915/home/31128765,NTREIS,14027816,N,Y,32.9683918,-96.8197626
MLS Listing,,Condo/Co-op,4411 Mckinney Ave #28,Dallas,TX,75205,398000,2,2.5,Grammercy Place Condo,1967,65166,2001,37,202,300,Active,,,http://www.redfin.com/TX/Dallas/4411-McKinney-Ave-75205/unit-28/home/30729093,NTREIS,14028202,N,Y,32.8196111,-96.7893183
MLS Listing,,Multi-Family (2-4 Unit),8345 Lullwater Dr,Dallas,TX,75218,399000,4,3.0,Park highlands 1st inst.,2456,11761,1967,37,162,,Active,,,http://www.redfin.com/TX/Dallas/8345-Lullwater-Dr-75218/home/160509839,NTREIS,14025210,N,Y,32.8618813,-96.7043035
MLS Listing,,Condo/Co-op,4103 Avondale Ave #4,Dallas,TX,75219,384500,2,2.5,4103 Avondale Twnhms Add,1909,13852,1980,37,201,395,Active,March-31-2019 01:00 PM,March-31-2019 02:30 PM,http://www.redfin.com/TX/Dallas/4103-Avondale-Ave-75219/unit-4/home/30798966,NTREIS,14023403,N,Y,32.8178566,-96.806673
MLS Listing,,Condo/Co-op,1505 Elm St #1503,Dallas,TX,75201,375000,2,2.5,Elm Street Condo 1505,1730,10019,1957,39,217,1271,Active,,,http://www.redfin.com/TX/Dallas/1505-Elm-St-75201/unit-1503/home/30745279,NTREIS,14024426,N,Y,32.7814834,-96.7997122
MLS Listing,,Condo/Co-op,5609 Smu Blvd #401,Dallas,TX,75206,389000,2,2.0,Shelby Residences,1217,,2009,42,320,314,Active,,,http://www.redfin.com/TX/Dallas/5609-SMU-Blvd-75206/unit-401/home/106390918,NTREIS,14025111,N,Y,32.842467,-96.7722361
MLS Listing,,Condo/Co-op,4310 Buena Vista St #30,Dallas,TX,75205,379998,2,2.5,Morrison Condos,1707,56628,2000,43,223,373,Active,,,http://www.redfin.com/TX/Dallas/4310-Buena-Vista-St-75205/unit-30/home/32210061,NTREIS,14024181,N,Y,32.8191268,-96.7937377
MLS Listing,,Single Family Residential,2632 El Camino Ln,Dallas,TX,75212,399000,3,2.5,Soho Square,1933,1742,2019,44,206,167,Active,,,http://www.redfin.com/TX/Dallas/2632-El-Camino-Ln-Unknown/home/160467535,NTREIS,14023276,N,Y,32.782978,-96.883356
MLS Listing,,Single Family Residential,3353 Leahy Dr,Dallas,TX,75229,379000,5,3.0,Webster Grove,2231,10193,1960,44,170,,Active,,,http://www.redfin.com/TX/Dallas/3353-Leahy-Dr-75229/home/30930817,NTREIS,14019371,N,Y,32.8962981,-96.8652768
MLS Listing,,Single Family Residential,9743 Dartridge Dr,Dallas,TX,75238,400000,4,3.0,White Rock North,2514,9801,1966,45,159,,Active,,,http://www.redfin.com/TX/Dallas/9743-Dartridge-Dr-75238/home/31065911,NTREIS,14022788,N,Y,32.8832033,-96.7181476
MLS Listing,,Single Family Residential,3560 Townsend Dr,Dallas,TX,75229,389900,3,2.0,Royal Hills 3rd Inst,1690,10454,1958,46,231,,Active,,,http://www.redfin.com/TX/Dallas/3560-Townsend-Dr-75229/home/30931073,NTREIS,14021644,N,Y,32.8988944,-96.8594959
MLS Listing,,Single Family Residential,5821 Ranchero Ln,Dallas,TX,75236,385000,4,3.5,Oak Cliff Forest,3198,55278,1986,46,120,,Active,,,http://www.redfin.com/TX/Dallas/5821-Ranchero-Ln-75236/home/31107047,NTREIS,14016131,N,Y,32.682145,-96.922662
MLS Listing,,Single Family Residential,3335 Canada Dr,Dallas,TX,75212,399900,2,1.0,Westmoreland Park 3 Bl 25 7146,728,13634,1950,47,549,,Active,,,http://www.redfin.com/TX/Dallas/3335-Canada-Dr-75212/home/30978718,NTREIS,14017442,N,Y,32.7928451,-96.8752778
MLS Listing,,Townhouse,1022 Pavillion St,Dallas,TX,75204,375000,2,2.5,Villas Of Bryan Place,1940,1220,2004,49,193,158,Active,,,http://www.redfin.com/TX/Dallas/1022-Pavillion-St-75204/home/30730267,NTREIS,14020554,N,Y,32.794156,-96.78928
MLS Listing,,Single Family Residential,710 Kirkwood Dr,Dallas,TX,75218,375000,2,2.0,Lake Terrace,1442,7492,1955,50,260,,Active,March-31-2019 01:30 PM,March-31-2019 03:00 PM,http://www.redfin.com/TX/Dallas/710-Kirkwood-Dr-75218/home/28863257,NTREIS,14018845,N,Y,32.8506589,-96.7060273
MLS Listing,,Condo/Co-op,3416 Daniel Ave,University Park,TX,75205,399000,2,2.5,University Place Condominiums,1305,7754,1981,50,306,260,Active,,,http://www.redfin.com/TX/Dallas/3416-Daniel-Ave-75205/home/32111069,NTREIS,14020066,N,Y,32.8469971,-96.7886232
MLS Listing,,Single Family Residential,10641 Mapleridge Dr,Dallas,TX,75238,400000,3,2.0,Lake Highlands North,1883,7449,1965,50,212,,Active,,,http://www.redfin.com/TX/Dallas/10641-Mapleridge-Dr-75238/home/31062571,NTREIS,14019848,N,Y,32.8822185,-96.7009499
MLS Listing,,Condo/Co-op,5200 Keller Springs Rd #622,Dallas,TX,75248,399000,2,2.0,Bonaventure Condo,2006,331012,1981,50,199,1000,Active,,,http://www.redfin.com/TX/Dallas/5200-Keller-Springs-Rd-75248/unit-622/home/31128958,NTREIS,14018735,N,Y,32.9683918,-96.8197626
MLS Listing,,Single Family Residential,3616 Waldorf Dr,Dallas,TX,75229,385000,3,3.0,Royal Hills 3rd Inst,1870,10106,1955,51,206,,Active,,,http://www.redfin.com/TX/Dallas/3616-Waldorf-Dr-75229/home/30931111,NTREIS,14019432,N,Y,32.8969058,-96.8585953
MLS Listing,,Townhouse,5125 Dillard Ln,Dallas,TX,75209,389999,2,2.0,Park Cities Twnhms Amd,1580,1612,2005,51,247,190,Active,,,http://www.redfin.com/TX/Dallas/5125-Dillard-Ln-75209/home/30739834,NTREIS,14018423,N,Y,32.836069,-96.823266
MLS Listing,,Single Family Residential,3719 Van Ness Ln,Dallas,TX,75220,375000,3,1.0,North Davilla Drive Estates,1222,7971,1952,52,307,,Active,March-31-2019 01:00 PM,March-31-2019 04:00 PM,http://www.redfin.com/TX/Dallas/3719-Van-Ness-Ln-75220/home/30911797,NTREIS,14016525,N,Y,32.8732211,-96.8552652
MLS Listing,,Single Family Residential,1925 Woody Rd,Dallas,TX,75253,398000,5,3.0,Hickory Creek Phase 1,1896,38899,1982,52,210,,Active,,,http://www.redfin.com/TX/Dallas/1925-S-Woody-Rd-75253/home/110135383,NTREIS,14018597,N,Y,32.6716478,-96.5974643
MLS Listing,,Townhouse,4112 Lafayette,Dallas,TX,75204,399000,3,2.5,Perry Haskell,2030,2004,2002,52,197,142,Active,March-30-2019 01:00 PM,March-30-2019 03:00 PM,http://www.redfin.com/TX/Dallas/4112-Lafayette-St-75204/home/32212277,NTREIS,14016150,N,Y,32.8025534,-96.7862949
MLS Listing,,Single Family Residential,3103 Gulden Ln,Dallas,TX,75212,389900,2,1.0,El Hogar Mexicana,672,3615,1948,54,580,,Active,,,http://www.redfin.com/TX/Dallas/3103-Gulden-Ln-75212/home/30971638,NTREIS,14016625,N,Y,32.7802085,-96.8279295
MLS Listing,,Single Family Residential,5637 Live Oak St,Dallas,TX,75206,399000,3,1.0,Maggiore Williams Resub,1014,5706,1992,57,393,,Active,,,http://www.redfin.com/TX/Dallas/5637-Live-Oak-St-75206/home/31123976,NTREIS,13999155,N,Y,32.8099663,-96.7644765
MLS Listing,,Single Family Residential,919 Mount Auburn Ave,Dallas,TX,75223,399900,3,2.0,Mount Auburn,1956,7100,1947,57,204,,Active,,,http://www.redfin.com/TX/Dallas/919-Mt-Auburn-Ave-75223/home/30800774,NTREIS,14012811,N,Y,32.798149,-96.7465239
MLS Listing,,Single Family Residential,2921 Coteau Way,Dallas,TX,75227,379750,4,3.5,Enclave At Grove Hill,3143,7492,2006,57,121,50,Active,,,http://www.redfin.com/TX/Dallas/2921-Coteau-Way-75227/home/30740501,NTREIS,14015083,N,Y,32.7862154,-96.714971
MLS Listing,,Vacant Land,11 Meadowlake Dr,Heath,TX,75032,400000,0,,Meadow Lake Village,,43560,,57,,2,Active,,,http://www.redfin.com/TX/Heath/11-Meadowlake-Dr-75032/home/146242561,NTREIS,14015213,N,Y,32.8487941,-96.4891291
MLS Listing,,Single Family Residential,11636 Sahara Way,Dallas,TX,75218,390000,3,2.0,Lochwood,1530,7449,1955,58,255,,Active,March-30-2019 02:00 PM,March-30-2019 04:00 PM,http://www.redfin.com/TX/Dallas/11636-Sahara-Way-75218/home/30863633,NTREIS,14005041,N,Y,32.8539298,-96.6899818
MLS Listing,,Single Family Residential,18740 Park Grove Ln,Dallas,TX,75287,379000,3,3.0,Highlands Pkwy,2875,6098,1992,60,132,,Active,,,http://www.redfin.com/TX/Dallas/18740-Park-Grove-Ln-75287/home/32016302,NTREIS,14011716,N,Y,33.0057549,-96.8403343
MLS Listing,,Single Family Residential,1421 Dumont Dr,Richardson,TX,75080,375000,4,3.0,Northwood Estates,2353,7928,1964,60,159,,Active,,,http://www.redfin.com/TX/Richardson/1421-Dumont-Dr-75080/home/31946220,NTREIS,14011063,N,Y,32.9463061,-96.7670699
MLS Listing,,Single Family Residential,3370 Northaven Rd,Dallas,TX,75229,375000,4,3.0,Kenilworth Estates,2053,10106,1961,61,183,,Active,,,http://www.redfin.com/TX/Dallas/3370-Northaven-Rd-75229/home/30931674,NTREIS,14009292,N,Y,32.901631,-96.8647322
MLS Listing,,Single Family Residential,370 Kyra Ct,Coppell,TX,75019,399900,3,2.5,Kyra Court,2150,4095,2019,62,186,50,Active,,,http://www.redfin.com/TX/Coppell/370-Kyra-Ct-75019/home/110138272,NTREIS,14011238,N,Y,32.9530371,-96.9831555
MLS Listing,,Single Family Residential,11725 Neering Dr,Dallas,TX,75218,385000,3,2.0,Lochwood,1638,7623,1955,63,235,,Active,,,http://www.redfin.com/TX/Dallas/11725-Neering-Dr-75218/home/30863585,NTREIS,14002248,N,Y,32.8540882,-96.6894804
MLS Listing,,Vacant Land,548 Dalrock Rd,Rowlett,TX,75089,380000,0,,Hanse Hamilton,,174240,,64,,,Active,,,http://www.redfin.com/TX/Rowlett/548-Dalrock-Rd-75089/home/32131129,NTREIS,14010794,N,Y,32.943241,-96.524616
MLS Listing,,Townhouse,4850 Chambers St,Dallas,TX,75204,379900,2,2.5,Chambers Corner,1532,1002,2018,64,248,150,Active,,,http://www.redfin.com/TX/Dallas/4850-Chambers-St-75204/home/110137197,NTREIS,14010252,N,Y,32.8085182,-96.7792439
MLS Listing,,Vacant Land,1612 Bennett Ave,Dallas,TX,75206,395000,0,,College Hill,,7754,1900,65,,,Active,,,http://www.redfin.com/TX/Dallas/1612-Bennett-Ave-75206/home/160365145,NTREIS,14009601,N,Y,32.806755,-96.774322
MLS Listing,,Single Family Residential,6659 Aintree Cir,Dallas,TX,75214,399900,3,2.0,Fisher Road Heights 03,2044,7667,1955,65,196,,Active,,,http://www.redfin.com/TX/Dallas/6659-Aintree-Cir-75214/home/30870420,NTREIS,14001402,N,Y,32.8528473,-96.7452803
MLS Listing,,Townhouse,1961 N Fitzhugh Ave,Dallas,TX,75204,379900,2,2.5,Chambers Corner,1532,1002,2018,66,248,150,Active,,,http://www.redfin.com/TX/Dallas/1961-N-Fitzhugh-Ave-75204/home/110137562,NTREIS,14008629,N,Y,32.8084219,-96.7790485
MLS Listing,,Single Family Residential,623 Courageous Dr,Rockwall,TX,75032,375000,4,3.0,Chandlers Landing #18 Sec 2,2851,6795,1995,67,132,55,Active,,,http://www.redfin.com/TX/Rockwall/623-Courageous-Dr-75032/home/33929176,NTREIS,14008266,N,Y,32.8800246,-96.4858786
MLS Listing,,Single Family Residential,10235 Chimney Hill Ln,Dallas,TX,75243,395000,5,3.0,Country Forest Ph 01 Rev,2719,9278,1979,67,145,2,Active,,,http://www.redfin.com/TX/Dallas/10235-Chimney-Hill-Ln-75243/home/31109588,NTREIS,14007526,N,Y,32.9165548,-96.719506
MLS Listing,,Vacant Land,4607 Rusk Ave,Dallas,TX,75204,394000,0,,Laclede Add,,6490,1927,71,,,Active,,,http://www.redfin.com/TX/Dallas/4607-Rusk-Ave-75204/home/30809507,NTREIS,14006470,N,Y,32.8086764,-96.7842643
MLS Listing,,Condo/Co-op,15735 Spectrum Dr #86,Addison,TX,75001,388400,3,3.0,Townhomes Of District A Ph 01-11,2153,262623,2005,71,180,281,Active,,,http://www.redfin.com/TX/Addison/15735-Spectrum-Dr-75001/unit-86/home/147497530,NTREIS,14006441,N,Y,32.9632553,-96.824124
MLS Listing,,Condo/Co-op,5200 Keller Springs Rd #524,Dallas,TX,75248,399988,2,2.0,Bonaventure Condo,1685,331012,1981,72,237,840,Active,,,http://www.redfin.com/TX/Dallas/5200-Keller-Springs-Rd-75248/unit-524/home/31128999,NTREIS,14005187,N,Y,32.9683918,-96.8197626
MLS Listing,,Single Family Residential,3340 Dothan Ln,Dallas,TX,75229,375000,4,2.5,Webster Grove,2213,10193,1959,73,169,,Active,,,http://www.redfin.com/TX/Dallas/3340-Dothan-Ln-75229/home/30930751,NTREIS,14004798,N,Y,32.8976559,-96.8660633
MLS Listing,,Condo/Co-op,1001 Belleview St #606,Dallas,TX,75215,379900,2,2.0,Beat At The South Side Station,1198,,2007,73,317,453,Active,,,http://www.redfin.com/TX/Dallas/1001-Belleview-St-75215/unit-606/home/30788518,NTREIS,14004877,N,Y,32.7686977,-96.7950343
MLS Listing,,Single Family Residential,15635 Overmead Cir,Dallas,TX,75248,389990,3,2.5,Prestonwood Add 01 Rep,1913,7754,1967,73,204,69,Active,,,http://www.redfin.com/TX/Dallas/15635-Overmead-Cir-75248/home/31079027,NTREIS,14004791,N,Y,32.9613157,-96.7819212
MLS Listing,,Single Family Residential,1145 Manderly Ct,Dallas,TX,75204,399000,2,2.5,SWISS AVENUE LIMITED,1510,1742,2018,74,264,150,Active,March-30-2019 12:00 AM,March-30-2019 11:59 PM,http://www.redfin.com/TX/Dallas/1145-Manderly-Ct-75206/home/147257675,NTREIS,14004081,N,Y,32.795483745098,-96.778472936246
MLS Listing,,Condo/Co-op,4103 Avondale Ave #1,Dallas,TX,75219,375000,2,2.5,4103 Avondale Townhomes,2114,13852,1980,78,177,435,Active,,,http://www.redfin.com/TX/Dallas/4103-Avondale-Ave-75219/unit-1/home/30798965,NTREIS,14001448,N,Y,32.8178566,-96.806673
MLS Listing,,Single Family Residential,323 S Montreal Ave,Dallas,TX,75208,388000,3,2.0,Sunset Hill,1636,7492,1945,78,237,,Active,March-31-2019 01:00 PM,March-31-2019 03:00 PM,http://www.redfin.com/TX/Dallas/323-S-Montreal-Ave-75208/home/30830923,NTREIS,13997040,N,Y,32.7423124,-96.8544379
MLS Listing,,Single Family Residential,1872 Huron Dr,Rockwall,TX,75087,385900,4,2.5,Lakeside Village Ph V-C,3334,7797,2007,79,116,128,Active,,,http://www.redfin.com/TX/Rockwall/1872-Huron-Dr-75087/home/33880606,NTREIS,14001183,N,Y,32.8972832,-96.4803399
MLS Listing,,Single Family Residential,5730 Anita St,Dallas,TX,75206,399000,2,2.0,Greenville Crest Annex,1644,7449,1941,79,243,,Active,,,http://www.redfin.com/TX/Dallas/5730-Anita-St-75206/home/30821851,NTREIS,13996949,N,Y,32.8345283,-96.7685745
MLS Listing,,Single Family Residential,18144 Frankford Lakes Cir,Dallas,TX,75252,375000,3,2.0,Frankford Lakes,2188,2178,2005,80,171,150,Active,April-14-2019 02:00 PM,April-14-2019 04:00 PM,http://www.redfin.com/TX/Dallas/18144-Frankford-Lakes-Cir-75252/home/32303510,NTREIS,13999359,N,Y,32.9993915,-96.7995275
MLS Listing,,Condo/Co-op,6016 Hudson St #3,Dallas,TX,75206,385000,2,2.5,Munger Place,1420,7013,2019,81,271,255,Active,,,http://www.redfin.com/TX/Dallas/6016-Hudson-St-75206/unit-3/home/148633894,NTREIS,13998168,N,Y,32.810251,-96.7648873
MLS Listing,,Townhouse,3532 Cedarplaza Ln,Dallas,TX,75209,379999,2,2.0,Park Oaks Add,1944,1350,2000,83,195,120,Active,,,http://www.redfin.com/TX/Dallas/3532-Cedar-Plaza-Ln-75209/home/32213390,NTREIS,13997838,N,Y,32.826134,-96.820815
MLS Listing,,Condo/Co-op,1715 Bennett Ave #106,Dallas,TX,75206,389000,2,2.5,College Hill,1639,10237,2018,85,237,200,Active,,,http://www.redfin.com/TX/Dallas/1715-Bennett-Ave-75206/unit-106/home/145582167,NTREIS,13997256,N,Y,32.8073677,-96.7760204
MLS Listing,,Condo/Co-op,1715 Bennett Ave #104,Dallas,TX,75206,379000,2,2.5,College Hill,1639,10237,2018,85,231,200,Active,,,http://www.redfin.com/TX/Dallas/1715-Bennett-Ave-75206/unit-104/home/145582130,NTREIS,13997244,N,Y,32.8073677,-96.7760204
MLS Listing,,Condo/Co-op,1715 Bennett Ave #102,Dallas,TX,75206,379000,2,2.5,College Hill,1639,10237,2018,85,231,200,Active,,,http://www.redfin.com/TX/Dallas/1715-Bennett-Ave-75206/unit-102/home/145582131,NTREIS,13997239,N,Y,32.8073677,-96.7760204
MLS Listing,,Single Family Residential,5336 Richard Ave,Dallas,TX,75206,400000,3,1.0,Vickery Place,1452,7754,1930,87,275,,Active,,,http://www.redfin.com/TX/Dallas/5336-Richard-Ave-75206/home/30807058,NTREIS,13994693,N,Y,32.8189587,-96.7782813
MLS Listing,,Single Family Residential,3983 Highgrove,Dallas,TX,75220,399000,3,2.0,Davila Drive Estates,1826,9409,1951,87,219,,Active,,,http://www.redfin.com/TX/Dallas/3983-Highgrove-Dr-75220/home/30911665,NTREIS,13994646,N,Y,32.8691546,-96.8454645
MLS Listing,,Single Family Residential,2606 Deep Hill Cir,Dallas,TX,75233,380000,4,3.5,Emmett,3722,11500,1969,92,102,,Active,,,http://www.redfin.com/TX/Dallas/2606-Deep-Hill-Cir-75233/home/30901216,NTREIS,13993791,N,Y,32.6921574,-96.8625329
MLS Listing,,Townhouse,4415 Gennaro St,Dallas,TX,75204,383000,2,2.5,Carroll Johnston,2178,1655,2008,93,176,50,Active,,,http://www.redfin.com/TX/Dallas/4415-Gennaro-St-75204/home/30788090,NTREIS,13988689,N,Y,32.8062088,-96.7847873
MLS Listing,,Single Family Residential,4418 Sexton Ln,Dallas,TX,75229,375000,3,1.0,Northcrest Instl 03,1110,6708,1953,103,338,,Active,,,http://www.redfin.com/TX/Dallas/4418-Sexton-Ln-75229/home/30878849,NTREIS,13989063,N,Y,32.8865399,-96.83378
MLS Listing,,Condo/Co-op,2016 N Fitzhugh Ave #106,Dallas,TX,75204,379900,2,2.5,Monarch Place,1555,9017,2018,103,244,289,Active,,,http://www.redfin.com/TX/Dallas/2016-N-Fitzhugh-Ave-75204/unit-106/home/148522976,NTREIS,13989772,N,Y,32.8093738,-96.7796277
MLS Listing,,Condo/Co-op,2016 N Fitzhugh Ave #104,Dallas,TX,75204,379900,2,2.5,Monarch Place,1555,9017,2018,103,244,289,Active,,,http://www.redfin.com/TX/Dallas/2016-N-Fitzhugh-Ave-75204/unit-104/home/148522975,NTREIS,13989767,N,Y,32.8093738,-96.7796277
MLS Listing,,Condo/Co-op,2016 N Fitzhugh Ave #105,Dallas,TX,75204,379900,2,2.5,Monarch Place,1555,9017,2018,103,244,289,Active,,,http://www.redfin.com/TX/Dallas/2016-N-Fitzhugh-Ave-75204/unit-105/home/148522960,NTREIS,13989770,N,Y,32.8093738,-96.7796277
MLS Listing,,Condo/Co-op,2016 N Fitzhugh Ave #103,Dallas,TX,75204,379900,2,2.5,Monarch Place,1555,9017,2018,103,244,289,Active,,,http://www.redfin.com/TX/Dallas/2016-N-Fitzhugh-Ave-75204/unit-103/home/148522959,NTREIS,13989766,N,Y,32.8093738,-96.7796277
MLS Listing,,Condo/Co-op,2016 N Fitzhugh Ave #102,Dallas,TX,75204,379900,2,2.5,Monarch Place,1555,9017,2018,103,244,289,Active,,,http://www.redfin.com/TX/Dallas/2016-N-Fitzhugh-Ave-75204/unit-102/home/148522936,NTREIS,13989765,N,Y,32.8093738,-96.7796277
MLS Listing,,Condo/Co-op,2016 N Fitzhugh Ave #101,Dallas,TX,75204,379900,2,2.5,Monarch Place,1555,9017,2018,103,244,289,Active,March-30-2019 12:00 PM,March-30-2019 02:00 PM,http://www.redfin.com/TX/Dallas/2016-N-Fitzhugh-Ave-75204/unit-101/home/148522924,NTREIS,13989737,N,Y,32.8093738,-96.7796277
MLS Listing,,Condo/Co-op,4218 Roseland Ave #105,Dallas,TX,75204,377500,2,2.5,Ross Ave,1668,8059,2018,103,226,320,Active,,,http://www.redfin.com/TX/Dallas/4218-Roseland-Ave-75204/unit-105/home/146967554,NTREIS,13984238,N,Y,32.8014344,-96.7835111
MLS Listing,,Condo/Co-op,4218 Roseland Ave #101,Dallas,TX,75204,378900,2,2.5,Ross Ave,1712,8059,2018,103,221,320,Active,,,http://www.redfin.com/TX/Dallas/4218-Roseland-Ave-75204/unit-101/home/146966988,NTREIS,13984107,N,Y,32.8014344,-96.7835111
MLS Listing,,Single Family Residential,835 Woodlawn Ave,Dallas,TX,75208,399900,4,2.0,Brown L G,2212,6970,1949,103,181,,Active,,,http://www.redfin.com/TX/Dallas/835-Woodlawn-Ave-75208/home/30829321,NTREIS,13988934,N,Y,32.753457,-96.8305987
MLS Listing,,Single Family Residential,7401 Sunset Blvd,Rowlett,TX,75088,376990,3,2.5,Bayside,2073,3223,2018,106,182,129,Active,March-30-2019 12:00 PM,March-30-2019 04:00 PM,http://www.redfin.com/TX/Unknown/7401-Sunset-Blvd-75088/home/146527335,NTREIS,13989017,N,Y,32.881291,-96.528853
MLS Listing,,Single Family Residential,10135 Cherry Tree Dr,Dallas,TX,75243,399900,4,3.0,Country Forest Ph 01 Rev,2741,8973,1978,108,146,,Active,,,http://www.redfin.com/TX/Dallas/10135-Cherry-Tree-Dr-75243/home/31110741,NTREIS,13983125,N,Y,32.9157097,-96.7189209
MLS Listing,,Condo/Co-op,7424 W Northwest Hwy #8,Dallas,TX,75225,399000,2,2.5,Northpark Garden Twnhms,1522,133816,1964,109,262,678,Active,,,http://www.redfin.com/TX/Dallas/7424-W-Northwest-Hwy-75225/unit-8/home/30871972,NTREIS,13986736,N,Y,32.8654328,-96.7798138
MLS Listing,,Condo/Co-op,3102 Ross Ave #3,Dallas,TX,75204,384900,3,3.5,Veranda,1907,40598,2006,114,202,125,Active,,,http://www.redfin.com/TX/Dallas/3102-Ross-Ave-75204/unit-3/home/30776597,NTREIS,13984318,N,Y,32.7933279,-96.7913684
MLS Listing,,Single Family Residential,807 S Waverly Dr,Dallas,TX,75208,375000,4,3.0,Sunset Hill,2950,7405,1923,115,127,,Active,,,http://www.redfin.com/TX/Dallas/807-S-Waverly-Dr-75208/home/30830498,NTREIS,13983088,N,Y,32.7380751,-96.8494432
MLS Listing,,Single Family Residential,3845 Van Ness Ln,Dallas,TX,75220,389000,3,2.0,North Davilla Drive Estates,1150,8233,1952,120,338,,Active,,,http://www.redfin.com/TX/Dallas/3845-Van-Ness-Ln-75220/home/30911819,NTREIS,13981143,N,Y,32.8726818,-96.8499039
MLS Listing,,Single Family Residential,629 Classen Dr,Dallas,TX,75218,399900,3,2.0,Lake Highlands Estates,1802,8059,1958,120,222,,Active,March-30-2019 02:00 PM,March-30-2019 04:00 PM,http://www.redfin.com/TX/Dallas/629-Classen-Dr-75218/home/30908723,NTREIS,13964160,N,Y,32.8533495,-96.7041049
MLS Listing,,Single Family Residential,6509 Brook Lake Dr,Dallas,TX,75248,378500,2,2.0,Prestonwood,2103,6055,1980,123,180,145,Active,,,http://www.redfin.com/TX/Dallas/6509-Brook-Lake-Dr-75248/home/31111579,NTREIS,13973784,N,Y,32.9677694,-96.7953531
MLS Listing,,Condo/Co-op,2130 Portofino Dr,Rockwall,TX,75032,375000,3,3.0,Watersedge At Lake Ray Hubbard,2010,3920,2003,123,187,356,Active,,,http://www.redfin.com/TX/Rockwall/2130-Portofino-75032/home/33882087,NTREIS,13977576,N,Y,32.8865656,-96.4820804
MLS Listing,,Condo/Co-op,5062 Westgrove Dr,Dallas,TX,75248,383000,2,2.5,Lakes of Bent Tree Condominium,2128,,1982,132,180,656,Active,,,http://www.redfin.com/TX/Dallas/5062-Westgrove-Dr-75248/home/31174139,NTREIS,13973140,N,Y,32.975301,-96.8205098
MLS Listing,,Single Family Residential,3474 Townsend Dr,Dallas,TX,75229,379000,3,3.0,Royal Hills Add 04 Instl,2113,12240,1957,133,179,,Active,,,http://www.redfin.com/TX/Dallas/3474-Townsend-Dr-75229/home/30931155,NTREIS,13972925,N,Y,32.8989019,-96.8625539
MLS Listing,,Townhouse,2321 Rusk Ct,Dallas,TX,75204,399900,2,2.0,Dwellings At Rusk,1650,2091,2009,134,242,,Active,,,http://www.redfin.com/TX/Dallas/2321-Rusk-Ct-75204/home/32395136,NTREIS,13974030,N,Y,32.8065938,-96.7869402
MLS Listing,,Condo/Co-op,1001 Belleview St #801,Dallas,TX,75215,380000,2,1.5,Beat at the South Side Station,1336,41077,2007,135,284,454,Active,March-31-2019 01:00 PM,March-31-2019 03:00 PM,http://www.redfin.com/TX/Dallas/1001-Belleview-St-75215/unit-801/home/30788540,NTREIS,13972725,N,Y,32.769071,-96.7948718
MLS Listing,,Single Family Residential,5204 Maple Springs Blvd,Dallas,TX,75235,375000,3,2.0,Oak Lawn Heights Add,1614,8102,1940,137,232,,Active,,,http://www.redfin.com/TX/Dallas/5204-Maple-Springs-Blvd-75235/home/30814048,NTREIS,13972141,N,Y,32.8210116,-96.8260768
MLS Listing,,Single Family Residential,1633 Neal St,Dallas,TX,75208,380000,0,1.0,Commerce Heights,900,8494,1940,140,422,,Active,,,http://www.redfin.com/TX/Dallas/1633-Neal-St-75208/home/30838969,NTREIS,13965779,N,Y,32.7666538,-96.8460941
MLS Listing,,Single Family Residential,1631 Navaro St,Dallas,TX,75208,377000,3,1.5,Commerce Heights,852,5924,1939,140,442,,Active,,,http://www.redfin.com/TX/Dallas/1631-Navaro-St-75208/home/30838910,NTREIS,13965733,N,Y,32.7666375,-96.8471816
MLS Listing,,Townhouse,3931 Wycliff Ave,Dallas,TX,75219,399950,3,2.5,Parklawn,1698,2178,1998,142,236,324,Active,,,http://www.redfin.com/TX/Dallas/3931-Wycliff-Ave-75219/home/31124185,NTREIS,13969913,N,Y,32.8198,-96.808379
MLS Listing,,Single Family Residential,3779 Royal Ln,Dallas,TX,75229,399000,3,3.0,Royal North Estates,2106,16335,1964,142,189,,Active,,,http://www.redfin.com/TX/Dallas/3779-Royal-Ln-75229/home/30931437,NTREIS,13969402,N,Y,32.8954211,-96.8525007
MLS Listing,,Single Family Residential,8234 Laflin Ln,Dallas,TX,75231,399900,2,2.0,Merion at Midtown Park,1403,1742,2019,148,285,121,Active,,,http://www.redfin.com/TX/Dallas/8234-Laflin-Dr-75231/home/143838147,NTREIS,13966450,N,Y,32.889661,-96.76188
MLS Listing,,Condo/Co-op,316 N Henderson Ave #2,Dallas,TX,75206,399000,2,2.5,Swalwell Add,1710,3180,2018,149,233,,Active,,,http://www.redfin.com/TX/Dallas/316-N-Henderson-Ave-75214/unit-2/home/147959898,NTREIS,13964637,N,Y,32.8000915,-96.7612237
MLS Listing,,Single Family Residential,627 Woolsey Dr,Dallas,TX,75224,400000,3,2.0,Wynnewood,2140,16161,1954,149,187,,Active,,,http://www.redfin.com/TX/Dallas/627-Woolsey-Dr-75224/home/30892142,NTREIS,13964397,N,Y,32.7294546,-96.8340531
MLS Listing,,Single Family Residential,2909 Westshore Dr,Rowlett,TX,75088,377500,4,3.5,Westwood Shores Ph 01,3266,12937,1997,154,116,,Active,,,http://www.redfin.com/TX/Rowlett/2909-Westshore-Dr-75088/home/32029958,NTREIS,13962639,N,Y,32.8900394,-96.5800487
MLS Listing,,Single Family Residential,122 Hollywood Ave,Dallas,TX,75208,382500,4,2.0,Mrs Georgia M Rices,1922,7710,1924,155,199,,Active,,,http://www.redfin.com/TX/Dallas/122-Hollywood-Ave-75208/home/30832196,NTREIS,13961757,N,Y,32.7444859,-96.8550495
MLS Listing,,Townhouse,3532 Miles St,Dallas,TX,75209,399000,3,2.5,Bowser Miles,1724,2004,2003,155,231,60,Active,March-31-2019 03:00 PM,March-31-2019 04:00 PM,http://www.redfin.com/TX/Dallas/3532-Miles-St-75209/home/32257802,NTREIS,13961247,N,Y,32.82678,-96.821371
MLS Listing,,Single Family Residential,2810 Vacherie Ln,Dallas,TX,75227,399000,4,3.5,Enclave At Grove Hill,4121,16248,2003,156,97,55,Active,,,http://www.redfin.com/TX/Dallas/2810-Vacherie-Ln-75227/home/30740529,NTREIS,13961711,N,Y,32.7888593,-96.716799
MLS Listing,,Condo/Co-op,4330 Mckinney Ave #13,Dallas,TX,75205,395000,2,2.5,Brighton Lofts North Condo,2049,44997,2002,156,193,360,Active,,,http://www.redfin.com/TX/Dallas/4330-McKinney-Ave-75205/unit-13/home/30731496,NTREIS,13958613,N,Y,32.8181904,-96.7897272
MLS Listing,,Vacant Land,4105 Marvin D Love Fwy,Dallas,TX,75224,399900,0,,R Mcdowell Abs 873,,178596,,158,,,Active,,,http://www.redfin.com/TX/Dallas/4105-Marvin-D-Love-Fwy-75224/home/30900525,NTREIS,13953055,N,Y,32.6954989,-96.8443756
MLS Listing,,Condo/Co-op,3618 Gillespie St #111,Dallas,TX,75219,379000,3,3.0,Intown Twnhms 02 Condo,1835,32365,1975,161,207,360,Active,,,http://www.redfin.com/TX/Dallas/3618-Gillespie-St-75219/unit-111/home/30794828,NTREIS,13956382,N,Y,32.8062883,-96.8086256
MLS Listing,,Single Family Residential,8659 Angora St,Dallas,TX,75218,387000,4,2.0,Lake Crest,1488,7579,1995,163,260,,Active,,,http://www.redfin.com/TX/Dallas/8659-Angora-St-75218/home/30859830,NTREIS,13947412,N,Y,32.8240422,-96.7124215
MLS Listing,,Condo/Co-op,3434 Daniel Ave Unit C,University Park,TX,75205,380000,3,2.5,Daniel Ave Condo 3434,1342,13547,1984,169,283,307,Active,,,http://www.redfin.com/TX/Dallas/3434-Daniel-Ave-75205/unit-C/home/32057995,NTREIS,13952830,N,Y,32.8469809,-96.7894205
MLS Listing,,Multi-Family (2-4 Unit),6031 Richmond Ave,Dallas,TX,75206,385000,2,2.0,Belmont,1564,4312,1926,170,246,,Active,,,http://www.redfin.com/TX/Dallas/6031-Richmond-Ave-75206/home/30738942,NTREIS,13952339,N,Y,32.8162945,-96.7624476
MLS Listing,,Condo/Co-op,4910 Live Oak St #8,Dallas,TX,75206,375000,2,2.5,Metropolitan On Live Oak,1576,7405,2018,175,238,220,Active,March-31-2019 02:00 PM,March-31-2019 04:00 PM,http://www.redfin.com/TX/Dallas/4910-Live-Oak-St-75206/unit-8/home/143844305,NTREIS,13852450,N,Y,32.8029506,-96.7714542
MLS Listing,,Vacant Land,602 N Buckner Blvd,Dallas,TX,75218,375000,0,,Lake Highlands Estates,,12572,,177,,,Active,,,http://www.redfin.com/TX/Dallas/602-N-Buckner-Blvd-75218/home/30867349,NTREIS,13947608,N,Y,32.8473059,-96.7137589
MLS Listing,,Townhouse,2717 Gaston Ave,Dallas,TX,75226,399999,2,2.5,Benavides Meadows,2174,1568,2002,180,184,75,Active,,,http://www.redfin.com/TX/Dallas/2717-Gaston-Ave-75226/home/32256103,NTREIS,13938942,N,Y,32.7867869,-96.786214
MLS Listing,,Condo/Co-op,4325 Cole Ave #5,Dallas,TX,75205,398000,2,2.5,Cole Ave Condo 4325,1807,13504,1985,182,220,400,Active,,,http://www.redfin.com/TX/Dallas/4325-Cole-Ave-75205/unit-5/home/31166657,NTREIS,13943852,N,Y,32.8187388,-96.7914433
MLS Listing,,Townhouse,2202 Shady Vis,Richardson,TX,75080,400000,4,2.5,Lake Park Estates Ph 1,2619,2919,2007,183,153,370,Active,,,http://www.redfin.com/TX/Richardson/2202-Shady-Vis-75080/home/30779024,NTREIS,13943542,N,Y,32.9809976,-96.7632421
MLS Listing,,Single Family Residential,11025 Glen Echo Ct,Dallas,TX,75238,399000,3,3.0,Lakeland Hills 01,2300,8930,1956,191,173,,Active,,,http://www.redfin.com/TX/Dallas/11025-Glen-Echo-Ct-75238/home/31023564,NTREIS,13937569,N,Y,32.8696551,-96.6927811
MLS Listing,,Single Family Residential,10508 Cromwell Dr,Dallas,TX,75229,395000,3,2.0,Walnut Hill North Sec 02,2013,14244,1959,198,196,,Active,,,http://www.redfin.com/TX/Dallas/10508-Cromwell-Dr-75229/unit-6504/home/30929561,NTREIS,13932908,N,Y,32.8900507,-96.862114
MLS Listing,,Single Family Residential,2322 Whitney Ln,Wylie,TX,75098,398780,4,3.5,Grayhawk Park,3711,7841,2018,200,107,38,Active,March-30-2019 12:00 PM,March-30-2019 05:00 PM,http://www.redfin.com/TX/Wylie/2322-Whitney-Ln-75098/home/147025132,NTREIS,13932601,N,Y,33.009401,-96.497083
MLS Listing,,Single Family Residential,8914 Angora St,Dallas,TX,75218,399999,3,2.0,Shamrock Shores 2,1474,6011,2018,201,271,,Active,,,http://www.redfin.com/TX/Dallas/8914-Angora-St-75218/home/30860973,NTREIS,13931835,N,Y,32.8254948,-96.7097276
MLS Listing,,Single Family Residential,7514 Silver Lake Dr,Rowlett,TX,75089,375000,5,3.5,Bayview Estates,4200,10759,1992,201,89,,Active,,,http://www.redfin.com/TX/Rowlett/7514-Silver-Lake-Dr-75089/home/33929691,NTREIS,13866551,N,Y,32.9261362,-96.5136004
MLS Listing,,Single Family Residential,9710 Lynbrook Dr,Dallas,TX,75238,400000,4,3.0,Lake Highlands Estates,2528,9017,1960,204,158,,Active,,,http://www.redfin.com/TX/Dallas/9710-Lynbrook-Dr-75238/home/31062798,NTREIS,13930066,N,Y,32.8795678,-96.7041885
MLS Listing,,Single Family Residential,202 S Edgefield Ave,Dallas,TX,75208,382500,4,3.0,Winnetka Heights,2384,5401,1925,208,160,,Active,,,http://www.redfin.com/TX/Dallas/202-S-Edgefield-Ave-75208/home/30827757,NTREIS,13920083,N,Y,32.7439565,-96.8438312
MLS Listing,,Condo/Co-op,5909 Luther Ln #1902,Dallas,TX,75225,399000,2,2.0,Shelton Condo,1361,65993,1983,232,293,851,Active,March-31-2019 02:00 PM,March-31-2019 04:00 PM,http://www.redfin.com/TX/Dallas/5909-Luther-Ln-75225/unit-1902/home/142487559,NTREIS,13911257,N,Y,32.8638899,-96.8107574
MLS Listing,,Townhouse,4014 Woodcreek Dr,Dallas,TX,75220,399000,2,2.5,Frenchmans Creek 02,2347,2657,1981,232,170,275,Active,,,http://www.redfin.com/TX/Dallas/4014-Woodcreek-Dr-75220/home/30856262,NTREIS,13908819,N,Y,32.864222,-96.842613
MLS Listing,,Single Family Residential,1220 Flanders St,Dallas,TX,75208,397000,3,2.0,Flanders Heights Rev,1292,19428,1935,234,307,,Active,,,http://www.redfin.com/TX/Dallas/1220-Flanders-St-75208/home/30839119,NTREIS,13908449,N,Y,32.7681523,-96.8411928
MLS Listing,,Single Family Residential,1233 Crownview Ln,Dallas,TX,75208,386730,3,2.5,Meridian,1558,3049,2018,234,248,159,Active,,,http://www.redfin.com/TX/Dallas/1233-Crownview-Ln-75208/home/146509415,NTREIS,13910014,N,Y,32.771215,-96.839978
MLS Listing,,Condo/Co-op,1505 Elm St #1504,Dallas,TX,75201,399000,2,2.5,1505 Elm Street Condo,1987,10019,1957,265,201,1455,Active,,,http://www.redfin.com/TX/Dallas/1505-Elm-St-75201/unit-1504/home/30745280,NTREIS,13885712,N,Y,32.7814834,-96.7997122
MLS Listing,,Single Family Residential,1020 Manacor Ln,Dallas,TX,75212,387990,2,2.0,Trinity Green,1849,1525,2019,276,210,108,Active,,,http://www.redfin.com/TX/Dallas/1020-Manacor-Ln-75212/home/146115793,NTREIS,13877428,N,Y,32.776621,-96.840436
MLS Listing,,Condo/Co-op,5809 Oram St #2,Dallas,TX,75206,399990,2,3.0,Oram Condos,2046,7187,2006,279,195,259,Active,March-31-2019 02:00 AM,March-31-2019 04:00 PM,http://www.redfin.com/TX/Dallas/5809-Oram-St-75206/unit-2/home/146100474,NTREIS,13874541,N,Y,32.8140938,-96.7676556
MLS Listing,,Vacant Land,1830 Pollard St,Dallas,TX,75208,375000,0,,Campbells re subdivision,,10019,,282,,,Active,,,http://www.redfin.com/TX/Dallas/1830-Pollard-St-75208/home/44609951,NTREIS,13872287,N,Y,32.7714243,-96.8492852
MLS Listing,,Condo/Co-op,4910 Live Oak St #9,Dallas,TX,75206,375000,2,2.5,Metropolitan On Live Oak,1576,7405,2018,288,238,220,Active,March-31-2019 02:00 PM,March-31-2019 04:00 PM,http://www.redfin.com/TX/Dallas/4910-Live-Oak-St-75206/unit-9/home/146054498,NTREIS,13852458,N,Y,32.8029506,-96.7714542
MLS Listing,,Vacant Land,6621 Walnut Hill Ln,Dallas,TX,75230,399000,0,,Crestmanor Estates,,12153,1954,362,,,Active,,,http://www.redfin.com/TX/Dallas/6621-Walnut-Hill-Ln-75230/home/30875074,NTREIS,13807632,N,Y,32.8801623,-96.7911056
MLS Listing,,Vacant Land,6031 Richmond Ave,Dallas,TX,75206,385000,0,,Belmont Sub,,8640,1926,365,,,Active,,,http://www.redfin.com/TX/Dallas/6031-Richmond-Ave-75206/home/30806598,NTREIS,13806376,N,Y,32.8162945,-96.7624476
MLS Listing,,Single Family Residential,9640 Lynbrook Dr,Dallas,TX,75238,399999,3,2.0,Lake Highlands Estates,1755,12763,1958,383,228,,Active,,,http://www.redfin.com/TX/Dallas/9640-Lynbrook-Dr-75238/home/31030806,NTREIS,13792502,N,Y,32.8781241,-96.7033109
MLS Listing,,Condo/Co-op,1505 Elm St #1603,Dallas,TX,75201,389900,2,2.0,Elm Street Condo 1505,1730,10019,1957,546,225,1270,Active,,,http://www.redfin.com/TX/Dallas/1505-Elm-St-75201/unit-1603/home/30745283,NTREIS,13703799,N,Y,32.7814834,-96.7997122
New Construction Home,,Single Family Residential,7437 Sunset Blvd,Rowlett,TX,75088,376240,3,2.5,Bayside,2458,,2019,31,153,,Active,,,http://www.redfin.com/TX/Rowlett/7437-Sunset-Blvd-75088/home/160543768,NewHomeSource.com,1594453,N,Y,32.881291,-96.528853
New Construction Home,,Single Family Residential,"2115 N Willomet Avenue, Dallas",Dallas,TX,75208,378350,2,2.5,Meridian - Dallas,1315,,2019,37,288,,Active,,,http://www.redfin.com/TX/Dallas/2115-N-Willomet-Ave-75208/home/30839062,NewHomeSource.com,1589543,N,Y,32.772005,-96.83948
New Construction Plan,,Single Family Residential,Buffalo Creek,Rowlett,TX,75088,394990,4,2.5,The Vineyards,2543,,,,155,,Active,,,http://www.redfin.com/TX/Rowlett/The-Vineyards/Buffalo-Creek/home/108234916,NewHomeSource.com,Plan-81162710,N,Y,32.8902153,-96.5361242
New Construction Plan,,Single Family Residential,Toledo Bend,Rowlett,TX,75088,391990,4,2.5,The Vineyards,2540,,,,154,,Active,,,http://www.redfin.com/TX/Rowlett/The-Vineyards/Toledo-Bend/home/108571566,NewHomeSource.com,Plan-81162709,N,Y,32.8902153,-96.5361242
New Construction Plan,,Single Family Residential,Maplewood,Dallas,TX,75231,399900,2,2.0,Merion at Midtown Park,1408,,,,284,,Active,,,http://www.redfin.com/TX/Dallas/Merion-at-Midtown-Park/Maplewood/home/148529050,NewHomeSource.com,Plan-81472800,N,Y,32.8897507,-96.7617614
New Construction Plan,,Single Family Residential,Jefferson,Dallas,TX,75252,398990,3,2.0,University Place,1800,,,,222,,Active,,,http://www.redfin.com/TX/Dallas/University-Place/Jefferson/home/144625649,NewHomeSource.com,Plan-71378297,N,Y,32.991617,-96.766435
New Construction Plan,,Single Family Residential,Terrasimi,Dallas,TX,75235,392990,2,2.5,Villas at Kimsey Park,1192,,,,330,,Active,,,http://www.redfin.com/TX/Dallas/Villas-at-Kimsey-Park/Terrasimi/home/128810643,NewHomeSource.com,Plan-71406837,N,Y,32.824169,-96.8382402
New Construction Plan,,Single Family Residential,Home C,Dallas,TX,75208,383940,3,2.5,Meridian - Dallas,1558,,,,246,,Active,,,http://www.redfin.com/TX/Dallas/Meridian-Dallas/Home-C/home/144624651,NewHomeSource.com,Plan-71571122,N,Y,32.772005,-96.83948
New Construction Plan,,Single Family Residential,Home A2,Dallas,TX,75208,378350,2,2.5,Meridian - Dallas,1315,,,,288,,Active,,,http://www.redfin.com/TX/Dallas/Meridian-Dallas/Home-A2/home/144624653,NewHomeSource.com,Plan-71571119,N,Y,32.772005,-96.83948
New Construction Plan,,Single Family Residential,Cozad,Dallas,TX,75212,387990,3,2.5,Parkside at Trinity Green - Villas,1442,,,,269,,Active,,,http://www.redfin.com/TX/Dallas/Parkside-at-Trinity-Green-Villas/Cozad/home/146082719,NewHomeSource.com,Plan-71519032,N,Y,32.778475,-96.840502
New Construction Plan,,Single Family Residential,Anna,Rowlett,TX,75088,381990,3,2.5,The Vineyards,2638,,,,145,,Active,,,http://www.redfin.com/TX/Rowlett/The-Vineyards/Anna/home/144160507,NewHomeSource.com,Plan-71444616,N,Y,32.8905962,-96.5365653
New Construction Plan,,Single Family Residential,Scarlett,Rowlett,TX,75088,385990,3,2.5,The Vineyards,2637,,,,146,,Active,,,http://www.redfin.com/TX/Rowlett/The-Vineyards/Scarlett/home/144160508,NewHomeSource.com,Plan-71444615,N,Y,32.8905962,-96.5365653
