SALE TYPE,SOLD DATE,PROPERTY TYPE,ADDRESS,CITY,STATE OR PROVINCE,ZIP OR POSTAL CODE,PRICE,BEDS,BATHS,LOCATION,SQUARE FEET,LOT SIZE,YEAR BUILT,DAYS ON MARKET,$/SQUARE FEET,HOA/MONTH,STATUS,NEXT OPEN HOUSE START TIME,NEXT OPEN HOUSE END TIME,URL (SEE http://www.redfin.com/buy-a-home/comparative-market-analysis FOR INFO ON PRICING),SOURCE,MLS#,FAVORITE,INTERESTED,LATITUDE,LONGITUDE
MLS Listing,,Single Family Residential,9317 Midway Rd,Dallas,TX,75220,1745000,4,4.0,Cochran Heights Add 02,4357,24306,2015,66,401,,Active,April-14-2019 02:00 PM,April-14-2019 04:00 PM,http://www.redfin.com/TX/Dallas/9317-Midway-Rd-75220/home/30855886,NTREIS,13999995,N,Y,32.8659783,-96.8379295
MLS Listing,,Single Family Residential,7814 Bryn Mawr Dr,Dallas,TX,75225,1995000,4,4.5,Caruth Hills 5,4876,11195,2011,1,409,,Active,,,http://www.redfin.com/TX/Dallas/7814-Bryn-Mawr-Dr-75225/home/30871439,NTREIS,14051627,N,Y,32.8557435,-96.7724453
MLS Listing,,Single Family Residential,11219 Shelterwood Ln,Dallas,TX,75229,1325000,4,3.5,Russwood Acres 01 Instl,3467,21998,1961,1,382,,Active,,,http://www.redfin.com/TX/Dallas/11219-Shelterwood-Ln-75229/home/30876993,NTREIS,14054652,N,Y,32.9002777,-96.82099
MLS Listing,,Single Family Residential,5330 Tanbark Rd,Dallas,TX,75229,1425000,4,4.5,Russwood Acres 04 Inst Sec 02,4302,22477,1967,1,331,,Active,March-31-2019 02:00 PM,March-31-2019 04:00 PM,http://www.redfin.com/TX/Dallas/5330-Tanbark-Rd-75229/home/30926107,NTREIS,14051031,N,Y,32.8968287,-96.8152065
MLS Listing,,Single Family Residential,6511 Clubhouse Cir,Dallas,TX,75240,1799000,4,4.0,Coterie 02,5077,13329,1981,1,354,,Active,,,http://www.redfin.com/TX/Dallas/6511-Clubhouse-Cir-75240/home/31017407,NTREIS,14053153,N,Y,32.927645,-96.796462
MLS Listing,,Single Family Residential,4303 Enfield Dr,Dallas,TX,75220,1875000,4,4.5,Midway Northwest Estates,3744,21824,1986,1,501,,Active,March-31-2019 01:00 PM,March-31-2019 03:00 PM,http://www.redfin.com/TX/Dallas/4303-Enfield-Dr-75220/home/31136777,NTREIS,14045754,N,Y,32.8657191,-96.8353302
MLS Listing,,Single Family Residential,6933 Delrose Dr,Dallas,TX,75214,1650000,4,3.5,Rex Newsom,3835,21606,1979,1,430,,Active,March-31-2019 02:00 PM,March-31-2019 04:00 PM,http://www.redfin.com/TX/Dallas/6933-Delrose-Dr-75214/home/30819946,NTREIS,14053953,N,Y,32.8255565,-96.7397608
MLS Listing,,Single Family Residential,6905 Forest Glen Dr,Dallas,TX,75230,1549000,3,3.5,Lake Forest Ph C,5245,8581,2000,1,295,492,Active,,,http://www.redfin.com/TX/Dallas/6905-Forest-Glen-Dr-75230/home/31150710,NTREIS,14053971,N,Y,32.9134982,-96.7858333
MLS Listing,,Single Family Residential,6115 Royalton Dr,Dallas,TX,75230,1679000,5,6.0,Preston Royal,5375,16030,2005,1,312,,Active,March-31-2019 03:00 PM,March-31-2019 05:00 PM,http://www.redfin.com/TX/Dallas/6115-Royalton-Dr-75230/home/30876815,NTREIS,14053560,N,Y,32.8972202,-96.8014841
MLS Listing,,Single Family Residential,5415 Walnut Hill Ln,Dallas,TX,75229,1499000,4,3.5,Broadmoor Park,3683,41382,1950,1,407,,Active,March-31-2019 01:00 PM,March-31-2019 03:00 PM,http://www.redfin.com/TX/Dallas/5415-Walnut-Hill-Ln-75229/home/30877971,NTREIS,14053181,N,Y,32.8805498,-96.8149778
MLS Listing,,Single Family Residential,2908 Westminster Ave,University Park,TX,75205,1399000,4,3.5,Compton Heights,3684,8843,1997,2,380,,Active,,,http://www.redfin.com/TX/Dallas/2908-Westminster-Ave-75205/home/32058408,NTREIS,14024130,N,Y,32.8502302,-96.7774864
MLS Listing,,Single Family Residential,7143 Hill Forest Dr,Dallas,TX,75230,1385000,4,3.5,Lake Forest Ph A,4392,8059,2005,2,315,492,Active,March-31-2019 01:00 PM,March-31-2019 03:00 PM,http://www.redfin.com/TX/Dallas/7143-Hill-Forest-Dr-75230/home/31150442,NTREIS,14053176,N,Y,32.9104818,-96.7812518
MLS Listing,,Single Family Residential,5603 Palomar Ln,Dallas,TX,75229,1425000,3,5.0,Netherlands Estates,4588,20299,1976,2,311,,Active,,,http://www.redfin.com/TX/Dallas/5603-Palomar-Ln-75229/home/30877716,NTREIS,14053066,N,Y,32.8904446,-96.8116131
MLS Listing,,Vacant Land,11430 Crestbrook Dr,Dallas,TX,75230,1250000,0,,Benefield and Younger,,27332,,2,,,Active,,,http://www.redfin.com/TX/Dallas/11430-Crestbrook-Dr-75230/home/30925877,NTREIS,14052324,N,Y,32.9048134,-96.7975471
MLS Listing,,Single Family Residential,6331 Royalton Dr,Dallas,TX,75230,1469000,5,4.5,Royal Crest 02,5766,16204,2003,2,255,,Active,,,http://www.redfin.com/TX/Dallas/6331-Royalton-Dr-75230/home/30876733,NTREIS,14052393,N,Y,32.8983244,-96.797299
MLS Listing,,Single Family Residential,17615 Cedar Creek Canyon Dr,Dallas,TX,75252,1795000,5,5.5,Harbord Oaks Estates,7587,26484,1987,3,237,650,Active,,,http://www.redfin.com/TX/Dallas/17615-Cedar-Creek-Canyon-Dr-75252/home/32047465,NTREIS,14052656,N,Y,32.9920978,-96.8130363
MLS Listing,,Single Family Residential,3617 Springbrook St,Dallas,TX,75205,1550000,3,3.5,Northern Hills 02,3638,7667,2019,3,426,,Active,,,http://www.redfin.com/TX/Dallas/3617-Springbrook-St-75205/home/35599302,NTREIS,14052045,N,Y,32.8196287,-96.79652
MLS Listing,,Single Family Residential,626 Rainbow Dr,Dallas,TX,75208,1995000,4,4.5,Guggenheim Acres Add,4433,90169,1958,3,450,,Active,,,http://www.redfin.com/TX/Dallas/626-Rainbow-Dr-75208/home/30850286,NTREIS,14052139,N,Y,32.7596033,-96.8329853
MLS Listing,,Single Family Residential,6321 Carrington Dr,Dallas,TX,75254,1995000,4,6.5,Oaks At Williamsburg,6832,27007,2003,5,292,434,Active,,,http://www.redfin.com/TX/Dallas/6321-Carrington-Dr-75254/home/31153924,NTREIS,14050875,N,Y,32.9447371,-96.8028234
MLS Listing,,Single Family Residential,3848 Emil Ct,Dallas,TX,75209,1600000,3,3.5,Westside Circle Add Ph 2,3886,11195,2017,5,412,200,Active,,,http://www.redfin.com/TX/Dallas/3848-Emil-Ct-75209/home/147431981,NTREIS,14031946,N,Y,32.828844,-96.819262
MLS Listing,,Single Family Residential,6804 Mimosa Ln,Dallas,TX,75230,1299000,5,4.5,Pemberton,6274,13068,2001,5,207,,Active,March-31-2019 02:00 PM,March-31-2019 04:00 PM,http://www.redfin.com/TX/Dallas/6804-Mimosa-Ln-75230/home/30875564,NTREIS,14050498,N,Y,32.8829247,-96.7882796
MLS Listing,,Single Family Residential,4017 Hockaday Dr,Dallas,TX,75229,1795000,5,6.0,Forest Knoll Estates,5663,15856,2019,5,317,,Active,March-31-2019 03:00 PM,March-31-2019 05:00 PM,http://www.redfin.com/TX/Dallas/4017-Hockaday-Dr-75229/home/30927867,NTREIS,14038315,N,Y,32.9071255,-96.8427817
MLS Listing,,Single Family Residential,7117 Wabash Cir,Dallas,TX,75214,1739000,5,5.5,Monticello,5291,13329,2013,5,329,,Active,March-31-2019 01:30 PM,March-31-2019 03:00 PM,http://www.redfin.com/TX/Dallas/7117-Wabash-Cir-75214/home/30819838,NTREIS,14041500,N,Y,32.8257196,-96.737152
MLS Listing,,Townhouse,2209 Worthington St,Dallas,TX,75204,1278000,3,4.0,Glover Worthington Ph 01,3881,2047,2005,5,329,,Active,,,http://www.redfin.com/TX/Dallas/2209-Worthington-St-75204/home/30738599,NTREIS,14049254,N,Y,32.795363,-96.797701
MLS Listing,,Condo/Co-op,2555 N Pearl St #205,Dallas,TX,75201,1399000,1,1.5,Tower & Regency Row Residence Condo,1753,52969,2008,8,798,1689,Active,,,http://www.redfin.com/TX/Dallas/2555-N-Pearl-St-75201/unit-205/home/30783722,NTREIS,14048944,N,Y,32.7930223,-96.8045832
MLS Listing,,Single Family Residential,6411 Royal Ln,Dallas,TX,75230,1495000,5,6.0,Preston Royal,5153,15812,2018,8,290,,Active,March-30-2019 03:00 PM,March-30-2019 05:00 PM,http://www.redfin.com/TX/Dallas/6411-Royal-Ln-75230/home/30876686,NTREIS,14045921,N,Y,32.8951351,-96.7958971
MLS Listing,,Single Family Residential,8411 Inwood Rd,Dallas,TX,75209,1995000,4,4.0,Inwood Road,4205,91476,1940,8,474,,Active,,,http://www.redfin.com/TX/Dallas/8411-Inwood-Rd-75209/home/30880921,NTREIS,14049035,N,Y,32.8567398,-96.8219111
MLS Listing,,Single Family Residential,4432 Purdue Ave,University Park,TX,75225,1750000,4,4.5,Idlewild,5480,8407,2008,8,319,,Active,March-31-2019 03:30 PM,March-31-2019 05:00 PM,http://www.redfin.com/TX/Dallas/4432-Purdue-Ave-75225/home/32073425,NTREIS,14048985,N,Y,32.854292,-96.812213
MLS Listing,,Single Family Residential,7563 Benedict Dr,Dallas,TX,75214,1999000,5,4.5,Cloisters,5570,14854,1968,8,359,42,Active,March-31-2019 02:00 PM,March-31-2019 04:00 PM,http://www.redfin.com/TX/Dallas/7563-Benedict-Dr-75214/home/30845440,NTREIS,14048987,N,Y,32.8495617,-96.73096
MLS Listing,,Single Family Residential,9315 Peninsula,Dallas,TX,75218,1299000,5,3.5,Lake Highlands Addition,3923,,2019,8,331,,Active,,,http://www.redfin.com/TX/Dallas/9315-Peninsula-Dr-75218/home/30866616,NTREIS,14018193,N,Y,32.8401798,-96.7108751
MLS Listing,,Single Family Residential,4515 Arcady Ave,Highland Park,TX,75205,1695000,5,5.5,HIGHLAND PARK,4892,,1935,8,346,,Active,,,http://www.redfin.com/TX/Dallas/4515-Arcady-Ave-75205/home/32067145,NTREIS,14048781,N,Y,32.8273327,-96.8127014
MLS Listing,,Single Family Residential,765 Evergreen Hills Rd,Dallas,TX,75208,2000000,4,4.5,Kessler Park Add 5,4330,17424,2019,9,462,,Active,,,http://www.redfin.com/TX/Dallas/765-Evergreen-Hills-Rd-75208/home/143838020,NTREIS,14048334,N,Y,32.7646368,-96.8346802
MLS Listing,,Single Family Residential,3920 Dalgreen Cir,Dallas,TX,75214,1600000,4,4.5,Maple Wood,5000,16553,2019,9,320,,Active,,,http://www.redfin.com/TX/Dallas/3920-Dalgreen-Cir-75214/home/30825482,NTREIS,14048541,N,Y,32.8371142,-96.7336566
MLS Listing,,Single Family Residential,4544 S Versailles,Highland Park,TX,75205,1489000,4,3.5,Highland Park,3623,9278,1932,9,411,,Active,March-31-2019 01:00 PM,March-31-2019 03:00 PM,http://www.redfin.com/TX/Dallas/4544-S-Versailles-Ave-75205/home/32068604,NTREIS,14048174,N,Y,32.8304761,-96.8149828
MLS Listing,,Single Family Residential,6306 Lavendale Ave,Dallas,TX,75230,1879000,5,5.5,PRESTON ROYAL,6450,15899,2010,9,291,,Active,March-31-2019 01:00 PM,March-31-2019 03:00 PM,http://www.redfin.com/TX/Dallas/6306-Lavendale-Ave-75230/home/30876677,NTREIS,14043860,N,Y,32.8956594,-96.7979653
MLS Listing,,Single Family Residential,3205 Stanford Ave,University Park,TX,75225,1340000,4,3.5,University Heights,3936,7013,1985,9,340,,Active,,,http://www.redfin.com/TX/Dallas/3205-Stanford-Ave-75225/home/32108082,NTREIS,14047836,N,Y,32.8527678,-96.7832601
MLS Listing,,Single Family Residential,6922 Westlake Ave,Dallas,TX,75214,1279000,4,3.5,Westlake Park,3676,9365,1934,9,348,,Active,April-14-2019 02:00 PM,April-14-2019 04:00 PM,http://www.redfin.com/TX/Dallas/6922-Westlake-Ave-75214/home/30819883,NTREIS,14044903,N,Y,32.8221322,-96.7403306
MLS Listing,,Single Family Residential,7539 Midbury Dr,Dallas,TX,75230,1320000,3,3.5,Highland Estates,3106,20386,1953,10,425,,Active,April-7-2019 01:00 PM,April-7-2019 04:00 PM,http://www.redfin.com/TX/Dallas/7539-Midbury-Dr-75230/home/30989288,NTREIS,14047491,N,Y,32.9024892,-96.7766915
MLS Listing,,Single Family Residential,5607 Greenbrier Dr,Dallas,TX,75209,1275000,5,5.5,Highway Estates,4084,11413,1948,10,312,,Active,March-31-2019 02:00 PM,March-31-2019 04:00 PM,http://www.redfin.com/TX/Dallas/5607-Greenbrier-Dr-75209/home/30880666,NTREIS,14021802,N,Y,32.8581767,-96.8169054
MLS Listing,,Single Family Residential,11234 Shelterwood Cir,Dallas,TX,75229,1499000,6,5.5,Russwood Acres 1st Inst,6006,42471,1963,10,250,,Active,,,http://www.redfin.com/TX/Dallas/11234-Shelterwood-Cir-75229/home/30876982,NTREIS,14036339,N,Y,32.9007108,-96.8198806
MLS Listing,,Vacant Land,4200 Shorecrest Dr,Dallas,TX,75209,1500000,0,,Cochran Wp Homestead Add,,41295,,10,,,Active,,,http://www.redfin.com/TX/Dallas/4200-Shorecrest-Dr-75209/home/30855922,NTREIS,14046693,N,Y,32.8579726,-96.8406903
MLS Listing,,Single Family Residential,4545 Fairway Ave,Highland Park,TX,75219,1375000,3,3.5,West Park,3026,9104,1937,10,454,,Active,March-31-2019 02:00 PM,March-31-2019 04:00 PM,http://www.redfin.com/TX/Dallas/4545-Fairway-Ave-75219/home/32113275,NTREIS,14046313,N,Y,32.8230179,-96.81582
MLS Listing,,Single Family Residential,34 Elk Stone Dr,Dallas,TX,75248,1699000,4,4.5,The Lawn at Glen Abbey,4664,7275,2017,11,364,425,Active,March-30-2019 01:00 PM,March-30-2019 04:00 PM,http://www.redfin.com/TX/Dallas/34-Elk-Stone-Dr-75248/home/110137484,NTREIS,14045559,N,Y,32.9709105,-96.8116468
MLS Listing,,Single Family Residential,5642 Bent Tree Dr,Dallas,TX,75248,1629000,4,5.0,Bent Tree,5445,26572,1976,11,299,,Active,,,http://www.redfin.com/TX/Dallas/5642-Bent-Tree-Dr-75248/home/31086632,NTREIS,14046052,N,Y,32.9775723,-96.8127851
MLS Listing,,Single Family Residential,7603 Lovers Ln,Dallas,TX,75225,1399000,4,5.0,Caruth Hills 4th Instl,4328,9453,2007,12,323,,Active,,,http://www.redfin.com/TX/Dallas/7603-Lovers-Ln-75225/home/30871954,NTREIS,14017407,N,Y,32.8514735,-96.7767961
MLS Listing,,Single Family Residential,4429 Bryn Mawr Dr,University Park,TX,75225,1299000,3,2.5,Idlewild,2728,8407,1939,12,476,,Active,,,http://www.redfin.com/TX/Dallas/4429-Bryn-Mawr-Dr-75225/home/32073321,NTREIS,14043397,N,Y,32.8557225,-96.8120107
MLS Listing,,Single Family Residential,4436 Purdue Ave,University Park,TX,75225,1275000,4,3.0,Idlewild,3197,8059,1939,12,399,,Active,March-31-2019 02:00 PM,March-31-2019 04:00 PM,http://www.redfin.com/TX/Dallas/4436-Purdue-Ave-75225/home/32073426,NTREIS,14041208,N,Y,32.8542735,-96.8124502
MLS Listing,,Single Family Residential,7624 Bryn Mawr Dr,Dallas,TX,75225,1585000,4,4.5,Caruth Hills 4th Instl,4354,11195,2002,12,364,,Active,March-31-2019 03:30 PM,March-31-2019 05:00 PM,http://www.redfin.com/TX/Dallas/7624-Bryn-Mawr-Dr-75225/home/30871428,NTREIS,14045132,N,Y,32.8557377,-96.775792
MLS Listing,,Condo/Co-op,4514 Abbott Ave #1,Highland Park,TX,75205,1395000,4,4.0,NA,2595,,2015,12,538,395,Active,April-7-2019 01:00 PM,April-7-2019 03:00 PM,http://www.redfin.com/TX/Dallas/4514-Abbott-Ave-75205/unit-1/home/160701332,NTREIS,14042095,N,Y,32.8240489,-96.7920142
MLS Listing,,Single Family Residential,6263 Dykes Way,Dallas,TX,75230,1450000,5,5.0,Preston Club Estates 2,5440,15769,2002,12,267,,Active,,,http://www.redfin.com/TX/Dallas/6263-Dykes-Way-75230/home/31018530,NTREIS,14036362,N,Y,32.9197858,-96.7975501
MLS Listing,,Single Family Residential,6832 Bob O Link Dr,Dallas,TX,75214,1495000,5,4.0,North Ridge Estates,5350,13024,2012,12,279,,Active,,,http://www.redfin.com/TX/Dallas/6832-Bob-O-Link-Dr-75214/home/30824579,NTREIS,14044295,N,Y,32.8312453,-96.7432732
MLS Listing,,Single Family Residential,5322 Wateka Dr,Dallas,TX,75209,1995000,4,5.5,Greenway Parks,4765,28401,1949,12,419,161,Active,,,http://www.redfin.com/TX/Dallas/5322-Wateka-Dr-75209/home/30853833,NTREIS,14045003,N,Y,32.843399,-96.8204877
MLS Listing,,Single Family Residential,6756 Northaven Rd,Dallas,TX,75230,1325000,4,3.5,Strong & Crossen,4000,43734,1960,12,331,,Active,,,http://www.redfin.com/TX/Dallas/6756-Northaven-Rd-75230/home/31023619,NTREIS,14045064,N,Y,32.9009339,-96.7892017
MLS Listing,,Single Family Residential,4061 Stanford Ave,University Park,TX,75225,1725000,4,3.5,University Highlands,4936,7013,1989,12,349,,Active,,,http://www.redfin.com/TX/Dallas/4061-Stanford-Ave-75225/home/32109665,NTREIS,14045046,N,Y,32.8527457,-96.8030536
MLS Listing,,Single Family Residential,5815 Joyce Way,Dallas,TX,75225,1875000,5,5.5,John Howell Sur Abst,6312,34325,1950,12,297,67,Active,,,http://www.redfin.com/TX/Dallas/5815-Joyce-Way-75225/home/30879867,NTREIS,14028632,N,Y,32.8791461,-96.8077831
MLS Listing,,Single Family Residential,3107 Saint Johns Dr,Highland Park,TX,75205,1475000,4,4.5,Highland Park,3120,7492,1981,12,473,,Active,March-31-2019 02:00 PM,March-31-2019 04:00 PM,http://www.redfin.com/TX/Dallas/3107-St-Johns-Dr-75205/home/32065569,NTREIS,14035422,N,Y,32.8342548,-96.7821513
MLS Listing,,Single Family Residential,5520 Caladium,Dallas,TX,75230,1925000,5,6.0,INWOOD ROAD ESTATES,4871,16117,2019,13,395,,Active,,,http://www.redfin.com/TX/Dallas/5520-Caladium-Dr-75230/home/30925707,NTREIS,14044927,N,Y,32.9073225,-96.8128024
MLS Listing,,Single Family Residential,4309 Caruth Blvd,Dallas,TX,75225,1695000,5,5.5,Idlewild Anx,4964,8059,2005,13,341,,Active,,,http://www.redfin.com/TX/Dallas/4309-Caruth-Blvd-75225/home/30880448,NTREIS,14034699,N,Y,32.8586561,-96.809269
MLS Listing,,Single Family Residential,4329 Crowley Dr,Dallas,TX,75229,1270000,5,4.5,Walnut Hill Rdg Add,4311,15682,1952,13,295,40,Active,March-31-2019 01:00 AM,March-31-2019 02:30 PM,http://www.redfin.com/TX/Dallas/4329-Crowley-Dr-75229/home/30878697,NTREIS,14037707,N,Y,32.8848356,-96.836084
MLS Listing,,Single Family Residential,7423 Currin Dr,Dallas,TX,75230,1785000,5,6.5,Northaven Mdws Sec 02,5178,17990,2019,14,345,,Active,,,http://www.redfin.com/TX/Dallas/7423-Currin-Dr-75230/home/30990723,NTREIS,14044514,N,Y,32.8998336,-96.7780795
MLS Listing,,Single Family Residential,4308 McFarlin Blvd,University Park,TX,75205,1859000,4,3.5,Armstrong Fairway 2nd Inst,4536,10498,1941,15,410,,Active,April-14-2019 02:00 PM,April-14-2019 04:00 PM,http://www.redfin.com/TX/Dallas/4308-McFarlin-Blvd-75205/home/32053788,NTREIS,14044009,N,Y,32.8445199,-96.8091644
MLS Listing,,Single Family Residential,6737 Briar Cove Dr,Dallas,TX,75254,1555000,5,6.5,Northwood Hills Estates,6560,22390,2004,15,237,,Active,,,http://www.redfin.com/TX/Dallas/6737-Briar-Cove-Dr-75254/home/31073520,NTREIS,14039210,N,Y,32.943848,-96.7881556
MLS Listing,,Single Family Residential,5101 Stanford Ave,Dallas,TX,75209,1399000,4,4.5,Briarwood 02 Instl,4706,7579,2011,15,297,,Active,March-30-2019 01:00 PM,March-30-2019 05:00 PM,http://www.redfin.com/TX/Dallas/5101-Stanford-Ave-75209/home/30854764,NTREIS,14042695,N,Y,32.85345,-96.8239416
MLS Listing,,Single Family Residential,4128 Hanover St,University Park,TX,75225,1349000,4,3.5,Idlewild Add,3035,8407,1937,16,444,,Active,,,http://www.redfin.com/TX/Dallas/4128-Hanover-St-75225/home/32071832,NTREIS,14037148,N,Y,32.8552219,-96.8058996
MLS Listing,,Condo/Co-op,1918 Olive St #302,Dallas,TX,75201,1375000,2,2.0,Museum Tower Condo,2104,67649,2012,16,654,2028,Active,,,http://www.redfin.com/TX/Dallas/1918-Olive-St-75201/unit-302/home/30782902,NTREIS,14042860,N,Y,32.7892661,-96.8005498
MLS Listing,,Single Family Residential,2209 Allen St,Dallas,TX,75204,1495000,2,2.5,Gorman Estates,2726,4182,1999,16,548,,Active,,,http://www.redfin.com/TX/Dallas/2209-Allen-St-75204/home/32195011,NTREIS,14042000,N,Y,32.7959123,-96.7970797
MLS Listing,,Single Family Residential,3314 Drexel Dr,Highland Park,TX,75205,1995000,5,4.0,Highland Park,4409,9757,1926,17,452,,Active,,,http://www.redfin.com/TX/Dallas/3314-Drexel-Dr-75205/home/32064133,NTREIS,14032280,N,Y,32.8357779,-96.7864191
MLS Listing,,Single Family Residential,6615 Willow Ln,Dallas,TX,75230,1250000,3,4.5,Willow Chase,4586,17903,1997,17,273,83,Active,,,http://www.redfin.com/TX/Dallas/6615-Willow-Ln-75230/home/31150634,NTREIS,14041036,N,Y,32.9137042,-96.7912479
MLS Listing,,Single Family Residential,7706 Caruth Blvd,Dallas,TX,75225,1550000,3,5.0,CARUTH HOMEPLACE 4 REP,4200,7797,1981,17,369,583,Active,April-14-2019 01:00 PM,April-14-2019 03:00 PM,http://www.redfin.com/TX/Dallas/7706-Caruth-Blvd-75225/home/31135082,NTREIS,14033919,N,Y,32.8588746,-96.7749014
MLS Listing,,Townhouse,4010 Buena Vista St,Dallas,TX,75204,1395000,2,2.5,Schoellkoph Sub,2026,3920,1971,18,689,150,Active,,,http://www.redfin.com/TX/Dallas/4010-Buena-Vista-St-75204/home/30799532,NTREIS,14041837,N,Y,32.813588,-96.796467
MLS Listing,,Single Family Residential,4333 Caruth Blvd,Dallas,TX,75225,1325000,4,3.5,Idlewild Annex,4317,8059,2002,18,307,,Active,,,http://www.redfin.com/TX/Dallas/4333-Caruth-Blvd-75225/home/30880450,NTREIS,14041107,N,Y,32.8586015,-96.8102736
MLS Listing,,Single Family Residential,1724 Ridge Rd,Rockwall,TX,75087,1500000,5,5.0,The Estates of Coast Royale,6028,91607,2005,18,249,,Active,,,http://www.redfin.com/TX/Rockwall/1724-Ridge-Rd-75087/home/33905488,NTREIS,14037802,N,Y,32.9087032,-96.4642886
MLS Listing,,Condo/Co-op,3601 Turtle Creek Blvd #802,Dallas,TX,75219,1500000,2,3.0,Gold Crest Condonimiums,2811,,1964,18,534,2717,Active,April-7-2019 02:00 PM,April-7-2019 04:00 PM,http://www.redfin.com/TX/Dallas/3601-Turtle-Creek-Blvd-75219/unit-802/home/30795233,NTREIS,14040896,N,Y,32.8113849,-96.802148
MLS Listing,,Single Family Residential,4554 Westway Ave,Highland Park,TX,75205,1485000,4,4.5,West Park,3707,9888,1940,19,401,,Active,March-31-2019 01:00 PM,March-31-2019 02:30 PM,http://www.redfin.com/TX/Dallas/4554-Westway-Ave-75205/home/32113242,NTREIS,14040868,N,Y,32.8243387,-96.8161339
MLS Listing,,Multi-Family (2-4 Unit),3448 Normandy Ave,University Park,TX,75205,1795000,5,,Walkers,7850,7841,1927,19,229,,Active,,,http://www.redfin.com/TX/Dallas/3448-Normandy-Ave-75205/home/32111156,NTREIS,14040780,N,Y,32.8389686,-96.7894527
MLS Listing,,Single Family Residential,4512 Southern Ave,Highland Park,TX,75205,1699999,4,3.5,Highland Park,3102,7449,1936,21,548,,Active,,,http://www.redfin.com/TX/Dallas/4512-Southern-Ave-75205/home/32070377,NTREIS,14039618,N,Y,32.8359621,-96.813706
MLS Listing,,Single Family Residential,10424 Hedgeway Dr,Dallas,TX,75229,1299500,5,5.0,Walnut Hill Park 03,4297,17511,1957,22,302,,Active,,,http://www.redfin.com/TX/Dallas/10424-Hedgeway-Dr-75229/home/30928816,NTREIS,14039474,N,Y,32.8882291,-96.8477679
MLS Listing,,Single Family Residential,5614 Del Roy Dr,Dallas,TX,75230,1675000,5,5.5,Inwood Road Estates,5976,15159,2006,22,280,,Active,,,http://www.redfin.com/TX/Dallas/5614-Del-Roy-Dr-75230/home/30925985,NTREIS,14039382,N,Y,32.9052538,-96.8101062
MLS Listing,,Multi-Family (5+ Unit),4020 Rawlins,Dallas,TX,75219,1985000,0,,Bowser & Lemmons Oak Lawn,9800,15246,1963,22,203,,Active,,,http://www.redfin.com/TX/Dallas/4020-Rawlins-St-75219/unit-102/home/30796646,NTREIS,14039317,N,Y,32.813174,-96.8089623
MLS Listing,,Single Family Residential,5742 Bryn Mawr,Dallas,TX,75209,1599000,4,4.0,Idlewild,4807,9409,2007,22,333,,Active,,,http://www.redfin.com/TX/Dallas/5742-Bryn-Mawr-Dr-75209/home/30880234,NTREIS,14035929,N,Y,32.8558851,-96.8134549
MLS Listing,,Single Family Residential,4328 Stanford Ave,University Park,TX,75225,1250000,3,2.5,Idlewild,2821,8407,1940,22,443,,Active,March-31-2019 01:00 PM,March-31-2019 03:00 PM,http://www.redfin.com/TX/Dallas/4328-Stanford-Ave-75225/home/32073383,NTREIS,14036081,N,Y,32.8533581,-96.8103364
MLS Listing,,Condo/Co-op,1999 Mckinney Ave #2006,Dallas,TX,75201,1365000,2,2.0,Mckinney Condo 1999,2407,29098,2000,23,567,1368,Active,,,http://www.redfin.com/TX/Dallas/1999-McKinney-Ave-75201/unit-2006/home/30731902,NTREIS,14026973,N,Y,32.7907753,-96.8037039
MLS Listing,,Single Family Residential,4029 Greenbrier Dr,University Park,TX,75225,1495000,4,5.5,University Heights,4155,11064,1971,23,360,,Active,March-31-2019 01:00 PM,March-31-2019 03:00 PM,http://www.redfin.com/TX/Dallas/4029-Greenbrier-Dr-75225/home/32105792,NTREIS,14038373,N,Y,32.8577289,-96.8037441
MLS Listing,,Single Family Residential,5771 Preston Haven Dr,Dallas,TX,75230,1995000,5,5.0,INWOOD ROAD ESTATES,6400,17860,2008,23,312,,Active,,,http://www.redfin.com/TX/Dallas/5771-Preston-Haven-Dr-75230/home/30925697,NTREIS,14037142,N,Y,32.9068252,-96.8074064
MLS Listing,,Single Family Residential,4421 Belclaire Ave,Highland Park,TX,75205,2000000,5,4.5,Highland Park,4815,10585,1938,23,415,,Active,,,http://www.redfin.com/TX/Dallas/4421-Belclaire-Ave-75205/home/32068767,NTREIS,14037149,N,Y,32.8295915,-96.8110898
MLS Listing,,Single Family Residential,6515 Pemberton Dr,Dallas,TX,75230,1950000,5,6.0,Royal Hills,6431,17250,2003,23,303,,Active,March-31-2019 02:00 PM,March-31-2019 04:00 PM,http://www.redfin.com/TX/Dallas/6515-Pemberton-Dr-75230/home/30876083,NTREIS,14037648,N,Y,32.8918334,-96.7925284
MLS Listing,,Single Family Residential,3715 Stanford Ave,University Park,TX,75225,1649000,4,3.5,University Heights,4392,7013,1995,24,375,,Active,,,http://www.redfin.com/TX/Dallas/3715-Stanford-Ave-75225/home/32108173,NTREIS,14035182,N,Y,32.8527347,-96.7951857
MLS Listing,,Single Family Residential,6809 Woodland Dr,Dallas,TX,75225,1679000,5,6.0,Preston Hills 03,5379,8799,2017,25,312,,Active,March-31-2019 02:00 PM,March-31-2019 04:00 PM,http://www.redfin.com/TX/Dallas/6809-Woodland-Dr-75225/home/30874157,NTREIS,14002100,N,Y,32.8727182,-96.7881137
MLS Listing,,Condo/Co-op,3111 Welborn St #1701,Dallas,TX,75219,1750000,0,,Centrum Condo,4765,131421,1985,25,367,4404,Active,,,http://www.redfin.com/TX/Dallas/3111-Welborn-St-75219/unit-1701/home/31165484,NTREIS,14027249,N,Y,32.808493,-96.8078231
MLS Listing,,Single Family Residential,10512 Eastlawn Dr,Dallas,TX,75229,1700000,5,7.0,Northway Hills,5502,27269,2017,25,309,,Active,,,http://www.redfin.com/TX/Dallas/10512-Eastlawn-Dr-75229/home/30910720,NTREIS,14030688,N,Y,32.8893579,-96.8416034
MLS Listing,,Single Family Residential,2813 University Blvd,University Park,TX,75205,1575000,5,4.5,Dan Ro,5100,7187,2017,26,309,,Active,,,http://www.redfin.com/TX/Dallas/2813-University-Blvd-75205/home/32060804,NTREIS,14035602,N,Y,32.8453477,-96.7745161
MLS Listing,,Single Family Residential,3522 Gillespie St,Dallas,TX,75219,1495000,3,5.0,Regents Park,5440,2614,2003,26,275,655,Active,,,http://www.redfin.com/TX/Dallas/3522-Gillespie-St-75219/home/32212176,NTREIS,14035557,N,Y,32.80608,-96.807947
MLS Listing,,Single Family Residential,7150 Carrousel Cir,Dallas,TX,75214,1289000,5,4.5,Lakewood North Estates,4653,8756,2013,26,277,,Active,,,http://www.redfin.com/TX/Dallas/7150-Carrousel-Cir-75214/home/30825399,NTREIS,14027966,N,Y,32.8339932,-96.7354125
MLS Listing,,Condo/Co-op,1918 Olive St #1002,Dallas,TX,75201,1550000,2,2.0,Museum Tower Condo,2180,,2012,26,711,2095,Active,,,http://www.redfin.com/TX/Dallas/1918-Olive-St-75201/unit-1002/home/30782949,NTREIS,14035269,N,Y,32.7892661,-96.8005498
MLS Listing,,Single Family Residential,5512 Melshire Dr,Dallas,TX,75230,1495000,4,3.5,Melshire Estates,4878,17816,2007,26,306,,Active,,,http://www.redfin.com/TX/Dallas/5512-Melshire-Dr-75230/home/30964328,NTREIS,14032758,N,Y,32.9143861,-96.8146269
MLS Listing,,Single Family Residential,3808 Stanford Ave,University Park,TX,75225,1299000,3,2.5,University Heights Add 01 Sec Rev,2926,7013,1972,26,444,,Active,,,http://www.redfin.com/TX/Dallas/3808-Stanford-Ave-75225/home/32108215,NTREIS,14034636,N,Y,32.8532372,-96.7972362
MLS Listing,,Condo/Co-op,4500 Fairway Unit F,Highland Park,TX,75219,1795000,3,3.5,Bonterra Condos,4845,17424,2006,26,370,504,Active,,,http://www.redfin.com/TX/Dallas/4500-Fairway-Ave-75219/unit-F/home/30779849,NTREIS,14034972,N,Y,32.8232239,-96.8132456
MLS Listing,,Single Family Residential,6239 Prestonshire,Dallas,TX,75225,1795000,5,5.5,Prestonshire 02,6129,18818,2000,26,293,,Active,,,http://www.redfin.com/TX/Dallas/6239-Prestonshire-Ln-75225/home/30875311,NTREIS,14034747,N,Y,32.8760933,-96.7982197
MLS Listing,,Condo/Co-op,2001 Irving Blvd #153,Dallas,TX,75207,1495000,2,2.5,Trinity Indl District 8th Ins,4500,11238,1950,28,332,500,Active,,,http://www.redfin.com/TX/Dallas/2001-Irving-Blvd-75207/unit-153/home/160577262,NTREIS,14030227,N,Y,32.794078,-96.8288627
MLS Listing,,Single Family Residential,6523 Waggoner Dr,Dallas,TX,75230,1695000,6,6.5,Waggoner Place,6878,,1994,29,246,30,Active,April-14-2019 03:00 PM,April-14-2019 05:00 PM,http://www.redfin.com/TX/Dallas/6523-Waggoner-Dr-75230/home/30876364,NTREIS,14034109,N,Y,32.8875511,-96.7922773
MLS Listing,,Single Family Residential,6709 Stichter Ave,Dallas,TX,75230,1950000,5,6.0,Crestmanor Estates,6252,13504,2006,29,312,,Active,,,http://www.redfin.com/TX/Dallas/6709-Stichter-Ave-75230/home/30875137,NTREIS,14025489,N,Y,32.8814761,-96.7895155
MLS Listing,,Single Family Residential,6911 Pasadena Ave,Dallas,TX,75214,1395000,4,4.5,Pasadena,4219,7362,1926,29,331,,Active,March-31-2019 03:30 PM,March-31-2019 05:00 PM,http://www.redfin.com/TX/Dallas/6911-Pasadena-Ave-75214/home/30819628,NTREIS,14020764,N,Y,32.8184117,-96.738841
MLS Listing,,Single Family Residential,5862 Azalea Ln,Dallas,TX,75230,1599900,5,4.5,Sheraton Estates,5610,17293,2001,29,285,,Active,,,http://www.redfin.com/TX/Dallas/5862-Azalea-Ln-75230/home/30876893,NTREIS,14026893,N,Y,32.8979488,-96.8074273
MLS Listing,,Single Family Residential,8514 Chadbourne Rd,Dallas,TX,75209,1999990,5,5.5,East Inwood Estates,4965,8059,2018,29,403,,Active,March-31-2019 03:30 PM,March-31-2019 05:30 PM,http://www.redfin.com/TX/Dallas/8514-Chadbourne-Rd-75209/home/30880956,NTREIS,14032830,N,Y,32.8576292,-96.8196713
MLS Listing,,Single Family Residential,6933 Valley View Ln,Dallas,TX,75240,1380000,5,5.5,Hillcrest Park Estates,4586,22172,2019,30,301,300,Active,April-14-2019 02:00 PM,April-14-2019 04:00 PM,http://www.redfin.com/TX/Dallas/6933-Valley-View-Ln-75240/home/32214857,NTREIS,14031227,N,Y,32.927762,-96.784164
MLS Listing,,Vacant Land,5109 Radbrook Pl,Dallas,TX,75220,1775000,0,,Radbrook Estates,,43560,2018,30,,,Active,,,http://www.redfin.com/TX/Dallas/5109-Radbrook-Pl-75220/home/30879616,NTREIS,14032358,N,Y,32.868053,-96.8238997
MLS Listing,,Single Family Residential,3509 Edgewater St,Dallas,TX,75205,1250000,3,3.0,Northern Heights,3595,4225,2015,30,348,,Active,,,http://www.redfin.com/TX/Dallas/3509-Edgewater-St-75205/home/30809255,NTREIS,14032759,N,Y,32.8200938,-96.7947593
MLS Listing,,Single Family Residential,14811 Bellbrook Dr,Addison,TX,75254,1495000,5,6.0,Bellbrook Estates,6039,21083,1996,30,248,,Active,March-31-2019 02:00 PM,March-31-2019 05:00 PM,http://www.redfin.com/TX/Dallas/14811-Bellbrook-Dr-75254/home/31193759,NTREIS,14032572,N,Y,32.948724,-96.812374
MLS Listing,,Townhouse,3338 Blackburn St,Dallas,TX,75204,1425000,3,3.5,Cascada At Turtle Creek,3696,2396,2003,30,386,700,Active,,,http://www.redfin.com/TX/Dallas/3338-Blackburn-St-75204/home/30730105,NTREIS,14032623,N,Y,32.811825,-96.798353
MLS Listing,,Single Family Residential,6676 Avian Dr,Dallas,TX,75230,1390000,4,3.5,Crestway Forest Estates,3665,9278,2019,30,379,208,Active,,,http://www.redfin.com/TX/Dallas/6676-Avian-Dr-75230/home/160564427,NTREIS,14030969,N,Y,32.9105253,-96.7916278
MLS Listing,,Single Family Residential,5330 Montrose Dr,Dallas,TX,75209,1385000,5,4.5,Greenway Parks,3720,10803,1949,30,372,83,Active,March-31-2019 02:00 PM,March-31-2019 04:00 PM,http://www.redfin.com/TX/Dallas/5330-Montrose-Dr-75209/home/30853113,NTREIS,14031693,N,Y,32.8375962,-96.8203411
MLS Listing,,Single Family Residential,6627 Kenwood,Dallas,TX,75214,1295000,5,4.5,North Ridge Estates,4360,11979,1948,32,297,,Active,,,http://www.redfin.com/TX/Dallas/6627-Kenwood-Ave-75214/home/30823961,NTREIS,14022016,N,Y,32.8325115,-96.7458239
MLS Listing,,Single Family Residential,6422 Turner Way,Dallas,TX,75230,1399000,6,6.0,Preston Club Estates,5894,17555,2004,32,237,,Active,,,http://www.redfin.com/TX/Dallas/6422-Turner-Way-75230/home/31018581,NTREIS,14027209,N,Y,32.9180032,-96.7948718
MLS Listing,,Single Family Residential,8 Crownwood Ct,Dallas,TX,75225,1350000,3,4.5,Glen Lakes 09,4295,8756,1997,32,314,575,Active,,,http://www.redfin.com/TX/Dallas/8-Crownwood-Ct-75225/home/31135925,NTREIS,14030105,N,Y,32.8759204,-96.7751436
MLS Listing,,Single Family Residential,7514 Northaven Rd,Dallas,TX,75230,1300000,4,4.5,Northaven Meadows,4500,16204,2018,32,289,,Active,,,http://www.redfin.com/TX/Dallas/7514-Northaven-Rd-75230/home/30990634,NTREIS,14030466,N,Y,32.9005568,-96.7775701
MLS Listing,,Single Family Residential,6702 Kenwood Ave,Dallas,TX,75214,1499000,5,6.0,North Ridge Estates,5480,9975,2013,33,274,,Active,,,http://www.redfin.com/TX/Dallas/6702-Kenwood-Ave-75214/home/30823979,NTREIS,14027835,N,Y,32.8319958,-96.7456137
MLS Listing,,Single Family Residential,4444 Windsor Pkwy,University Park,TX,75205,1399000,4,3.0,Armstrong Fairway 02 Instl,2448,6882,1941,33,571,,Active,,,http://www.redfin.com/TX/Dallas/4444-Windsor-Pkwy-75205/home/32053864,NTREIS,14029085,N,Y,32.842743,-96.812806
MLS Listing,,Single Family Residential,6606 Prestonshire Ln,Dallas,TX,75225,1995000,5,5.5,Cesco Rev,5953,17990,2004,33,335,,Active,March-31-2019 01:00 PM,March-31-2019 03:00 PM,http://www.redfin.com/TX/Dallas/6606-Prestonshire-Ln-75225/home/30874933,NTREIS,14029824,N,Y,32.8753681,-96.7917961
MLS Listing,,Single Family Residential,4504 Southern Ave,Highland Park,TX,75205,1449000,5,4.5,Highland Park West 04 Instl,3516,7536,1979,33,412,,Active,,,http://www.redfin.com/TX/Dallas/4504-Southern-Ave-75205/home/32070375,NTREIS,14029935,N,Y,32.8359803,-96.8133711
MLS Listing,,Single Family Residential,6346 Northwood Rd,Dallas,TX,75225,1799000,4,5.5,Preston Highlands 02,5278,17642,1998,33,341,,Active,,,http://www.redfin.com/TX/Dallas/6346-Northwood-Rd-75225/home/30874783,NTREIS,14029865,N,Y,32.8692149,-96.7957088
MLS Listing,,Single Family Residential,6203 Mercedes Ave,Dallas,TX,75214,1849000,5,6.0,Green Meadows,4882,16161,2016,33,379,,Active,,,http://www.redfin.com/TX/Dallas/6203-Mercedes-Ave-75214/home/30820248,NTREIS,14029656,N,Y,32.8281843,-96.7599841
MLS Listing,,Single Family Residential,4730 Stanford Ave,Dallas,TX,75209,1395000,4,4.0,Linwood Place,4668,7623,2019,36,299,,Active,March-31-2019 01:00 PM,March-31-2019 03:00 PM,http://www.redfin.com/TX/Dallas/4730-Stanford-Ave-75209/home/30857356,NTREIS,14028489,N,Y,32.8530221,-96.8283691
MLS Listing,,Single Family Residential,6823 Northwood Rd,Dallas,TX,75225,1750000,4,5.0,Preston Hills 1,4990,10019,2015,36,351,,Active,,,http://www.redfin.com/TX/Dallas/6823-Northwood-Rd-75225/home/30874087,NTREIS,14027480,N,Y,32.8698355,-96.787507
MLS Listing,,Single Family Residential,5747 Vanderbilt,Dallas,TX,75206,1250000,4,5.5,Geneva Heights,4453,8756,2019,36,281,,Active,,,http://www.redfin.com/TX/Dallas/5747-Vanderbilt-Ave-75206/home/30812005,NTREIS,14028804,N,Y,32.8251832,-96.7681437
MLS Listing,,Single Family Residential,11808 Forest Lakes Ln,Dallas,TX,75230,1299000,3,4.0,Lake Estates,4696,5140,1986,36,277,133,Active,,,http://www.redfin.com/TX/Dallas/11808-Forest-Lakes-Ln-75230/home/31018834,NTREIS,14028619,N,Y,32.909781,-96.7957715
MLS Listing,,Single Family Residential,6539 Waggoner Dr,Dallas,TX,75230,1499000,5,4.5,Waggoner Place,5078,16074,1996,37,295,30,Active,,,http://www.redfin.com/TX/Dallas/6539-Waggoner-Dr-75230/home/30876362,NTREIS,14018388,N,Y,32.8874998,-96.7916078
MLS Listing,,Single Family Residential,9328 Chiswell Rd,Dallas,TX,75238,1395000,5,4.5,White Rock North 04 Instl,4998,13068,2014,38,279,,Active,,,http://www.redfin.com/TX/Dallas/9328-Chiswell-Rd-75238/home/30881645,NTREIS,14021765,N,Y,32.8715812,-96.7229991
MLS Listing,,Single Family Residential,5646 Purdue Ave,Dallas,TX,75209,1649000,4,4.5,Idlewild Acres 4th Sec,4769,7492,2013,38,346,,Active,,,http://www.redfin.com/TX/Dallas/5646-Purdue-Ave-75209/home/59419680,NTREIS,14022970,N,Y,32.8540105,-96.8156946
MLS Listing,,Single Family Residential,4440 Mcfarlin Blvd,University Park,TX,75205,1999000,4,3.5,Armstrong Fairway 2nd Inst,4468,8712,1939,39,447,,Active,,,http://www.redfin.com/TX/Dallas/4440-McFarlin-Blvd-75205/home/32053757,NTREIS,14026473,N,Y,32.8445547,-96.8125549
MLS Listing,,Single Family Residential,11828 Preston Brook Pl,Dallas,TX,75230,1650000,4,4.5,Lake Forest Ph A,6034,9888,2001,40,273,433,Active,,,http://www.redfin.com/TX/Dallas/11828-Preston-Brook-Pl-75230/home/31150655,NTREIS,14025931,N,Y,32.9107777,-96.7846827
MLS Listing,,Single Family Residential,6740 Greenwich Ln,Dallas,TX,75230,1849000,5,6.0,Preston Brook Estates,5428,15159,2019,43,341,,Active,,,http://www.redfin.com/TX/Dallas/6740-Greenwich-Ln-75230/home/31018884,NTREIS,14013583,N,Y,32.9113927,-96.7890971
MLS Listing,,Single Family Residential,6566 Lake Circle Dr,Dallas,TX,75214,1299000,4,3.5,Lakeway Rev,4387,11195,2013,43,296,,Active,,,http://www.redfin.com/TX/Dallas/6566-Lake-Cir-Dr-75214/home/30824542,NTREIS,14023607,N,Y,32.8247265,-96.7474338
MLS Listing,,Single Family Residential,2809 Rosedale Ave,University Park,TX,75205,1380000,4,4.0,Summitt Lawn,4219,7492,1999,43,327,,Active,March-31-2019 01:00 PM,March-31-2019 03:00 PM,http://www.redfin.com/TX/Dallas/2809-Rosedale-Ave-75205/home/32099541,NTREIS,14017433,N,Y,32.8475856,-96.7757084
MLS Listing,,Single Family Residential,4 Glenshire Ct,Dallas,TX,75225,1449000,4,3.5,Glen Lakes 5th Sec,5055,6011,1984,43,287,575,Active,March-31-2019 03:30 PM,March-31-2019 05:00 PM,http://www.redfin.com/TX/Dallas/4-Glenshire-Ct-75225/home/31136052,NTREIS,14024146,N,Y,32.8750595,-96.7736145
MLS Listing,,Single Family Residential,4000 Southwestern Blvd,University Park,TX,75225,1499000,3,2.5,University Heights Sec 04,2399,11195,1948,43,625,,Active,,,http://www.redfin.com/TX/Dallas/4000-Southwestern-Blvd-75225/home/32105795,NTREIS,14023509,N,Y,32.8571726,-96.8020805
MLS Listing,,Single Family Residential,4028 Purdue Ave,University Park,TX,75225,1395000,5,3.0,University Highlands,3021,7013,1932,44,462,,Active,,,http://www.redfin.com/TX/Dallas/4028-Purdue-Ave-75225/home/32109598,NTREIS,14021961,N,Y,32.8541756,-96.8017561
MLS Listing,,Vacant Land,408 E Stark Rd,Seagoville,TX,75159,1936000,0,,HERMAN HEIDER,,1916640,,44,,,Active,,,http://www.redfin.com/TX/Seagoville/408-E-Stark-Rd-75159/home/160467997,NTREIS,14023830,N,Y,32.673156,-96.580029
MLS Listing,,Single Family Residential,3601 Stanford Ave,University Park,TX,75225,1999990,5,5.5,University Heights,5094,7667,2013,44,393,,Active,March-31-2019 02:00 PM,March-31-2019 04:00 PM,http://www.redfin.com/TX/Dallas/3601-Stanford-Ave-75225/home/32108166,NTREIS,14020607,N,Y,32.8527719,-96.7928841
MLS Listing,,Single Family Residential,6935 Forest Glen Dr,Dallas,TX,75230,1349000,3,4.5,LAKE FOREST PH C,4696,7536,2001,44,287,492,Active,March-31-2019 01:00 PM,March-31-2019 02:30 PM,http://www.redfin.com/TX/Dallas/6935-Forest-Glen-Dr-75230/home/31150562,NTREIS,14023272,N,Y,32.9134696,-96.7847454
MLS Listing,,Single Family Residential,3844 N Versailles Ave,Dallas,TX,75209,1274900,3,4.5,Versailles Pkwy Rev,3815,8712,1972,44,334,,Active,,,http://www.redfin.com/TX/Dallas/3844-N-Versailles-Ave-75209/home/30816254,NTREIS,14020316,N,Y,32.8310968,-96.8196631
MLS Listing,,Single Family Residential,2800 Purdue Ave,University Park,TX,75225,1999000,5,5.5,Caruth Hills 04 Instl,5614,9235,2000,45,356,,Active,,,http://www.redfin.com/TX/Dallas/2800-Purdue-Ave-75225/home/32056579,NTREIS,14019705,N,Y,32.854199,-96.775421
MLS Listing,,Vacant Land,4236 Lively Ln,Dallas,TX,75220,1399000,0,,Rockbrook Estates,,28837,1951,45,,,Active,,,http://www.redfin.com/TX/Dallas/4236-Lively-Ln-75220/home/30879439,NTREIS,14022192,N,Y,32.8722061,-96.8369633
MLS Listing,,Single Family Residential,6561 Vanderbilt Ave,Dallas,TX,75214,1295000,4,4.5,Lake Way Add,5119,8799,2004,46,253,,Active,,,http://www.redfin.com/TX/Dallas/6561-Vanderbilt-Ave-75214/home/30824522,NTREIS,14022062,N,Y,32.8260315,-96.747598
MLS Listing,,Single Family Residential,3 Kingsgate Ct,Dallas,TX,75225,1499000,4,5.0,Glen Lakes 04,6354,9888,1986,46,236,575,Active,,,http://www.redfin.com/TX/Dallas/3-Kingsgate-Ct-75225/home/30872647,NTREIS,14021464,N,Y,32.8752632,-96.7779675
MLS Listing,,Single Family Residential,7525 Villanova St,Dallas,TX,75225,1295000,4,3.5,Caruth Hills 10,3697,7797,1953,47,350,,Active,,,http://www.redfin.com/TX/Dallas/7525-Villanova-St-75225/home/30872223,NTREIS,14021443,N,Y,32.8644124,-96.7775492
MLS Listing,,Multi-Family (2-4 Unit),4203 Abbott Ave,Dallas,TX,75205,1570000,3,3.5,Northern Hills,3309,,2019,47,474,,Active,,,http://www.redfin.com/TX/Dallas/4203-Abbott-Ave-75205/home/30809346,NTREIS,14011761,N,Y,32.8185969,-96.796474
MLS Listing,,Vacant Land,2382 Se COUNTY LINE Rd,Wylie,TX,75098,1530000,0,,M. L. PRICE SURVEY,,666468,,47,,,Active,,,http://www.redfin.com/TX/Wylie/2382-County-Line-Rd-75098/home/160452517,NTREIS,14020909,N,Y,32.9735033,-96.5106246
MLS Listing,,Single Family Residential,5819 Meaders Ln,Dallas,TX,75230,1599000,5,5.0,Meaders Place,5164,16030,2005,49,310,,Active,March-31-2019 01:00 PM,March-31-2019 03:00 PM,http://www.redfin.com/TX/Dallas/5819-Meaders-Ln-75230/home/30877703,NTREIS,14020057,N,Y,32.88688,-96.8078459
MLS Listing,,Single Family Residential,3837 Villanova St,University Park,TX,75225,1900000,4,4.5,University Heights,4214,11238,2004,50,451,,Active,,,http://www.redfin.com/TX/Dallas/3837-Villanova-St-75225/home/32106825,NTREIS,14019667,N,Y,32.8640847,-96.798136
MLS Listing,,Single Family Residential,3304 Dartmouth Ave,Highland Park,TX,75205,1799000,4,3.5,Highland Park 4th Inst,4283,8407,1990,50,420,,Active,,,http://www.redfin.com/TX/Dallas/3304-Dartmouth-Ave-75205/home/32065854,NTREIS,14019805,N,Y,32.8304587,-96.7858333
MLS Listing,,Single Family Residential,5526 Del Roy Dr,Dallas,TX,75230,1895000,5,5.5,Inwood Road Estates,5650,16117,2018,51,335,,Active,,,http://www.redfin.com/TX/Dallas/5526-Del-Roy-Dr-75230/home/30925627,NTREIS,14019133,N,Y,32.9052746,-96.8117528
MLS Listing,,Single Family Residential,4524 Edmondson Ave,Highland Park,TX,75205,1999000,4,5.5,Highland Park West 4th Inst,5124,8451,2001,51,390,,Active,,,http://www.redfin.com/TX/Dallas/4524-Edmondson-Ave-75205/home/32068875,NTREIS,14018836,N,Y,32.8341804,-96.8142083
MLS Listing,,Condo/Co-op,2300 WOLF St Unit 12D,Dallas,TX,75201,1749000,2,2.5,Stoneleigh Residences,2567,67039,2017,52,681,1718,Active,March-31-2019 01:00 PM,March-31-2019 05:00 PM,http://www.redfin.com/TX/Dallas/2300-Wolf-St-75201/unit-12D/home/52060146,NTREIS,14011550,N,Y,32.7972035,-96.8077289
MLS Listing,,Single Family Residential,7702 Bryn Mawr Dr,Dallas,TX,75225,1490000,5,5.0,Caruth Hills 4th Instl,5590,11195,1946,52,267,,Active,,,http://www.redfin.com/TX/Dallas/7702-Bryn-Mawr-Dr-75225/home/30871514,NTREIS,14018068,N,Y,32.8556998,-96.7748717
MLS Listing,,Single Family Residential,4339 Bonham St,Dallas,TX,75229,1275000,4,4.5,Northcrest Add N0 01,4090,6708,2018,52,312,,Active,,,http://www.redfin.com/TX/Dallas/4339-Bonham-St-75229/home/30878106,NTREIS,14017940,N,Y,32.8887548,-96.8349534
MLS Listing,,Condo/Co-op,2848 Woodside St #505,Dallas,TX,75204,1275000,3,5.0,Drexel Montane,4387,16683,2003,52,291,1634,Active,March-31-2019 02:00 PM,March-31-2019 04:00 PM,http://www.redfin.com/TX/Dallas/2848-Woodside-St-75204/unit-505/home/30764645,NTREIS,14017253,N,Y,32.7981428,-96.7993078
MLS Listing,,Condo/Co-op,2200 Victory Ave #1605,Dallas,TX,75219,1299000,3,2.5,House,2558,53709,2007,53,508,1948,Active,,,http://www.redfin.com/TX/Dallas/2200-Victory-Ave-75219/unit-1605/home/30782340,NTREIS,14004611,N,Y,32.7849571,-96.8096512
MLS Listing,,Single Family Residential,4549 Rheims Pl,Highland Park,TX,75205,1649000,4,4.5,Highland Park,4446,8059,1954,54,371,,Active,,,http://www.redfin.com/TX/Dallas/4549-Rheims-Pl-75205/home/32067336,NTREIS,14016585,N,Y,32.8246235,-96.8141246
MLS Listing,,Single Family Residential,4236 Bobbitt Dr,Dallas,TX,75229,1550000,5,5.5,Luna Park Estates,5820,16553,2007,54,266,,Active,,,http://www.redfin.com/TX/Dallas/4236-Bobbitt-Dr-75229/home/30877358,NTREIS,14016192,N,Y,32.8970728,-96.836318
MLS Listing,,Single Family Residential,3824 Lovers Ln,University Park,TX,75225,1350000,5,4.5,University Heights,4812,9104,1930,54,281,,Active,,,http://www.redfin.com/TX/Dallas/3824-Lovers-Ln-75225/home/32106969,NTREIS,14016229,N,Y,32.8513107,-96.7979895
MLS Listing,,Single Family Residential,6520 Stichter Ave,Dallas,TX,75230,1395000,4,5.5,Crestmanor Estates,4995,12850,1954,54,279,,Active,,,http://www.redfin.com/TX/Dallas/6520-Stichter-Ave-75230/home/30875093,NTREIS,14012299,N,Y,32.8808001,-96.7922773
MLS Listing,,Single Family Residential,6246 Stichter Ave,Dallas,TX,75230,1985000,5,6.5,Steel,5191,19079,2018,54,382,,Active,,,http://www.redfin.com/TX/Dallas/6246-Stichter-Ave-75230/home/30875351,NTREIS,14013529,N,Y,32.8809501,-96.7979895
MLS Listing,,Single Family Residential,7816 Purdue Ave,Dallas,TX,75225,1475000,4,4.5,Caruth Hills 6 Bl-5441,5346,8407,2005,56,276,,Active,March-31-2019 02:00 PM,March-31-2019 04:00 PM,http://www.redfin.com/TX/Dallas/7816-Purdue-Ave-75225/home/30871405,NTREIS,14015649,N,Y,32.853634,-96.772529
MLS Listing,,Single Family Residential,6627 Lakewood Blvd,Dallas,TX,75214,1895000,5,5.5,Country Club Estates,4446,13068,1925,57,426,,Active,March-31-2019 01:00 PM,March-31-2019 02:30 PM,http://www.redfin.com/TX/Dallas/6627-Lakewood-Blvd-75214/home/30819279,NTREIS,14015595,N,Y,32.8190163,-96.7487929
MLS Listing,,Single Family Residential,9408 Peninsula Dr,Dallas,TX,75218,1500000,5,4.5,Lake Hlnds Rev,4907,12545,2019,57,306,,Active,,,http://www.redfin.com/TX/Dallas/9408-Peninsula-Dr-75218/home/30866589,NTREIS,14005073,N,Y,32.8414729,-96.7096631
MLS Listing,,Single Family Residential,3120 Purdue Ave,University Park,TX,75225,1769000,4,5.0,Caruth Hills,4992,10237,1994,57,354,,Active,March-31-2019 02:00 PM,March-31-2019 04:00 PM,http://www.redfin.com/TX/Dallas/3120-Purdue-Ave-75225/home/32056501,NTREIS,14009911,N,Y,32.8541971,-96.7815656
MLS Listing,,Condo/Co-op,4608 Abbott Ave #109,Highland Park,TX,75205,1359000,3,3.5,Highland Gates On Katy Trail C,3004,24002,2007,57,452,487,Active,,,http://www.redfin.com/TX/Dallas/4608-Abbott-Ave-75205/unit-109/home/30791458,NTREIS,14013722,N,Y,32.8246225,-96.7917379
MLS Listing,,Single Family Residential,4304 N Cresthaven Rd,Dallas,TX,75209,1899000,5,6.0,Bluffview Estates,6057,16553,2019,57,314,,Active,April-14-2019 01:00 PM,April-14-2019 03:00 PM,http://www.redfin.com/TX/Dallas/4304-N-Cresthaven-Rd-75209/home/30853959,NTREIS,14014075,N,Y,32.8525739,-96.8374034
MLS Listing,,Single Family Residential,4116 Courtshire Dr,Dallas,TX,75229,1799000,5,5.5,Midway Hills 05,6352,16074,2019,58,283,,Active,,,http://www.redfin.com/TX/Dallas/4116-Courtshire-Dr-75229/home/30927962,NTREIS,14014177,N,Y,32.9047433,-96.8407322
MLS Listing,,Single Family Residential,3917 Hanover St,University Park,TX,75225,1995000,5,4.5,University Heights,4708,8364,1983,58,424,,Active,April-14-2019 01:00 PM,April-14-2019 03:00 PM,http://www.redfin.com/TX/Dallas/3917-Hanover-St-75225/home/32104138,NTREIS,14013205,N,Y,32.8546193,-96.7996426
MLS Listing,,Vacant Land,4234 McFarlin Blvd,University Park,TX,75205,1300000,0,,Stratford Manor,,12370,,58,,,Active,,,http://www.redfin.com/TX/Dallas/4234-McFarlin-Blvd-75205/home/32099611,NTREIS,14013859,N,Y,32.8445262,-96.8082435
MLS Listing,,Single Family Residential,11405 Saint Michaels Dr,Dallas,TX,75230,1449000,4,5.5,Janmar Circle 02,5324,33672,1955,60,272,,Active,,,http://www.redfin.com/TX/Dallas/11405-St-Michaels-Dr-75230/home/31008499,NTREIS,14012839,N,Y,32.9036842,-96.7809167
MLS Listing,,Single Family Residential,6729 Aberdeen Ave,Dallas,TX,75230,1625000,5,5.5,Pemberton,5581,11282,1999,60,291,,Active,,,http://www.redfin.com/TX/Dallas/6729-Aberdeen-Ave-75230/home/30875544,NTREIS,14012653,N,Y,32.8825691,-96.7887623
MLS Listing,,Multi-Family (2-4 Unit),4201 Abbott Ave,Dallas,TX,75205,1520000,3,4.0,Northern Hills,3040,,2019,60,500,,Active,,,http://www.redfin.com/TX/Dallas/4201-Abbott-Ave-75205/home/160337723,NTREIS,14012423,N,Y,32.8184284,-96.7965641
MLS Listing,,Single Family Residential,4516 W Amherst Ave,Dallas,TX,75209,1380000,5,4.5,Linwood Place,4524,7928,2018,61,305,,Active,March-31-2019 03:30 PM,March-31-2019 05:00 PM,http://www.redfin.com/TX/Dallas/4516-W-Amherst-Ave-75209/home/30880788,NTREIS,14011755,N,Y,32.8520375,-96.8321479
MLS Listing,,Single Family Residential,6855 Lakewood Blvd,Dallas,TX,75214,1595000,5,5.0,Westlake Park,6253,14244,2005,61,255,,Active,March-31-2019 01:00 PM,March-31-2019 03:00 PM,http://www.redfin.com/TX/Dallas/6855-Lakewood-Blvd-75214/home/30760534,NTREIS,14002830,N,Y,32.8203829,-96.741747
MLS Listing,,Single Family Residential,6414 Meadow Rd,Dallas,TX,75230,1495000,5,4.5,Donley,6331,18731,1986,61,236,,Active,,,http://www.redfin.com/TX/Dallas/6414-Meadow-Rd-75230/home/30875707,NTREIS,14009099,N,Y,32.8860496,-96.7957088
MLS Listing,,Single Family Residential,5382 Waneta Dr,Dallas,TX,75209,1575000,4,3.5,Greenway Parks Rev,4191,13809,1926,63,376,104,Active,March-31-2019 02:00 PM,March-31-2019 04:00 PM,http://www.redfin.com/TX/Dallas/5382-Waneta-Dr-75209/home/30853808,NTREIS,14010659,N,Y,32.8384528,-96.8183234
MLS Listing,,Single Family Residential,5630 Stanford Ave,Dallas,TX,75209,1615000,4,4.5,Idlewild,4503,7492,2013,64,359,,Active,March-31-2019 01:00 PM,March-31-2019 03:00 PM,http://www.redfin.com/TX/Dallas/5630-Stanford-Ave-75209/home/30880110,NTREIS,14010480,N,Y,32.852986,-96.8163642
MLS Listing,,Single Family Residential,4915 Purdue Ave,Dallas,TX,75209,1250000,4,5.0,Rector Place 02,4976,7318,2009,64,251,,Active,,,http://www.redfin.com/TX/Dallas/4915-Purdue-Ave-75209/home/30788120,NTREIS,13997048,N,Y,32.8544811,-96.8260655
MLS Listing,,Single Family Residential,7019 Greentree Ln,Dallas,TX,75214,1500000,5,5.5,Green Cove Estates,5000,16509,2019,64,300,,Active,,,http://www.redfin.com/TX/Dallas/7019-Greentree-Ln-75214/home/30845423,NTREIS,14010676,N,Y,32.8447216,-96.7374142
MLS Listing,,Single Family Residential,7314 Coronado Ave,Dallas,TX,75214,1299990,5,4.5,Gaston Terrace,4879,8102,2017,64,266,,Active,March-31-2019 02:00 PM,March-31-2019 04:00 PM,http://www.redfin.com/TX/Dallas/7314-Coronado-Ave-75214/home/30818320,NTREIS,14010390,N,Y,32.8093402,-96.7329458
MLS Listing,,Single Family Residential,6616 Lakewood Blvd,Dallas,TX,75214,1295000,4,3.5,Country Club Estates,3294,9191,1946,64,393,,Active,,,http://www.redfin.com/TX/Dallas/6616-Lakewood-Blvd-75214/home/30819260,NTREIS,14010349,N,Y,32.8182538,-96.749162
MLS Listing,,Single Family Residential,3701 Potomac Ave,Highland Park,TX,75205,1999000,5,4.5,Mount Vernon 01 & 03,4660,8364,1966,64,429,,Active,March-31-2019 01:00 PM,March-31-2019 03:00 PM,http://www.redfin.com/TX/Dallas/3701-Potomac-Ave-75205/home/32091562,NTREIS,14008963,N,Y,32.8374976,-96.7939302
MLS Listing,,Single Family Residential,4248 Potomac Ave,Highland Park,TX,75205,1825000,4,4.5,Preston Place 01,3289,9017,1923,64,555,,Active,March-31-2019 02:00 PM,March-31-2019 04:00 PM,http://www.redfin.com/TX/Dallas/4248-Potomac-Ave-75205/home/32095089,NTREIS,14010130,N,Y,32.8378196,-96.8065693
MLS Listing,,Multi-Family (2-4 Unit),4411 Westway Ave,Highland Park,TX,75205,1995000,4,,West Park,4404,10890,1935,65,453,,Active,,,http://www.redfin.com/TX/Dallas/4411-Westway-Ave-75205/home/32113258,NTREIS,14009783,N,Y,32.823482,-96.809992
MLS Listing,,Multi-Family (2-4 Unit),4205 University Blvd,University Park,TX,75205,1795000,0,,Stratford Manor,3578,10019,1935,65,502,,Active,,,http://www.redfin.com/TX/Dallas/4205-University-Blvd-75205/home/32099631,NTREIS,14009746,N,Y,32.844933,-96.806809
MLS Listing,,Single Family Residential,4409 Colgate Ave,Dallas,TX,75225,1950000,4,4.5,Idlewild Annex,5643,8276,2015,65,346,,Active,March-31-2019 02:00 PM,March-31-2019 04:00 PM,http://www.redfin.com/TX/Dallas/4409-Colgate-Ave-75225/home/30880149,NTREIS,14009652,N,Y,32.8596155,-96.8108467
MLS Listing,,Single Family Residential,3520 Blackburn St,Dallas,TX,75219,1995000,3,5.0,Turtle Creek Estates,5255,15420,2006,65,380,,Active,,,http://www.redfin.com/TX/Dallas/3520-Blackburn-St-75219/home/30763278,NTREIS,14009665,N,Y,32.8128566,-96.8002076
MLS Listing,,Single Family Residential,3220 Beverly Dr,Highland Park,TX,75205,2000000,4,3.5,Highland Park,3594,11195,1928,65,556,,Active,,,http://www.redfin.com/TX/Dallas/3220-Beverly-Dr-75205/home/32065631,NTREIS,14009612,N,Y,32.8327202,-96.7849756
MLS Listing,,Single Family Residential,5320 Tanbark Rd,Dallas,TX,75229,1325000,4,5.5,Russwood Acres 04 Inst,4884,22477,1966,66,271,,Active,,,http://www.redfin.com/TX/Dallas/5320-Tanbark-Rd-75229/home/30926106,NTREIS,14005132,N,Y,32.8967976,-96.8157927
MLS Listing,,Condo/Co-op,2025 Woodall Rodgers #31,Dallas,TX,75201,1250000,2,2.5,Parkside Residential Condominium,2185,125714,2014,67,572,1613,Active,,,http://www.redfin.com/TX/Dallas/2025-Woodall-Rodgers-Fwy-75201/unit-31/home/143838387,NTREIS,14002737,N,Y,32.7899758,-96.8017802
MLS Listing,,Single Family Residential,4806 Abbott Ave,Highland Park,TX,75205,1895000,4,3.5,Highland Park 04 Instl,4152,10019,1976,69,456,,Active,,,http://www.redfin.com/TX/Dallas/4806-Abbott-Ave-75205/home/32067210,NTREIS,14002786,N,Y,32.8264223,-96.7894946
MLS Listing,,Single Family Residential,3514 Springbrook St,Dallas,TX,75205,1499000,3,2.5,Northern Heights,3069,3746,2006,71,488,,Active,March-31-2019 02:00 PM,March-31-2019 04:00 PM,http://www.redfin.com/TX/Dallas/3514-Springbrook-St-75205/home/30809242,NTREIS,13997601,N,Y,32.818707,-96.7957069
MLS Listing,,Single Family Residential,2429 Pickens St,Dallas,TX,75214,1275000,4,3.5,Westlake Park Rev,4009,9496,2010,71,318,,Active,March-31-2019 03:30 PM,March-31-2019 05:00 PM,http://www.redfin.com/TX/Dallas/2429-Pickens-St-75214/home/30819789,NTREIS,14006316,N,Y,32.8189274,-96.7410779
MLS Listing,,Single Family Residential,3517 Potomac Ave,Highland Park,TX,75205,1699000,4,4.5,Mount Vernon Heights,5366,7884,1997,71,317,,Active,,,http://www.redfin.com/TX/Dallas/3517-Potomac-Ave-75205/home/32091770,NTREIS,14005886,N,Y,32.8373794,-96.7908545
MLS Listing,,Vacant Land,2629 Calvin St,Dallas,TX,75204,1800000,0,,Belmont Park Rev,,22113,,72,,,Active,,,http://www.redfin.com/TX/Dallas/2629-Calvin-St-75204/home/30809363,NTREIS,14005449,N,Y,32.8107265,-96.78849
MLS Listing,,Single Family Residential,6630 Stefani Dr,Dallas,TX,75225,1849000,5,6.0,Jackson Heights 01,6225,17119,2001,73,297,,Active,March-31-2019 12:00 PM,March-31-2019 01:30 PM,http://www.redfin.com/TX/Dallas/6630-Stefani-Dr-75225/home/30874889,NTREIS,14004650,N,Y,32.87773,-96.7906872
MLS Listing,,Single Family Residential,3233 Northwest Pkwy,University Park,TX,75225,1749000,5,6.0,University Heights 8,5037,10324,2018,73,347,,Active,,,http://www.redfin.com/TX/Dallas/3233-Northwest-Pkwy-75225/home/32106604,NTREIS,14001622,N,Y,32.8651211,-96.7851011
MLS Listing,,Townhouse,2804 Thomas Ave #104,Dallas,TX,75204,1595000,3,4.0,Lexington State Thomas,4546,3746,2019,73,351,,Active,,,http://www.redfin.com/TX/Dallas/2804-Thomas-Ave-75204/unit-104/home/160358581,NTREIS,14004248,N,Y,32.795751,-96.797496
MLS Listing,,Townhouse,2804 Thomas Ave #105,Dallas,TX,75204,1495000,3,4.0,Lexington State Thomas,4065,2570,2019,73,368,,Active,,,http://www.redfin.com/TX/Dallas/2804-Thomas-Ave-75204/unit-105/home/160358580,NTREIS,14004246,N,Y,32.795751,-96.797496
MLS Listing,,Condo/Co-op,3130 N Harwood St #1606,Dallas,TX,75201,1968000,3,3.5,Bleu Ciel,2231,81457,2017,74,882,1485,Active,,,http://www.redfin.com/TX/Dallas/3130-N-Harwood-St-75201/unit-1606/home/145546638,NTREIS,14003613,N,Y,32.797012,-96.8112363
MLS Listing,,Condo/Co-op,3130 N Harwood St #1903,Dallas,TX,75201,1554000,3,3.0,Bleu Ciel,1903,81457,2017,74,817,1238,Active,,,http://www.redfin.com/TX/Dallas/3130-N-Harwood-St-75201/unit-1903/home/145546639,NTREIS,14003607,N,Y,32.797012,-96.8112363
MLS Listing,,Vacant Land,37 Sagecliff Ct,Dallas,TX,75248,1250000,0,,Glen Abbey,,23000,,74,,492,Active,,,http://www.redfin.com/TX/Dallas/37-Sagecliff-Ct-75248/home/32217947,NTREIS,14003531,N,Y,32.973292,-96.813443
MLS Listing,,Single Family Residential,4028 Courtshire Dr,Dallas,TX,75229,1880000,5,6.0,Midway Hills Add 05,6152,15987,2019,74,306,,Active,,,http://www.redfin.com/TX/Dallas/4028-Courtshire-Dr-75229/home/30773300,NTREIS,14003435,N,Y,32.9047462,-96.8422816
MLS Listing,,Single Family Residential,5878 Lakehurst Ave,Dallas,TX,75230,1599000,5,4.5,Lakes of Preston Hollow,6311,15333,1999,74,253,175,Active,,,http://www.redfin.com/TX/Dallas/5878-Lakehurst-Ave-75230/home/31136006,NTREIS,14003378,N,Y,32.8836508,-96.8059107
MLS Listing,,Single Family Residential,4432 Bryn Mawr Dr,University Park,TX,75225,1395000,4,4.5,Idlewild 2,4713,7623,2007,75,296,,Active,March-31-2019 01:00 PM,March-31-2019 03:00 PM,http://www.redfin.com/TX/Dallas/4432-Bryn-Mawr-Dr-75225/home/32073349,NTREIS,13991222,N,Y,32.8562373,-96.81222
MLS Listing,,Single Family Residential,3521 Milton Ave,University Park,TX,75205,1999000,5,5.5,Campus Heights 02,4706,8233,2007,75,425,,Active,March-31-2019 01:00 PM,March-31-2019 03:00 PM,http://www.redfin.com/TX/Dallas/3521-Milton-Ave-75205/home/32055082,NTREIS,13999977,N,Y,32.8479789,-96.7911056
MLS Listing,,Single Family Residential,7031 Coronado Ave,Dallas,TX,75214,1349000,5,6.0,Wilkes Resub,4363,8712,2018,77,309,,Active,March-31-2019 03:30 PM,March-31-2019 05:00 PM,http://www.redfin.com/TX/Dallas/7031-Coronado-Ave-75214/home/30818682,NTREIS,14001842,N,Y,32.8118839,-96.7370431
MLS Listing,,Single Family Residential,7151 Shook Ave,Dallas,TX,75214,1575000,5,4.5,Lakeshore Hills Rev,4716,8886,2018,78,334,,Active,March-31-2019 03:30 PM,March-31-2019 05:00 PM,http://www.redfin.com/TX/Dallas/7151-Shook-Ave-75214/home/30818915,NTREIS,14001844,N,Y,32.8155792,-96.7344091
MLS Listing,,Single Family Residential,4626 S Lindhurst Ave,Dallas,TX,75229,1650000,5,4.5,Walnut Park,5206,33106,1960,78,317,,Active,,,http://www.redfin.com/TX/Dallas/4626-S-Lindhurst-Ave-75229/home/30878655,NTREIS,14002028,N,Y,32.8812173,-96.8296984
MLS Listing,,Condo/Co-op,2525 N Pearl St #1506,Dallas,TX,75201,1375000,2,2.5,Ritz Carlton Residences 1,1628,,2005,78,845,1583,Active,,,http://www.redfin.com/TX/Dallas/2525-N-Pearl-St-75201/unit-1506/home/30783283,NTREIS,14001604,N,Y,32.793039,-96.8042401
MLS Listing,,Single Family Residential,6634 Aberdeen Ave,Dallas,TX,75230,1999900,5,7.0,Pemberton 02,6737,12632,2004,78,297,29,Active,,,http://www.redfin.com/TX/Dallas/6634-Aberdeen-Ave-75230/home/30875149,NTREIS,14000492,N,Y,32.8818782,-96.790185
MLS Listing,,Vacant Land,4000 Stonebridge Dr,Dallas,TX,75204,1300000,0,,Turtle Creek Park,,13155,1940,78,,,Active,,,http://www.redfin.com/TX/Dallas/4000-Stonebridge-Dr-75204/home/30809935,NTREIS,14001574,N,Y,32.8162011,-96.7963783
MLS Listing,,Single Family Residential,5729 Northmoor Dr,Dallas,TX,75230,1874900,6,6.0,Inwood Road Estates,6325,15987,2015,78,296,,Active,March-31-2019 02:00 PM,March-31-2019 04:00 PM,http://www.redfin.com/TX/Dallas/5729-Northmoor-Dr-75230/home/30925522,NTREIS,13983952,N,Y,32.9087296,-96.8094574
MLS Listing,,Single Family Residential,7314 Marquette St,Dallas,TX,75225,1949000,5,6.5,Caruth Hills 07,5556,8276,2018,79,351,,Active,,,http://www.redfin.com/TX/Dallas/7314-Marquette-St-75225/home/30872218,NTREIS,14001019,N,Y,32.8610649,-96.7810635
MLS Listing,,Single Family Residential,5003 Horseshoe Trl,Dallas,TX,75209,1799000,4,4.0,Colony Rdg Add,5785,12850,2007,79,311,,Active,,,http://www.redfin.com/TX/Dallas/5003-Horseshoe-Trl-75209/home/30880907,NTREIS,14000803,N,Y,32.8573521,-96.8250971
MLS Listing,,Single Family Residential,5210 Royal Crest Dr,Dallas,TX,75229,1379000,4,5.0,Russwood Acres 03 Inst,4157,28488,1965,79,332,,Active,March-31-2019 02:00 PM,March-31-2019 04:00 PM,http://www.redfin.com/TX/Dallas/5210-Royal-Crest-Dr-75229/home/30926071,NTREIS,13999796,N,Y,32.8978589,-96.8187294
MLS Listing,,Single Family Residential,5829 Joyce Way,Dallas,TX,75225,1499000,4,4.5,Douglas,3784,37462,1950,79,396,,Active,,,http://www.redfin.com/TX/Dallas/5829-Joyce-Way-75225/home/30879864,NTREIS,13999949,N,Y,32.879083,-96.8072229
MLS Listing,,Single Family Residential,26 Abbey Creek Way,Dallas,TX,75248,1250000,3,3.0,The Lawn at Glen Abbey,3690,6534,2016,79,339,425,Active,March-30-2019 01:00 PM,March-30-2019 04:00 PM,http://www.redfin.com/TX/Dallas/26-Abbey-Creek-Way-75248/home/108468585,NTREIS,14000563,N,Y,32.9693136,-96.8096248
MLS Listing,,Single Family Residential,3616 Normandy Ave,Highland Park,TX,75205,1375000,4,3.5,Mount Vernon 01 & 03,3281,9017,1931,80,419,,Active,,,http://www.redfin.com/TX/Dallas/3616-Normandy-Ave-75205/home/32091631,NTREIS,14000178,N,Y,32.8391355,-96.7928422
MLS Listing,,Condo/Co-op,2300 Wolf St Unit 7A,Dallas,TX,75201,1463000,0,,Heritage At The Stoneleigh Hotel,4261,67039,2008,80,343,2834,Active,March-31-2019 01:00 PM,March-31-2019 05:00 PM,http://www.redfin.com/TX/Dallas/2300-Wolf-St-75201/unit-7A/home/32396299,NTREIS,13999791,N,Y,32.7972022,-96.8077287
MLS Listing,,Condo/Co-op,2300 Wolf St Unit 12MD,Dallas,TX,75201,1799000,2,2.5,Residences Stoneleigh,2517,67039,2017,80,715,1736,Active,March-31-2019 01:00 PM,March-31-2019 05:00 PM,http://www.redfin.com/TX/Dallas/2300-Wolf-St-75201/unit-12MD/home/109541507,NTREIS,13999710,N,Y,32.7970055,-96.8082043
MLS Listing,,Single Family Residential,6415 Northwood Rd,Dallas,TX,75225,1389000,4,3.5,Preston Hills Rev,3488,15377,1957,81,398,,Active,April-7-2019 01:00 PM,April-7-2019 03:00 PM,http://www.redfin.com/TX/Dallas/6415-Northwood-Rd-75225/home/30874055,NTREIS,13991580,N,Y,32.8698793,-96.7947906
MLS Listing,,Condo/Co-op,3525 Turtle Creek Blvd Unit 22-A,Dallas,TX,75219,1600000,3,3.0,Condo 3525,5123,123013,1957,82,312,5098,Active,,,http://www.redfin.com/TX/Dallas/3525-Turtle-Creek-Blvd-75219/unit-22-A/home/30794945,NTREIS,13998066,N,Y,32.810266,-96.8031045
MLS Listing,,Single Family Residential,6452 Lakehurst Ave,Dallas,TX,75230,1395000,4,4.5,Fisk,5170,10716,1992,83,270,30,Active,March-31-2019 03:00 PM,March-31-2019 05:00 PM,http://www.redfin.com/TX/Dallas/6452-Lakehurst-Ave-75230/home/30875817,NTREIS,13996548,N,Y,32.8839345,-96.7942859
MLS Listing,,Single Family Residential,7809 Hanover St,Dallas,TX,75225,1549000,4,5.5,Caruth Hills 5,4881,9583,2002,85,317,,Active,March-31-2019 03:00 PM,March-31-2019 05:00 PM,http://www.redfin.com/TX/Dallas/7809-Hanover-St-75225/home/30871451,NTREIS,13981685,N,Y,32.8552728,-96.7726817
MLS Listing,,Single Family Residential,2319 Loving Ave,Dallas,TX,75214,1499000,4,4.5,Lakeshore Hills Rev,4684,11805,1952,86,320,,Active,,,http://www.redfin.com/TX/Dallas/2319-Loving-Ave-75214/home/30818586,NTREIS,13991432,N,Y,32.814965,-96.7344091
MLS Listing,,Single Family Residential,3633 Southwestern,University Park,TX,75225,1499000,2,2.0,University Heights,2208,,1940,86,679,,Active,April-14-2019 02:00 PM,April-14-2019 04:00 PM,http://www.redfin.com/TX/Dallas/3633-Southwestern-Blvd-75225/home/32104036,NTREIS,13995958,N,Y,32.8567432,-96.7948509
MLS Listing,,Single Family Residential,6517 Lake Circle Dr,Dallas,TX,75214,1285000,5,4.5,Lakewood Estates,4460,7623,2014,87,288,,Active,,,http://www.redfin.com/TX/Dallas/6517-Lake-Cir-Dr-75214/home/30824203,NTREIS,13990203,N,Y,32.8250615,-96.7493574
MLS Listing,,Single Family Residential,4206 Valley Ridge Rd,Dallas,TX,75220,1395000,5,6.5,Meadowood Estates #3,6456,19079,2002,87,216,,Active,March-30-2019 01:00 PM,March-30-2019 03:00 PM,http://www.redfin.com/TX/Dallas/4206-Valley-Ridge-Rd-75220/home/30879495,NTREIS,13994315,N,Y,32.8763899,-96.8382196
MLS Listing,,Single Family Residential,4421 Walnut Hill Ln,Dallas,TX,75229,1437500,4,3.0,Lyndhurst Add,3020,17598,1950,88,476,,Active,,,http://www.redfin.com/TX/Dallas/4421-Walnut-Hill-Ln-75229/home/30878757,NTREIS,13994978,N,Y,32.8805548,-96.8338019
MLS Listing,,Single Family Residential,4431 Walnut Hl,Dallas,TX,75229,1437500,3,3.0,Lyndhurst,2672,,1950,88,538,,Active,,,http://www.redfin.com/TX/Dallas/4431-Walnut-Hill-Ln-75229/home/30878758,NTREIS,13994963,N,Y,32.8805108,-96.8334041
MLS Listing,,Single Family Residential,5409 Boca Raton Dr,Dallas,TX,75229,1295000,6,6.0,Inwood Road Estates,5753,16030,1960,88,225,,Active,,,http://www.redfin.com/TX/Dallas/5409-Boca-Raton-Dr-75229/home/30926384,NTREIS,13994934,N,Y,32.9047922,-96.8151607
MLS Listing,,Single Family Residential,6745 Country Club Cir,Dallas,TX,75214,1500000,4,4.5,Country Club Estates,4524,19602,1986,89,332,,Active,,,http://www.redfin.com/TX/Dallas/6745-Country-Club-Cir-75214/home/31127326,NTREIS,13988816,N,Y,32.8157259,-96.7450066
MLS Listing,,Single Family Residential,31 Stonecourt Dr,Dallas,TX,75225,1250000,3,5.0,Caruth Homeplace Sec 06,4430,6752,1982,93,282,292,Active,March-30-2019 01:00 PM,March-30-2019 03:00 PM,http://www.redfin.com/TX/Dallas/31-Stonecourt-Dr-75225/home/31135130,NTREIS,13978502,N,Y,32.8610964,-96.7756247
MLS Listing,,Single Family Residential,2215 Kessler Woods Ct,Dallas,TX,75208,1995000,4,5.5,Kessler Woods Court Add,4328,7797,2018,96,461,284,Active,,,http://www.redfin.com/TX/Dallas/2215-Kessler-Woods-Ct-75208/home/30739951,NTREIS,13987864,N,Y,32.752941,-96.853645
MLS Listing,,Single Family Residential,5546 Charlestown Dr,Dallas,TX,75230,1725000,5,6.5,Melshire Estates,5230,16771,1964,98,330,,Active,,,http://www.redfin.com/TX/Dallas/5546-Charlestown-Dr-75230/home/30964263,NTREIS,13937168,N,Y,32.9175411,-96.8142293
MLS Listing,,Single Family Residential,8546 San Pedro Pkwy,Dallas,TX,75218,1499000,5,5.0,Forest Hills Rev,5361,15943,2018,101,280,,Active,,,http://www.redfin.com/TX/Dallas/8546-San-Pedro-Pkwy-75218/home/30860790,NTREIS,13983490,N,Y,32.8177434,-96.7096213
MLS Listing,,Single Family Residential,4681 Fairfax Ave,Highland Park,TX,75209,1299999,5,4.5,Highland Park,3896,8102,1940,101,334,,Active,April-14-2019 02:00 PM,April-14-2019 04:00 PM,http://www.redfin.com/TX/Dallas/4681-Fairfax-Ave-75209/home/32070200,NTREIS,13991403,N,Y,32.832997,-96.8186247
MLS Listing,,Single Family Residential,5707 Williamstown Rd,Dallas,TX,75230,1850000,5,5.0,Melshire Estates,5535,16553,2019,105,334,,Active,,,http://www.redfin.com/TX/Dallas/5707-Williamstown-Rd-75230/home/30961593,NTREIS,13989496,N,Y,32.9158051,-96.8115084
MLS Listing,,Single Family Residential,11005 Lawnhaven Rd,Dallas,TX,75230,1800000,5,5.5,Royal Crest,5893,21388,2018,106,305,,Active,,,http://www.redfin.com/TX/Dallas/11005-Lawnhaven-Rd-75230/home/30876596,NTREIS,13989355,N,Y,32.8976652,-96.7933706
MLS Listing,,Single Family Residential,6412 Azalea Ln,Dallas,TX,75230,1500000,4,4.5,Preston Royal,4647,14636,2004,106,323,,Active,,,http://www.redfin.com/TX/Dallas/6412-Azalea-Ln-75230/home/30876688,NTREIS,13987296,N,Y,32.8966439,-96.7959599
MLS Listing,,Single Family Residential,6306 Glendora Ave,Dallas,TX,75230,1599000,5,4.5,Preston Road Estates,4524,18339,1935,106,353,,Active,,,http://www.redfin.com/TX/Dallas/6306-Glendora-Ave-75230/home/30875791,NTREIS,13988166,N,Y,32.8850264,-96.7980314
MLS Listing,,Condo/Co-op,3130 N Harwood St #1004,Dallas,TX,75201,1522400,3,3.0,Bleu Ciel,1903,81457,2017,107,800,1240,Active,,,http://www.redfin.com/TX/Dallas/3130-N-Harwood-St-75201/unit-1004/home/148475067,NTREIS,13988865,N,Y,32.7970118,-96.8112353
MLS Listing,,Single Family Residential,4064 Purdue Ave,University Park,TX,75225,1574000,5,5.0,University Hlnds Add,4806,7013,1931,107,328,,Active,,,http://www.redfin.com/TX/Dallas/4064-Purdue-Ave-75225/home/32109593,NTREIS,13985479,N,Y,32.8541837,-96.803221
MLS Listing,,Vacant Land,4337 Park Ln,Dallas,TX,75220,1450000,0,,Maywood Estates,,30492,,113,,,Active,,,http://www.redfin.com/TX/Dallas/4337-Park-Ln-75220/home/30879420,NTREIS,13982997,N,Y,32.874433,-96.834399
MLS Listing,,Single Family Residential,2637 Westminster Ave,University Park,TX,75205,1881000,4,3.5,Compton Heights,4588,10280,2018,113,410,,Active,,,http://www.redfin.com/TX/Dallas/2637-Westminster-Ave-75205/home/32058324,NTREIS,13984824,N,Y,32.849637,-96.7730519
MLS Listing,,Single Family Residential,6416 Preston Crest Ln,Dallas,TX,75230,1250000,5,3.5,Huffhines Hill,3989,27007,1956,115,313,,Active,,,http://www.redfin.com/TX/Dallas/6416-Preston-Crest-Ln-75230/home/31017038,NTREIS,13982322,N,Y,32.9213941,-96.795374
MLS Listing,,Single Family Residential,4416 Greenbrier Dr,Dallas,TX,75225,1875000,5,5.5,Idlewild Annex,5323,8364,2018,118,352,,Active,March-31-2019 02:00 PM,March-31-2019 05:00 PM,http://www.redfin.com/TX/Dallas/4416-Greenbrier-Dr-75225/home/30880435,NTREIS,13981212,N,Y,32.8581752,-96.8112573
MLS Listing,,Condo/Co-op,1918 N Olive St #702,Dallas,TX,75201,1475000,2,2.0,Museum Tower Condo,2147,,2012,121,687,2066,Active,,,http://www.redfin.com/TX/Dallas/1918-Olive-St-75201/unit-702/home/30782905,NTREIS,13978917,N,Y,32.7892661,-96.8005498
MLS Listing,,Single Family Residential,7065 Hillgreen Dr,Dallas,TX,75214,1250000,0,,Green Cove Estates,,26572,2018,122,,,Active,,,http://www.redfin.com/TX/Dallas/7065-Hillgreen-Dr-75214/home/30845412,NTREIS,13979154,N,Y,32.8455713,-96.7329876
MLS Listing,,Single Family Residential,1522 Eastus Dr,Dallas,TX,75208,1499000,5,3.5,East Kessler,4848,10803,2019,124,309,,Active,,,http://www.redfin.com/TX/Dallas/1522-Eastus-Dr-75208/home/30848884,NTREIS,13978210,N,Y,32.7630618,-96.8339484
MLS Listing,,Single Family Residential,4631 Westside Dr,Highland Park,TX,75209,1499000,3,3.5,Highland Park West 9th Inst,3212,6970,2017,131,467,,Active,,,http://www.redfin.com/TX/Dallas/4631-Westside-Dr-75209/home/32070135,NTREIS,13975824,N,Y,32.8270959,-96.8174526
MLS Listing,,Single Family Residential,3533 Haynie Ave,University Park,TX,75205,1895000,5,7.0,University Park Add,6053,9017,2000,131,313,,Active,March-31-2019 02:00 PM,March-31-2019 04:00 PM,http://www.redfin.com/TX/Dallas/3533-Haynie-Ave-75205/home/32109849,NTREIS,13975384,N,Y,32.8458376,-96.7917751
MLS Listing,,Single Family Residential,4432 Emerson Ave,University Park,TX,75205,1275000,5,4.5,Methodist University,3468,7187,1935,134,368,,Active,,,http://www.redfin.com/TX/Dallas/4432-Emerson-Ave-75205/home/32091655,NTREIS,13974486,N,Y,32.8466129,-96.8118014
MLS Listing,,Single Family Residential,6728 Woodland Dr,Dallas,TX,75225,1649500,5,5.5,Preston Hills 03,5021,8625,2018,135,329,,Active,,,http://www.redfin.com/TX/Dallas/6728-Woodland-Dr-75225/home/30874149,NTREIS,13974108,N,Y,32.8722571,-96.7885322
MLS Listing,,Single Family Residential,9423 Tarleton St,Dallas,TX,75218,1395000,4,3.5,Lake Highlands,4189,7536,1941,135,333,,Active,,,http://www.redfin.com/TX/Dallas/9423-Tarleton-St-75218/home/30848822,NTREIS,13973327,N,Y,32.843689,-96.7125051
MLS Listing,,Condo/Co-op,3401 Lee Pkwy #2101,Dallas,TX,75219,1800000,2,3.5,Mayfair Turtle Creek Condos,4777,85508,1998,137,377,3296,Active,,,http://www.redfin.com/TX/Dallas/3401-Lee-Pkwy-75219/unit-2101/home/32219870,NTREIS,13972502,N,Y,32.8092977,-96.8046809
MLS Listing,,Single Family Residential,7014 Azalea Ln,Dallas,TX,75230,1350000,4,4.5,Northaven Hills Rev,3572,16335,1954,138,378,,Active,,,http://www.redfin.com/TX/Dallas/7014-Azalea-Ln-75230/home/30934268,NTREIS,13971485,N,Y,32.8970665,-96.7853521
MLS Listing,,Single Family Residential,3538 Caruth Blvd,University Park,TX,75225,1795000,4,3.5,University Heights,3538,11892,1940,138,507,,Active,,,http://www.redfin.com/TX/Dallas/3538-Caruth-Blvd-75225/home/32104239,NTREIS,13970169,N,Y,32.8595264,-96.7920471
MLS Listing,,Single Family Residential,6723 Walnut Hill Ln,Dallas,TX,75230,1299000,5,6.5,Crestmanor Estates,5468,11456,2018,141,238,,Active,March-31-2019 02:00 PM,March-31-2019 04:00 PM,http://www.redfin.com/TX/Dallas/6723-Walnut-Hill-Ln-75230/home/30875084,NTREIS,13969582,N,Y,32.8801538,-96.7892435
MLS Listing,,Vacant Land,10738 Bridge Hollow Ct,Dallas,TX,75229,1950000,0,,Creeks of Preston Hollow,,48221,,141,,,Active,,,http://www.redfin.com/TX/Dallas/10738-Bridge-Hollow-Ct-75229/home/30781093,NTREIS,13970486,N,Y,32.8940529,-96.8211685
MLS Listing,,Condo/Co-op,2525 N Pearl St #1101,Dallas,TX,75201,1995000,2,2.5,Residences Condo In Uptown,2609,47916,2007,141,765,2471,Active,,,http://www.redfin.com/TX/Dallas/2525-N-Pearl-St-75201/unit-1101/home/30783315,NTREIS,13968971,N,Y,32.793039,-96.8042401
MLS Listing,,Single Family Residential,4405 Normandy,University Park,TX,75205,1750000,5,4.5,Preston Place 4,4774,7841,1933,142,367,,Active,,,http://www.redfin.com/TX/Dallas/4405-Normandy-Ave-75205/home/32095402,NTREIS,13969859,N,Y,32.839491,-96.811948
MLS Listing,,Condo/Co-op,4300 Lomo Alto Dr #5,Highland Park,TX,75219,1465000,3,3.5,West Park,2948,,2017,142,497,400,Active,,,http://www.redfin.com/TX/Dallas/4300-Lomo-Alto-Dr-75219/unit-5/home/148036253,NTREIS,13969628,N,Y,32.8230433,-96.8125339
MLS Listing,,Townhouse,3340 Blackburn St,Dallas,TX,75204,1435000,3,3.5,Cascada at Turtle Creek,3595,1917,2003,142,399,700,Active,,,http://www.redfin.com/TX/Dallas/3340-Blackburn-St-75204/home/30730103,NTREIS,13969467,N,Y,32.811907,-96.798308
MLS Listing,,Single Family Residential,6712 Avalon Ave,Dallas,TX,75214,1540000,4,4.0,Country Club Estates,3713,15072,1931,143,415,,Active,March-31-2019 03:00 PM,March-31-2019 05:00 PM,http://www.redfin.com/TX/Dallas/6712-Avalon-Ave-75214/home/30819080,NTREIS,13969051,N,Y,32.817467,-96.7457764
MLS Listing,,Single Family Residential,16928 Club Hill Dr,Dallas,TX,75248,1299000,3,6.0,Bent Tree 02,5049,17032,1979,143,257,,Active,,,http://www.redfin.com/TX/Dallas/16928-Club-Hill-Dr-75248/home/31087923,NTREIS,13954186,N,Y,32.9815999,-96.8192318
MLS Listing,,Single Family Residential,5542 Willis Ave,Dallas,TX,75206,1250000,4,4.0,Vickery Place,3792,7492,2019,144,330,,Active,,,http://www.redfin.com/TX/Dallas/5542-Willis-Ave-75206/home/30807193,NTREIS,13968100,N,Y,32.8200449,-96.7728009
MLS Listing,,Single Family Residential,3815 Northwest Pkwy,University Park,TX,75225,1279000,5,6.0,University Heights,4926,6142,2006,145,260,,Active,,,http://www.redfin.com/TX/Dallas/3815-Northwest-Pkwy-75225/home/32106839,NTREIS,13967289,N,Y,32.865119,-96.796805
MLS Listing,,Single Family Residential,8310 Midway Rd,Dallas,TX,75209,1880000,5,5.0,Bluffview Estates,5353,24219,2007,148,351,,Active,,,http://www.redfin.com/TX/Dallas/8310-Midway-Rd-75209/home/30853948,NTREIS,13963645,N,Y,32.8533227,-96.8395847
MLS Listing,,Ranch,2020 Haymarket Rd,Dallas,TX,75253,1266732,0,,,,3065491,,148,,,Active,,,http://www.redfin.com/TX/Dallas/2020-Haymarket-Rd-75253/home/59712324,NTREIS,13965516,N,Y,32.674033,-96.6408786
MLS Listing,,Single Family Residential,5406 Caladium Dr,Dallas,TX,75229,1300000,4,5.0,Inwood Road Estates,4743,15943,1958,149,274,,Active,,,http://www.redfin.com/TX/Dallas/5406-Caladium-Dr-75229/home/30926354,NTREIS,13957254,N,Y,32.9070932,-96.8153595
MLS Listing,,Single Family Residential,6831 Orchid Ln,Dallas,TX,75230,1849000,6,7.0,Nor-Dal,7672,14767,2015,149,241,,Active,,,http://www.redfin.com/TX/Dallas/6831-Orchid-Ln-75230/home/30876527,NTREIS,13965615,N,Y,32.8928327,-96.7874443
MLS Listing,,Single Family Residential,8712 Glencrest Ln,Dallas,TX,75209,1275000,5,5.0,Shore Crest Terrace,5065,8973,2016,150,252,,Active,March-31-2019 12:00 PM,March-31-2019 02:00 PM,http://www.redfin.com/TX/Dallas/8712-Glencrest-Ln-75209/home/32256298,NTREIS,13964163,N,Y,32.8573204,-96.8456006
MLS Listing,,Single Family Residential,2312 Lafayette Dr,Heath,TX,75032,1295000,4,4.0,Lafayette Point,4656,39596,1994,151,278,83,Active,,,http://www.redfin.com/TX/Heath/2312-Lafayette-Dr-75032/home/33931975,NTREIS,13956582,N,Y,32.8719588,-96.4794446
MLS Listing,,Single Family Residential,7 Saint Laurent Pl,Dallas,TX,75225,1875000,4,4.0,Caruth Homeplace,4022,6011,1981,159,466,258,Active,,,http://www.redfin.com/TX/Dallas/7-St-Laurent-Pl-75225/home/30871909,NTREIS,13957042,N,Y,32.857768,-96.7751436
MLS Listing,,Single Family Residential,7010 Stone Meadow Dr,Dallas,TX,75230,1380000,3,3.5,Lake Forest Ph G,4837,7797,2005,162,285,492,Active,,,http://www.redfin.com/TX/Dallas/7010-Stone-Meadow-Dr-75230/home/32214996,NTREIS,13956052,N,Y,32.9151804,-96.7839086
MLS Listing,,Single Family Residential,7615 Lavendale Ave,Dallas,TX,75230,1299900,4,3.0,Northaven Meadows,3299,15246,2010,163,394,,Active,March-31-2019 01:00 PM,March-31-2019 03:00 PM,http://www.redfin.com/TX/Dallas/7615-Lavendale-Ave-75230/home/30990685,NTREIS,13955552,N,Y,32.8981585,-96.7761267
MLS Listing,,Condo/Co-op,3030 Mckinney Ave #2301,Dallas,TX,75204,1350000,2,2.5,La Tour Condo,3647,65601,1981,169,370,2652,Active,,,http://www.redfin.com/TX/Dallas/3030-McKinney-Ave-75204/unit-2301/home/31174493,NTREIS,13953202,N,Y,32.8016841,-96.8005017
MLS Listing,,Multi-Family (2-4 Unit),4412 Emerson Ave,University Park,TX,75205,1325000,6,4.0,Methodist University,4385,10977,1935,170,302,,Active,,,http://www.redfin.com/TX/Dallas/4412-Emerson-Ave-75205/home/32091661,NTREIS,13952136,N,Y,32.846632,-96.810905
MLS Listing,,Single Family Residential,1629 Junior Dr,Dallas,TX,75208,1300000,3,2.5,E Kessler Park,2625,20647,1938,172,495,,Active,,,http://www.redfin.com/TX/Dallas/1629-Jr-Dr-75208/home/30848193,NTREIS,13949992,N,Y,32.7647954,-96.8287145
MLS Listing,,Single Family Residential,6114 Norway Rd,Dallas,TX,75230,1399000,4,6.5,Preston Terrace Unrec,5746,19994,1991,173,243,,Active,,,http://www.redfin.com/TX/Dallas/6114-Norway-Rd-75230/home/30875945,NTREIS,13949330,N,Y,32.8882133,-96.8010656
MLS Listing,,Single Family Residential,6695 Avian Dr,Dallas,TX,75230,1595000,4,4.5,Crestway Forest Estate,4147,8973,2019,173,385,208,Active,,,http://www.redfin.com/TX/Dallas/6695-Avian-Dr-75230/home/147483293,NTREIS,13949961,N,Y,32.91084,-96.791146
MLS Listing,,Condo/Co-op,1918 Olive St #701,Dallas,TX,75201,1500000,2,2.0,Museum Tower Condo,2147,,2012,176,699,2066,Active,,,http://www.redfin.com/TX/Dallas/1918-Olive-St-75201/unit-701/home/30782906,NTREIS,13948451,N,Y,32.7892661,-96.8005498
MLS Listing,,Single Family Residential,3208 Westminster Ave,University Park,TX,75205,1499000,4,4.5,PROXIMO,4401,,2002,177,341,,Active,March-31-2019 01:00 PM,March-31-2019 03:00 PM,http://www.redfin.com/TX/Dallas/3208-Westminster-Ave-75205/home/32095332,NTREIS,13936052,N,Y,32.850444,-96.783385
MLS Listing,,Single Family Residential,7122 Royal Ln,Dallas,TX,75230,1630000,4,3.5,Hillcrest Haven Add Instl #2,4673,33106,1958,177,349,,Active,,,http://www.redfin.com/TX/Dallas/7122-Royal-Ln-75230/home/30934141,NTREIS,13946935,N,Y,32.8943279,-96.782507
MLS Listing,,Single Family Residential,11712 Jamestown Rd,Dallas,TX,75230,1999000,6,5.5,Inwood Road Estates,5882,15987,2018,180,340,,Active,March-31-2019 01:00 PM,March-31-2019 03:00 PM,http://www.redfin.com/TX/Dallas/11712-Jamestown-Rd-75230/home/30926430,NTREIS,13945456,N,Y,32.908082,-96.8068623
MLS Listing,,Single Family Residential,6 Laureston Pl,Dallas,TX,75225,1285000,4,4.0,Glen Lakes 02 Rev,4722,4879,1984,180,272,575,Active,,,http://www.redfin.com/TX/Dallas/6-Laureston-Pl-75225/home/30872628,NTREIS,13942058,N,Y,32.8783718,-96.7760221
MLS Listing,,Single Family Residential,4722 S Lindhurst Ave,Dallas,TX,75229,1695000,4,4.0,Taylor Estates,5158,44431,1949,180,329,,Active,,,http://www.redfin.com/TX/Dallas/4722-S-Lindhurst-Ave-75229/home/30878420,NTREIS,13937026,N,Y,32.8811328,-96.8280227
MLS Listing,,Single Family Residential,6521 Joyce Way St,Dallas,TX,75225,1899000,5,5.5,Walnut Crest,6118,11282,2017,182,310,,Active,March-31-2019 02:00 PM,March-31-2019 04:00 PM,http://www.redfin.com/TX/Dallas/6521-Joyce-Way-75225/home/30875185,NTREIS,13941725,N,Y,32.8792289,-96.7925918
MLS Listing,,Single Family Residential,5516 W Hanover,Dallas,TX,75209,1707000,4,5.0,PRESTON PARK,4280,8233,2018,183,399,,Active,March-31-2019 01:00 PM,March-31-2019 04:00 PM,http://www.redfin.com/TX/Dallas/5516-Hanover-Ave-75209/home/30854641,NTREIS,13929391,N,Y,32.854979,-96.8184154
MLS Listing,,Single Family Residential,3513 Potomac,Highland Park,TX,75205,1699000,5,6.5,Mount Vernon Heights,4730,7884,1985,184,359,,Active,,,http://www.redfin.com/TX/Dallas/3513-Potomac-Ave-75205/home/32091772,NTREIS,13941821,N,Y,32.8373885,-96.7906872
MLS Listing,,Single Family Residential,0 Terry Ln,Heath,TX,75032,1800000,5,5.5,Meadowview Farms Ests,5475,95832,1968,191,329,,Active,,,http://www.redfin.com/TX/Heath/Terry-Ln-75032/home/33899486,NTREIS,13937220,N,Y,32.839021,-96.503315
MLS Listing,,Condo/Co-op,2300 Wolf St Unit 10D,Dallas,TX,75201,1775000,2,2.5,Residences Stoneleigh,2617,,2017,191,678,,Active,,,http://www.redfin.com/TX/Dallas/2300-Wolf-St-75201/unit-10D/home/52060148,NTREIS,13938776,N,Y,32.7972022,-96.8077287
MLS Listing,,Single Family Residential,5409 Preston Haven Dr,Dallas,TX,75229,1749000,5,7.0,Inwood Road Estates,6283,16030,1959,191,278,,Active,,,http://www.redfin.com/TX/Dallas/5409-Preston-Haven-Dr-75229/home/30926329,NTREIS,13937152,N,Y,32.9066481,-96.8154851
MLS Listing,,Single Family Residential,4201 Bryn Mawr Dr,University Park,TX,75225,1720000,4,4.5,Idlewild,5015,8407,2001,191,343,,Active,,,http://www.redfin.com/TX/Dallas/4201-Bryn-Mawr-Dr-75225/home/32071797,NTREIS,13937900,N,Y,32.8556656,-96.8066112
MLS Listing,,Vacant Land,4431 Brookview Dr,Dallas,TX,75220,1585000,0,,Bowling Greenwood,,32104,,192,,,Active,,,http://www.redfin.com/TX/Dallas/4431-Brookview-Dr-75220/home/30879215,NTREIS,13937594,N,Y,32.8700907,-96.8326296
MLS Listing,,Single Family Residential,4436 Belclaire Ave,Highland Park,TX,75205,1895000,3,4.5,Highland Park,4301,11326,1949,192,441,,Active,,,http://www.redfin.com/TX/Dallas/4436-Belclaire-Ave-75205/home/32068728,NTREIS,13937001,N,Y,32.8299176,-96.8119479
MLS Listing,,Single Family Residential,10243 Best Dr,Dallas,TX,75229,1795000,5,5.5,Midway Hills 03,5712,14375,2018,197,314,,Active,March-31-2019 01:00 PM,March-31-2019 03:00 PM,http://www.redfin.com/TX/Dallas/10243-Best-Dr-75229/home/30929091,NTREIS,13934634,N,Y,32.8859283,-96.8457576
MLS Listing,,Condo/Co-op,3401 Lee Pkwy #2005,Dallas,TX,75219,1250000,2,2.5,Mayfair Turtle Creek Condos,2574,85508,1998,198,486,1777,Active,,,http://www.redfin.com/TX/Dallas/3401-Lee-Pkwy-75219/unit-2005/home/32219872,NTREIS,13933537,N,Y,32.8092977,-96.8046809
MLS Listing,,Single Family Residential,1615 Junior Dr,Dallas,TX,75208,1869000,4,5.0,E Kessler Park 02,4964,19471,2018,199,377,,Active,,,http://www.redfin.com/TX/Dallas/1615-Jr-Dr-75208/home/30848192,NTREIS,13933533,N,Y,32.7645646,-96.8289239
MLS Listing,,Single Family Residential,4021 Bryn Mawr Dr,University Park,TX,75225,1795000,5,4.5,University Highlands,4174,8668,1936,200,430,,Active,,,http://www.redfin.com/TX/Dallas/4021-Bryn-Mawr-Dr-75225/home/32109773,NTREIS,13928200,N,Y,32.8555116,-96.8013795
MLS Listing,,Vacant Land,10011 Lennox Ln,Dallas,TX,75229,1725000,0,,Roxbury Grove,,62421,1955,203,,,Active,,,http://www.redfin.com/TX/Dallas/10011-Lennox-Ln-75229/home/30878454,NTREIS,13931024,N,Y,32.8806942,-96.8276236
MLS Listing,,Multi-Family (2-4 Unit),4224 Buena Vista St,Dallas,TX,75205,1599000,3,3.5,F P WILSON NORTH DALLAS ADD,3673,6970,2018,204,435,,Active,March-31-2019 01:00 PM,March-31-2019 03:00 PM,http://www.redfin.com/TX/Dallas/4224-Buena-Vista-St-75205/home/30799037,NTREIS,13929431,N,Y,32.8182837,-96.7939721
MLS Listing,,Multi-Family (2-4 Unit),4222 Buena Vista St,Dallas,TX,75205,1595000,3,3.5,F P WILSON NORTH DALLAS ADD,3673,6970,2018,204,434,,Active,March-31-2019 01:00 PM,March-31-2019 03:00 PM,http://www.redfin.com/TX/Dallas/4222-Buena-Vista-St-75205/home/146991496,NTREIS,13929485,N,Y,32.8182684,-96.7940613
MLS Listing,,Single Family Residential,4532 Westway Ave,Highland Park,TX,75205,1595000,4,4.5,West Park,4179,10585,1940,204,382,,Active,,,http://www.redfin.com/TX/Dallas/4532-Westway-Ave-75205/home/32113237,NTREIS,13927456,N,Y,32.8242153,-96.8147734
MLS Listing,,Single Family Residential,3504 Marquette St,University Park,TX,75225,1799000,4,5.0,University Heights 05,5184,10193,1984,207,347,,Active,March-31-2019 02:00 PM,March-31-2019 04:00 PM,http://www.redfin.com/TX/Dallas/3504-Marquette-St-75225/home/32105600,NTREIS,13923612,N,Y,32.8616861,-96.7890134
MLS Listing,,Single Family Residential,5220 Northaven Rd,Dallas,TX,75229,1299000,5,5.0,Russwood Acres 2nd Inst,5575,43560,1972,207,233,,Active,April-7-2019 02:00 PM,April-7-2019 04:00 PM,http://www.redfin.com/TX/Dallas/5220-Northaven-Rd-75229/home/30926218,NTREIS,13922598,N,Y,32.901842,-96.8179751
MLS Listing,,Single Family Residential,4027 University Blvd,University Park,TX,75205,1549000,3,2.5,Windsor Place,3225,13852,1946,211,480,,Active,,,http://www.redfin.com/TX/Dallas/4027-University-Blvd-75205/home/32113128,NTREIS,13917863,N,Y,32.8449429,-96.8038069
MLS Listing,,Vacant Land,4545 Isabella Ln,Dallas,TX,75229,1950000,0,,Wilson Estates,,49397,,218,,,Active,,,http://www.redfin.com/TX/Dallas/4545-Isabella-Ln-75229/home/30878383,NTREIS,13920985,N,Y,32.8901278,-96.8306824
MLS Listing,,Vacant Land,212 Melba St,Dallas,TX,75208,1625000,0,,Dallas Land & Loan 02,,17119,1963,219,,,Active,,,http://www.redfin.com/TX/Dallas/212-Melba-St-75208/home/30826861,NTREIS,13918488,N,Y,32.7470265,-96.825365
MLS Listing,,Single Family Residential,6725 Northwood Rd,Dallas,TX,75225,1995000,4,5.0,Preston Hills 01,6740,10149,2007,223,296,,Active,,,http://www.redfin.com/TX/Dallas/6725-Northwood-Rd-75225/home/30874084,NTREIS,13910981,N,Y,32.8698585,-96.7886805
MLS Listing,,Single Family Residential,7507 Baxtershire Dr,Dallas,TX,75230,1595000,5,4.0,Jan Mar Circle Sec 4,5608,21693,1962,229,284,,Active,,,http://www.redfin.com/TX/Dallas/7507-Baxtershire-Dr-75230/home/31008547,NTREIS,13906364,N,Y,32.9061871,-96.7767961
MLS Listing,,Vacant Land,11624 Wander Ln,Dallas,TX,75230,1515000,0,,Wander Wood,,31147,,235,,,Active,,,http://www.redfin.com/TX/Dallas/11624-Wander-Ln-75230/home/146500583,NTREIS,13907911,N,Y,32.9072214,-96.7879323
MLS Listing,,Single Family Residential,6826 Royal Crest Dr,Dallas,TX,75230,1995000,5,5.5,North Lake Estates,5760,16553,2018,239,346,,Active,March-31-2019 01:00 PM,March-31-2019 03:00 PM,http://www.redfin.com/TX/Dallas/6826-Royal-Crest-Dr-75230/home/145278895,NTREIS,13897812,N,Y,32.9000424,-96.789177
MLS Listing,,Single Family Residential,6102 Glendora Ave,Dallas,TX,75230,1299000,5,5.0,E A Kerley,5950,14854,1993,242,218,29,Active,March-31-2019 02:00 PM,March-31-2019 04:00 PM,http://www.redfin.com/TX/Dallas/6102-Glendora-Ave-75230/home/30875897,NTREIS,13888347,N,Y,32.8849557,-96.8013167
MLS Listing,,Single Family Residential,5810 Melshire Dr,Dallas,TX,75230,1482500,6,5.5,Melshire Estates,5866,17642,2000,244,253,,Active,,,http://www.redfin.com/TX/Dallas/5810-Melshire-Dr-75230/home/30962505,NTREIS,13899874,N,Y,32.9142629,-96.8092481
MLS Listing,,Vacant Land,309 N carroll Ave,Dallas,TX,75246,1350000,0,,QUEEN CITY,,44000,,248,,,Active,,,http://www.redfin.com/TX/Dallas/309-N-Carroll-Ave-75226/home/30794163,NTREIS,13899442,N,Y,32.7929559,-96.7696239
MLS Listing,,Single Family Residential,4738 Hallmark Dr,Dallas,TX,75229,1420000,5,5.0,Hockaday Square,5535,16379,2007,254,257,,Active,,,http://www.redfin.com/TX/Dallas/4738-Hallmark-Dr-75229/home/30926921,NTREIS,13894732,N,Y,32.905196,-96.8253597
MLS Listing,,Single Family Residential,5719 Caruth Blvd,Dallas,TX,75209,1350000,4,4.5,Highway Estates,4377,16727,2000,254,308,,Active,,,http://www.redfin.com/TX/Dallas/5719-Caruth-Blvd-75209/home/30880700,NTREIS,13888541,N,Y,32.8592366,-96.814313
MLS Listing,,Single Family Residential,8218 Westrock Dr,Dallas,TX,75243,1950000,4,2.5,Northwood Park Sec 02,2750,17424,1970,256,709,,Active,,,http://www.redfin.com/TX/Dallas/8218-Westrock-Dr-75243/home/31027433,NTREIS,13893455,N,Y,32.9005379,-96.7633472
MLS Listing,,Single Family Residential,7909 Stanford Ave,Dallas,TX,75225,1525000,5,4.5,Caruth Hills 06,4407,10890,2018,289,346,,Active,,,http://www.redfin.com/TX/Dallas/7909-Stanford-Ave-75225/home/30871348,NTREIS,13854238,N,Y,32.8532336,-96.7714204
MLS Listing,,Single Family Residential,4823 W Hanover Ave,Dallas,TX,75209,1275000,4,4.5,Rector Place,3889,7492,2017,299,328,,Active,,,http://www.redfin.com/TX/Dallas/4823-Hanover-Ave-75209/home/30854789,NTREIS,13858046,N,Y,32.8554803,-96.8269141
MLS Listing,,Single Family Residential,5608 Stone Cliff Ct,Dallas,TX,75287,1950000,5,6.0,Oakdale Sec Four,8350,13068,1995,302,234,214,Active,,,http://www.redfin.com/TX/Dallas/5608-Stone-Cliff-Ct-75287/home/32071225,NTREIS,13854388,N,Y,32.9892465,-96.8171386
MLS Listing,,Single Family Residential,5614 Purdue Ave,Dallas,TX,75209,1725000,4,5.0,Idlewild Acres 04,4750,7492,2018,311,363,,Active,March-31-2019 01:00 PM,March-31-2019 04:00 PM,http://www.redfin.com/TX/Dallas/5614-Purdue-Ave-75209/home/30880184,NTREIS,13847104,N,Y,32.8539604,-96.8169921
MLS Listing,,Single Family Residential,6206 Dykes Way,Dallas,TX,75230,1395000,4,5.5,Preston Club Estates 2,4504,15769,2004,317,310,,Active,,,http://www.redfin.com/TX/Dallas/6206-Dykes-Way-75230/home/31018555,NTREIS,13844981,N,Y,32.9192247,-96.79981
MLS Listing,,Vacant Land,8615 Inwood Rd,Dallas,TX,75209,1995000,0,,Inwood Estates,,67954,,318,,,Active,,,http://www.redfin.com/TX/Dallas/8615-Inwood-Rd-75209/home/30880920,NTREIS,13843537,N,Y,32.8585859,-96.8218273
MLS Listing,,Single Family Residential,695 Kessler Reserve Ct,Dallas,TX,75208,1600000,3,4.5,Kessler reserve,5400,14113,2019,327,296,,Active,,,http://www.redfin.com/TX/Dallas/695-Kessler-Reserve-Ct-75208/home/103990231,NTREIS,13836582,N,Y,32.7556032,-96.8323871
MLS Listing,,Single Family Residential,10322 Best Dr,Dallas,TX,75229,1539000,4,5.0,Midway Hills 03,5354,15202,2018,330,287,,Active,March-31-2019 01:00 PM,March-31-2019 03:00 PM,http://www.redfin.com/TX/Dallas/10322-Best-Dr-75229/home/30929042,NTREIS,13830175,N,Y,32.8867494,-96.8451713
MLS Listing,,Single Family Residential,7408 Glen Albens Cir,Dallas,TX,75225,1250000,3,3.5,Glen Lakes 01 Rev,4527,5793,1983,333,276,575,Active,,,http://www.redfin.com/TX/Dallas/7408-Glen-Albens-Cir-75225/home/30872725,NTREIS,13811748,N,Y,32.8768234,-96.7783022
MLS Listing,,Single Family Residential,4049 Purdue Ave,University Park,TX,75225,1725000,4,4.5,University Highlands,4997,8407,2006,348,345,,Active,,,http://www.redfin.com/TX/Dallas/4049-Purdue-Ave-75225/home/30762575,NTREIS,13818956,N,Y,32.853655,-96.8025569
MLS Listing,,Condo/Co-op,4300 Lomo Alto Dr #2,Highland Park,TX,75219,1575000,3,3.5,West Park,2948,,2017,367,534,400,Active,,,http://www.redfin.com/TX/Dallas/4300-Lomo-Alto-Dr-75219/unit-2/home/145244956,NTREIS,13795269,N,Y,32.823121,-96.812487
MLS Listing,,Vacant Land,8511 Inwood Rd,Dallas,TX,75209,1995000,0,,A Harwood Abs 582,,78844,1940,369,,,Active,,,http://www.redfin.com/TX/Dallas/8511-Inwood-Rd-75209/home/30880918,NTREIS,13801696,N,Y,32.8576421,-96.8218483
MLS Listing,,Single Family Residential,4229 San Carlos St,University Park,TX,75205,1549000,4,4.5,Wrights,3601,7754,1939,397,430,,Active,,,http://www.redfin.com/TX/Dallas/4229-San-Carlos-Dr-75205/home/32116779,NTREIS,13783227,N,Y,32.8382964,-96.8082854
MLS Listing,,Single Family Residential,6823 Mimosa Ln,Dallas,TX,75230,1499000,5,5.5,Pemberton Add,5559,11500,2008,407,270,25,Active,,,http://www.redfin.com/TX/Dallas/6823-Mimosa-Ln-75230/home/30875600,NTREIS,13778120,N,Y,32.883514,-96.787507
MLS Listing,,Single Family Residential,,Dallas,TX,75229,1495000,4,4.5,NORTHBROOK ESTATES,4406,49963,1961,435,339,,Active,,,http://www.redfin.com/TX/Dallas/Undisclosed-address-75229/home/30878409,NTREIS,13759999,N,Y,32.8808979,-96.8226601
MLS Listing,,Vacant Land,4015 Cochran Chapel Rd,Dallas,TX,75209,1849000,0,,Cochran Chapel Court,,54014,,458,,25,Active,,,http://www.redfin.com/TX/Dallas/4015-Cochran-Chapel-Rd-75209/home/30855825,NTREIS,13748604,N,Y,32.8613122,-96.844523
MLS Listing,,Condo/Co-op,3510 TURTLE CREEK Blvd Ph 18AB,Dallas,TX,75219,1600000,2,4.0,Claridge Condos,5311,83984,1984,506,301,3635,Active,,,http://www.redfin.com/TX/Dallas/3510-Turtle-Creek-Blvd-75219/unit-18AB/home/81562762,NTREIS,13712974,N,Y,32.8092538,-96.8017407
MLS Listing,,Vacant Land,3601 W Lawther Dr,Dallas,TX,75214,1699000,0,,Lawther-Wendy,,45738,,779,,,Active,,,http://www.redfin.com/TX/Dallas/3601-W-Lawther-Dr-75214/home/113069239,NTREIS,13535970,N,Y,32.8315632,-96.7328127
