SALE TYPE,SOLD DATE,PROPERTY TYPE,ADDRESS,CITY,STATE OR PROVINCE,ZIP OR POSTAL CODE,PRICE,BEDS,BATHS,LOCATION,SQUARE FEET,LOT SIZE,YEAR BUILT,DAYS ON MARKET,$/SQUARE FEET,HOA/MONTH,STATUS,NEXT OPEN HOUSE START TIME,NEXT OPEN HOUSE END TIME,URL (SEE http://www.redfin.com/buy-a-home/comparative-market-analysis FOR INFO ON PRICING),SOURCE,MLS#,FAVORITE,INTERESTED,LATITUDE,LONGITUDE
MLS Listing,,Single Family Residential,4329 Timberglen Rd,Dallas,TX,75287,345999,3,2.5,Parkway Village Sec Two,2507,4792,1989,17,138,63,Active,,,http://www.redfin.com/TX/Dallas/4329-Timberglen-Rd-75287/home/32028523,NTREIS,14026273,N,Y,33.004279,-96.8357071
MLS Listing,,Condo/Co-op,5924 Hudson St Unit C,Dallas,TX,75206,350000,2,2.5,5924 Hudson Condos,1286,9714,2012,19,272,185,Active,April-7-2019 01:00 PM,April-7-2019 03:00 PM,http://www.redfin.com/TX/Dallas/5924-Hudson-St-75206/unit-C/home/59419618,NTREIS,14038354,N,Y,32.8097472,-96.765764
MLS Listing,,Single Family Residential,6020 N Jim Miller Rd,Dallas,TX,75228,310000,3,2.0,Buckner Terrace Add,1884,11369,1964,23,165,,Active,,,http://www.redfin.com/TX/Dallas/6020-N-Jim-Miller-Rd-75228/home/31103396,NTREIS,14035230,N,Y,32.7988016,-96.6995501
MLS Listing,,Single Family Residential,930 Lexington Dr,Rockwall,TX,75087,329000,3,2.0,Turtle Cove Ph 3,3056,7013,2001,45,108,92,Active,March-30-2019 01:00 PM,March-30-2019 03:00 PM,http://www.redfin.com/TX/Rockwall/930-Lexington-Dr-75087/home/33939778,NTREIS,14013071,N,Y,32.9046108,-96.4709293
MLS Listing,,Single Family Residential,211 S Montreal Ave,Dallas,TX,75208,349900,3,2.0,City Dallas,1611,10716,1929,141,217,,Active,,,http://www.redfin.com/TX/Dallas/211-S-Montreal-Ave-75208/home/30832275,NTREIS,13969519,N,Y,32.7438668,-96.8543826
MLS Listing,,Multi-Family (2-4 Unit),16419 Lauder Ln,Dallas,TX,75248,319000,3,2.0,Highland North Add Sec 02,2270,6011,1976,1,141,,Active,,,http://www.redfin.com/TX/Dallas/16419-Lauder-Ln-75248/home/31084230,NTREIS,14054845,N,Y,32.979596,-96.772344
MLS Listing,,Single Family Residential,6710 Northcreek Ln,Dallas,TX,75240,339900,2,2.0,Northwood on the creek,1652,4530,1981,1,206,65,Active,,,http://www.redfin.com/TX/Dallas/6710-Northcreek-Ln-75240/home/31016118,NTREIS,14049014,N,Y,32.925805,-96.7879882
MLS Listing,,Single Family Residential,406 S Montclair Ave,Dallas,TX,75208,339000,2,2.0,Winnetka Heights,1260,8102,1923,1,269,,Active,,,http://www.redfin.com/TX/Dallas/406-S-Montclair-Ave-75208/home/30832154,NTREIS,14053403,N,Y,32.7415783,-96.8463858
MLS Listing,,Single Family Residential,7251 Syracuse Dr,Dallas,TX,75214,350000,3,2.0,University Terrace Rev,1390,7231,1959,1,252,,Active,,,http://www.redfin.com/TX/Dallas/7251-Syracuse-Dr-75214/home/30869951,NTREIS,14054044,N,Y,32.8540974,-96.7342837
MLS Listing,,Single Family Residential,1629 W Pentagon Pkwy,Dallas,TX,75224,315000,3,2.0,Oak Park Estates,1890,9670,1960,1,167,,Active,,,http://www.redfin.com/TX/Dallas/1629-W-Pentagon-Pkwy-75224/home/30900357,NTREIS,14054202,N,Y,32.7010117,-96.8487731
MLS Listing,,Condo/Co-op,2305 Worthington St #338,Dallas,TX,75204,305000,1,1.0,Belvedere Condos,1056,72527,1999,1,289,479,Active,,,http://www.redfin.com/TX/Dallas/2305-Worthington-St-75204/unit-338/home/32218107,NTREIS,14053081,N,Y,32.7957775,-96.7982216
MLS Listing,,Single Family Residential,9643 Millridge Dr,Dallas,TX,75243,349900,3,2.5,Forest Meadows,2338,9496,1970,1,150,,Active,,,http://www.redfin.com/TX/Dallas/9643-Millridge-Dr-75243/home/31070463,NTREIS,14051538,N,Y,32.9043974,-96.7291832
MLS Listing,,Vacant Land,1908 Lucille St,Dallas,TX,75204,309000,0,,Mayo's,,6250,,1,,,Active,,,http://www.redfin.com/TX/Dallas/1908-Lucille-St-75204/home/160885177,NTREIS,14052623,N,Y,32.8012,-96.786382
MLS Listing,,Single Family Residential,,Dallas,TX,75238,339000,3,2.0,Lake Highlands Estates,1698,8015,1958,1,200,,Active,,,http://www.redfin.com/TX/Dallas/Undisclosed-address-75238/home/31030642,NTREIS,14054161,N,Y,32.8785757,-96.7071556
MLS Listing,,Single Family Residential,2713 Lakewood Dr,Rowlett,TX,75088,319900,3,2.5,Lakewood Estate,2414,12763,1977,1,133,,Active,March-31-2019 01:00 PM,March-31-2019 03:00 PM,http://www.redfin.com/TX/Rowlett/2713-Lakewood-Dr-75088/home/33914757,NTREIS,14053949,N,Y,32.8877164,-96.5176212
MLS Listing,,Single Family Residential,13421 Buckthorne Cir,Dallas,TX,75243,325000,3,2.5,Cimmaron Ridge 01,2369,12066,1979,1,137,,Active,,,http://www.redfin.com/TX/Dallas/13421-Buckthorne-Cir-75243/home/31100896,NTREIS,14051774,N,Y,32.9309078,-96.7064452
MLS Listing,,Single Family Residential,1714 Kiltartan Dr,Dallas,TX,75228,319000,3,2.0,Lake Park Estates 6,1776,9148,1957,1,180,,Active,,,http://www.redfin.com/TX/Dallas/1714-Kiltartan-Dr-75228/home/31013161,NTREIS,14053915,N,Y,32.8240127,-96.6850937
MLS Listing,,Single Family Residential,6545 Victoria Ave,Dallas,TX,75209,325000,2,2.0,Webster & Woods North Park,996,6098,1932,2,326,,Active,,,http://www.redfin.com/TX/Dallas/6545-Victoria-Ave-75209/home/30817594,NTREIS,14053765,N,Y,32.8381522,-96.831457
MLS Listing,,Single Family Residential,18616 Featherwood Dr,Dallas,TX,75252,345000,3,2.5,Preston Highlands,2139,7841,1981,2,161,15,Active,,,http://www.redfin.com/TX/Dallas/18616-Featherwood-Dr-75252/home/32164991,NTREIS,14044700,N,Y,33.0049045,-96.7897457
MLS Listing,,Single Family Residential,2134 Springhill Dr,Dallas,TX,75228,308200,3,1.5,Westglen Park Add Un 01,1438,8538,1955,2,214,,Active,,,http://www.redfin.com/TX/Dallas/2134-Springhill-Dr-75228/home/30999322,NTREIS,14053695,N,Y,32.8144176,-96.7037288
MLS Listing,,Single Family Residential,16702 Lauder Ln,Dallas,TX,75248,335000,2,2.0,Highland North Villas,1622,5097,1985,2,207,,Active,March-31-2019 02:00 PM,March-31-2019 04:00 PM,http://www.redfin.com/TX/Dallas/16702-Lauder-Ln-75248/home/31153838,NTREIS,14053382,N,Y,32.9840811,-96.772027
MLS Listing,,Single Family Residential,10651 Larchfield Ln,Dallas,TX,75238,349900,3,2.0,Lake Highlands Estates,1292,7449,1959,2,271,,Active,,,http://www.redfin.com/TX/Dallas/10651-Larchfield-Ln-75238/home/31030712,NTREIS,14052116,N,Y,32.8769873,-96.7014495
MLS Listing,,Condo/Co-op,3201 Cedarplaza Ln #703,Dallas,TX,75235,315000,3,3.5,Plaza at Cedar Springs,1771,56933,2008,2,178,375,Active,March-30-2019 01:00 PM,March-30-2019 03:00 PM,http://www.redfin.com/TX/Dallas/3201-Cedar-Plaza-Ln-75235/unit-703/home/30776957,NTREIS,14053241,N,Y,32.8231551,-96.8252679
MLS Listing,,Single Family Residential,2841 W 12th St,Dallas,TX,75211,300000,3,2.0,Ravinia Heights,1578,7231,1926,2,190,,Active,March-30-2019 02:00 PM,March-30-2019 04:00 PM,http://www.redfin.com/TX/Dallas/2841-W-12th-St-75211/home/30838751,NTREIS,14048070,N,Y,32.7414907,-96.8672458
MLS Listing,,Single Family Residential,11328 Flamingo Ln,Dallas,TX,75218,324950,3,2.0,Lochwood,1325,8581,1955,2,245,,Active,,,http://www.redfin.com/TX/Dallas/11328-Flamingo-Ln-75218/home/30863742,NTREIS,14053189,N,Y,32.8539063,-96.684676
MLS Listing,,Vacant Land,3817 Lively Ln,Dallas,TX,75220,320000,0,,Glenridge Estates,,7013,1951,2,,,Active,,,http://www.redfin.com/TX/Dallas/3817-Lively-Ln-75220/home/30910853,NTREIS,14053167,N,Y,32.8744075,-96.8510378
MLS Listing,,Condo/Co-op,6328 Bandera Ave Unit C,Dallas,TX,75225,335000,2,2.0,Royal Arms Condos,1908,90387,1960,2,176,714,Active,,,http://www.redfin.com/TX/Dallas/6328-Bandera-Ave-75225/unit-C/home/30873634,NTREIS,14050549,N,Y,32.8671743,-96.7970531
MLS Listing,,Single Family Residential,1006 Cardinal Ln,Richardson,TX,75080,309900,3,2.0,Richardson Heights 09 2nd Sec,1458,8494,1962,2,213,,Active,,,http://www.redfin.com/TX/Richardson/1006-Cardinal-Ln-75080/home/31960604,NTREIS,14051828,N,Y,32.96143,-96.7652713
MLS Listing,,Single Family Residential,4134 Midrose Trl,Dallas,TX,75287,305000,3,2.0,Midway Crossing Add,1747,6360,1998,2,175,28,Active,March-30-2019 03:00 PM,March-30-2019 05:00 PM,http://www.redfin.com/TX/Dallas/4134-Midrose-Trl-75287/home/32153773,NTREIS,14048637,N,Y,33.0106474,-96.8405021
MLS Listing,,Single Family Residential,3531 Flair Dr,Dallas,TX,75229,325000,4,3.0,Park Forest 01 Inst,2445,11413,1958,2,133,,Active,,,http://www.redfin.com/TX/Dallas/3531-Flair-Dr-75229/home/30932140,NTREIS,14046659,N,Y,32.9034177,-96.8593283
MLS Listing,,Single Family Residential,9045 Flicker Ln,Dallas,TX,75238,325000,3,2.0,Lakeland Hills 02,1610,12545,1970,2,202,,Active,,,http://www.redfin.com/TX/Dallas/9045-Flicker-Ln-75238/home/31023760,NTREIS,14048218,N,Y,32.8731047,-96.6897729
MLS Listing,,Single Family Residential,8914 Diceman Dr,Dallas,TX,75218,340000,3,2.0,Lakeland Terrace,1441,7710,1940,2,236,,Active,,,http://www.redfin.com/TX/Dallas/8914-Diceman-Dr-75218/home/30859760,NTREIS,14051128,N,Y,32.8219483,-96.7056511
MLS Listing,,Single Family Residential,1009 CRISTLER Ave,Dallas,TX,75223,349000,2,2.0,MOUNT AUBURN,1856,,1947,2,188,,Active,March-30-2019 01:00 AM,March-30-2019 04:00 PM,http://www.redfin.com/TX/Dallas/1009-Cristler-Ave-75223/home/30801364,NTREIS,14050655,N,Y,32.7996866,-96.7435659
MLS Listing,,Condo/Co-op,17725 Windflower Way,Dallas,TX,75252,339900,3,2.5,Preston Village #4,2155,,1985,2,158,383,Active,,,http://www.redfin.com/TX/Dallas/17725-Windflower-Way-75252/unit-107/home/32040615,NTREIS,14050665,N,Y,32.9943527,-96.8026205
MLS Listing,,Single Family Residential,304 N Cottonwood Dr,Richardson,TX,75080,309000,3,2.0,Richardson Heights 10 Sec 01,1765,8102,1959,3,175,,Active,March-30-2019 02:00 PM,March-30-2019 04:00 PM,http://www.redfin.com/TX/Richardson/304-N-Cottonwood-Dr-75080/home/31962063,NTREIS,14051896,N,Y,32.9544812,-96.7657732
MLS Listing,,Single Family Residential,9131 Sweetwater Dr,Dallas,TX,75228,305000,3,2.0,Central Park East,2082,8451,1982,3,146,,Active,March-30-2019 02:00 PM,March-30-2019 04:00 PM,http://www.redfin.com/TX/Dallas/9131-Sweetwater-Dr-75228/home/31149641,NTREIS,14050578,N,Y,32.8108031,-96.6917366
MLS Listing,,Single Family Residential,7623 Kaywood Dr,Dallas,TX,75209,329900,2,1.0,University Blvd Terrace,1038,8146,1942,3,318,,Active,,,http://www.redfin.com/TX/Dallas/7623-Kaywood-Dr-75209/home/30851503,NTREIS,14052416,N,Y,32.8491103,-96.826328
MLS Listing,,Single Family Residential,1809 Highlander Dr,Rowlett,TX,75088,325000,5,3.0,Harbor Pointe Estates,3052,9932,1998,3,106,33,Active,,,http://www.redfin.com/TX/Rowlett/1809-Highlander-Dr-75088/home/31997925,NTREIS,14042361,N,Y,32.8918588,-96.585471
MLS Listing,,Condo/Co-op,4040 N Hall St #312,Dallas,TX,75219,300000,2,2.0,Haven Condos,1281,37549,2006,3,234,223,Active,,,http://www.redfin.com/TX/Dallas/4040-N-Hall-St-75219/unit-312/home/30783012,NTREIS,14051175,N,Y,32.8125031,-96.8103013
MLS Listing,,Townhouse,6121 Oram St Unit C,Dallas,TX,75214,339900,2,2.5,Lakewood Twnhms,1227,10411,2005,4,277,250,Active,,,http://www.redfin.com/TX/Dallas/6121-Oram-St-75214/unit-C/home/30775707,NTREIS,14049364,N,Y,32.8141202,-96.7606703
MLS Listing,,Single Family Residential,2536 Whitewood Dr,Dallas,TX,75233,350000,3,2.0,Kiestwood Estates,2003,10890,1956,4,175,1,Active,,,http://www.redfin.com/TX/Dallas/2536-Whitewood-Dr-75233/home/30901025,NTREIS,14051323,N,Y,32.7027037,-96.8615478
MLS Listing,,Single Family Residential,4455 Voss Hills Pl,Dallas,TX,75287,320900,3,2.0,Rosemeade Place,1978,4792,1991,4,162,,Active,,,http://www.redfin.com/TX/Dallas/4455-Voss-Hills-Pl-75287/home/32076945,NTREIS,14047367,N,Y,33.0103615,-96.8329644
MLS Listing,,Single Family Residential,4313 Sea View Dr,Garland,TX,75043,349000,5,4.0,Shores Of Eastern Hills 04,3450,10716,2004,5,101,120,Active,,,http://www.redfin.com/TX/Garland/4313-Sea-View-Dr-75043/home/30733790,NTREIS,14050946,N,Y,32.8700896,-96.5879112
MLS Listing,,Condo/Co-op,5609 SMU Blvd #207,Dallas,TX,75206,325000,2,2.0,Shelby Residences,1025,28793,2008,5,317,298,Active,,,http://www.redfin.com/TX/Dallas/5609-SMU-Blvd-75206/unit-207/home/110137475,NTREIS,14050333,N,Y,32.842467,-96.7722361
MLS Listing,,Single Family Residential,3168 Jubilee Trl,Dallas,TX,75229,349000,3,2.0,Kenilworth Estates,1704,13416,1962,5,205,,Active,,,http://www.redfin.com/TX/Dallas/3168-Jubilee-Trl-75229/home/30931545,NTREIS,14045455,N,Y,32.8995126,-96.8691356
MLS Listing,,Single Family Residential,724 W 7th St,Dallas,TX,75208,300000,3,2.0,Bryan George J Rev,1666,5750,1930,5,180,,Active,,,http://www.redfin.com/TX/Dallas/724-W-7th-St-75208/home/30827527,NTREIS,14049859,N,Y,32.7487365,-96.835086
MLS Listing,,Single Family Residential,6026 Jereme Trl,Dallas,TX,75252,343900,3,3.5,Stellar Court,1828,,1992,5,188,94,Active,March-31-2019 01:00 PM,March-31-2019 03:00 PM,http://www.redfin.com/TX/Dallas/6026-Jereme-Trl-75252/home/32071285,NTREIS,14030847,N,Y,33.0026562,-96.8020909
MLS Listing,,Single Family Residential,3385 Northaven Rd,Dallas,TX,75229,350000,4,3.5,Kenilworth Estates,2264,15377,1961,5,155,,Active,,,http://www.redfin.com/TX/Dallas/3385-Northaven-Rd-75229/home/30931626,NTREIS,14049946,N,Y,32.9020669,-96.8639782
MLS Listing,,Condo/Co-op,2305 Worthington St #308,Dallas,TX,75204,331000,2,2.0,Belvedere Condos,1295,72527,1999,6,256,568,Active,,,http://www.redfin.com/TX/Dallas/2305-Worthington-St-75204/unit-308/home/32218131,NTREIS,14050057,N,Y,32.7957775,-96.7982216
MLS Listing,,Single Family Residential,8259 Claremont Dr,Dallas,TX,75228,314900,3,2.0,Claremont 02 Inst,1818,8320,1957,7,173,,Active,March-31-2019 02:00 PM,March-31-2019 04:00 PM,http://www.redfin.com/TX/Dallas/8259-Claremont-Dr-75228/home/30967349,NTREIS,14046931,N,Y,32.8036722,-96.7102064
MLS Listing,,Condo/Co-op,1500 Pecos St #4,Dallas,TX,75204,350000,3,2.5,Georgetown Court Twnhms Condos,1637,21911,2000,7,214,318,Active,,,http://www.redfin.com/TX/Dallas/1500-Pecos-St-75204/unit-4/home/108483712,NTREIS,14049396,N,Y,32.7959763,-96.7844421
MLS Listing,,Single Family Residential,3147 Hedgerow Dr,Dallas,TX,75235,325000,3,2.0,Cherrywood 03,1256,9191,1948,8,259,,Active,,,http://www.redfin.com/TX/Dallas/3147-Hedgerow-Dr-75235/home/30814339,NTREIS,14049246,N,Y,32.8253225,-96.8274584
MLS Listing,,Single Family Residential,1323 Cloverdale Dr,Richardson,TX,75080,319000,3,2.0,Richardson Heights 9 2nd Sec,1426,7971,1959,8,224,,Active,,,http://www.redfin.com/TX/Richardson/1323-Cloverdale-Dr-75080/home/31960516,NTREIS,14044402,N,Y,32.9588378,-96.764602
MLS Listing,,Single Family Residential,2355 Oldbridge Dr,Dallas,TX,75228,335000,3,2.0,Claremont Park 01,1817,11674,1960,8,184,,Active,,,http://www.redfin.com/TX/Dallas/2355-Oldbridge-Dr-75228/home/30969229,NTREIS,14048646,N,Y,32.8086017,-96.7029557
MLS Listing,,Single Family Residential,302 E 6th St,Dallas,TX,75203,349900,6,3.0,Steinmans,2260,7362,1945,8,155,,Active,,,http://www.redfin.com/TX/Dallas/302-E-6th-St-75203/home/30826543,NTREIS,14048155,N,Y,32.7535696,-96.820069
MLS Listing,,Single Family Residential,668 Danielle Ct,Rockwall,TX,75087,319000,3,2.0,Turtle Cove Ph 3,2054,6098,2003,8,155,92,Active,,,http://www.redfin.com/TX/Rockwall/668-Danielle-Ct-75087/home/33939734,NTREIS,14044979,N,Y,32.9035319,-96.4705962
MLS Listing,,Condo/Co-op,5138 Westgrove Dr,Dallas,TX,75248,347500,2,2.5,Lakes Bent Tree Condo,1918,417784,1982,9,181,591,Active,March-30-2019 01:00 AM,March-30-2019 03:00 PM,http://www.redfin.com/TX/Dallas/5138-Westgrove-Dr-75248/unit-5138/home/31174211,NTREIS,14047482,N,Y,32.9766223,-96.8216063
MLS Listing,,Single Family Residential,2522 W Jefferson Blvd,Dallas,TX,75211,349000,3,2.0,Kessler Plaza,1425,7100,1939,9,245,,Active,,,http://www.redfin.com/TX/Dallas/2522-W-Jefferson-Blvd-75211/home/30847382,NTREIS,14046769,N,Y,32.7476333,-96.8598027
MLS Listing,,Townhouse,5027 Parkview,Addison,TX,75001,319000,2,2.5,Townhomes Of District A Ph 01-11,1800,262623,2006,9,177,293,Active,,,http://www.redfin.com/TX/Addison/5027-Parkview-Pl-75001/unit-127/home/30780866,NTREIS,14042578,N,Y,32.964054,-96.824694
MLS Listing,,Single Family Residential,3130 Saint Croix Dr,Dallas,TX,75229,315000,3,2.0,Coral Hills,1522,10585,1960,9,207,,Active,,,http://www.redfin.com/TX/Dallas/3130-St-Croix-Dr-75229/home/30932269,NTREIS,14047484,N,Y,32.9046567,-96.8710948
MLS Listing,,Single Family Residential,3712 Granbury Dr,Dallas,TX,75287,313750,3,2.0,Villas of Midway Ph Two,1835,4922,1999,9,171,100,Active,,,http://www.redfin.com/TX/Dallas/3712-Granbury-Dr-75287/home/33058194,NTREIS,14033393,N,Y,33.0012402,-96.8504065
MLS Listing,,Single Family Residential,15736 Golden Creek Rd,Dallas,TX,75248,349900,3,3.0,Prestonwood,2768,9278,1980,9,126,,Active,,,http://www.redfin.com/TX/Dallas/15736-Golden-Creek-Rd-75248/home/31108067,NTREIS,14041314,N,Y,32.9620238,-96.7979058
MLS Listing,,Condo/Co-op,4319 Bowser Ave #101,Dallas,TX,75219,330000,2,2.0,Brownstones On Bowser Condos,1400,15987,2006,9,236,355,Active,,,http://www.redfin.com/TX/Dallas/4319-Bowser-Ave-75219/unit-101/home/30782748,NTREIS,14045371,N,Y,32.8177123,-96.8106857
MLS Listing,,Condo/Co-op,5903 Lindell Ave Unit E,Dallas,TX,75206,349000,2,2.5,LINDELL AVENUE CONDOMINIUMS,1345,8712,2014,10,259,200,Active,,,http://www.redfin.com/TX/Dallas/5903-Lindell-Ave-75206/unit-E/home/102152417,NTREIS,14043722,N,Y,32.8091446,-96.7666935
MLS Listing,,Single Family Residential,5107 Menefee Dr,Dallas,TX,75227,322800,3,2.0,Buckner Terrace Add 01 Instl 04sec,2165,8625,1967,10,149,,Active,March-30-2019 01:00 PM,March-30-2019 04:00 PM,http://www.redfin.com/TX/Dallas/5107-Menefee-Dr-75227/home/30907493,NTREIS,14047418,N,Y,32.7886425,-96.7106244
MLS Listing,,Condo/Co-op,3818 Holland Ave #107,Dallas,TX,75219,320000,2,2.0,Vallera Condo,1349,24002,2005,10,237,395,Active,,,http://www.redfin.com/TX/Dallas/3818-Holland-Ave-75219/unit-107/home/30776619,NTREIS,14046954,N,Y,32.8137214,-96.8037699
MLS Listing,,Condo/Co-op,2711 Hood St Unit C,Dallas,TX,75219,325000,2,1.0,Hood Street Twnhs Condo,1060,,1961,10,307,314,Active,March-31-2019 02:00 PM,March-31-2019 04:00 PM,http://www.redfin.com/TX/Dallas/2711-Hood-St-75219/unit-C/home/30794670,NTREIS,14043287,N,Y,32.8051298,-96.8100015
MLS Listing,,Condo/Co-op,2403 Stutz Dr #5,Dallas,TX,75235,330000,2,2.5,Stutz Road Condos,1571,17511,2006,10,210,309,Active,,,http://www.redfin.com/TX/Dallas/2403-Stutz-Dr-75235/unit-5/home/30780897,NTREIS,14040915,N,Y,32.8222934,-96.8395596
MLS Listing,,Condo/Co-op,15615 Preston Rd #1001,Dallas,TX,75248,308000,2,2.5,Preston Del Norte Villas,2512,265106,1974,11,123,729,Active,,,http://www.redfin.com/TX/Dallas/15615-Preston-Rd-75248/unit-1001/home/31088131,NTREIS,14046784,N,Y,32.9611467,-96.8046857
MLS Listing,,Vacant Land,5411 S R L Thornton,Dallas,TX,75232,350000,0,,,,279568,,11,,,Active,,,http://www.redfin.com/TX/Dallas/5411-S-R-L-Thornton-Fwy-75232/home/160707429,NTREIS,14020804,N,Y,32.679929,-96.826161
MLS Listing,,Single Family Residential,8846 Sweetwater Dr,Dallas,TX,75228,315000,3,2.0,Eastwood 03,1659,9191,1962,11,190,,Active,,,http://www.redfin.com/TX/Dallas/8846-Sweetwater-Dr-75228/home/31012481,NTREIS,14046584,N,Y,32.8095044,-96.6963326
MLS Listing,,Single Family Residential,7119 Duffield Dr,Dallas,TX,75248,350000,4,3.0,Preston Green North,2088,8276,1978,11,168,,Active,,,http://www.redfin.com/TX/Dallas/7119-Duffield-Dr-75248/home/31890576,NTREIS,14040708,N,Y,32.9872888,-96.7883648
MLS Listing,,Single Family Residential,9747 Windham Dr,Dallas,TX,75243,329000,3,2.5,Second Sec Jackson Mdws,2620,8930,1979,11,126,,Active,,,http://www.redfin.com/TX/Dallas/9747-Windham-Dr-75243/home/31101153,NTREIS,14046403,N,Y,32.9192069,-96.719088
MLS Listing,,Single Family Residential,9451 Arborhill Dr,Dallas,TX,75243,325000,4,2.5,Forest Meadows,2400,15638,1970,11,135,,Active,,,http://www.redfin.com/TX/Dallas/9451-Arborhill-Dr-75243/home/31070505,NTREIS,14044126,N,Y,32.9070154,-96.7306255
MLS Listing,,Single Family Residential,3766 Manana Dr,Dallas,TX,75220,339900,3,1.5,Marsh Lane,1492,10324,1950,11,228,,Active,,,http://www.redfin.com/TX/Dallas/3766-Manana-Dr-75220/home/30912457,NTREIS,14046013,N,Y,32.8737235,-96.8532893
MLS Listing,,Condo/Co-op,4830 Cedar Springs Rd #44,Dallas,TX,75219,322500,2,2.5,Carrerras Townhomes Condominiums,1561,84681,2004,12,207,290,Active,,,http://www.redfin.com/TX/Dallas/4830-Cedar-Springs-Rd-75219/unit-44/home/28854241,NTREIS,14042807,N,Y,32.8196373,-96.8211696
MLS Listing,,Single Family Residential,6903 E Mockingbird Ln,Dallas,TX,75214,350000,2,2.0,Mockingbird Hill Add,1837,7492,1960,12,191,,Active,,,http://www.redfin.com/TX/Dallas/6903-E-Mockingbird-Ln-75214/home/30823453,NTREIS,14035752,N,Y,32.8427809,-96.7416424
MLS Listing,,Single Family Residential,1628 Neal St,Dallas,TX,75208,325000,3,2.0,Commerce Heights,1102,6055,1935,13,295,,Active,,,http://www.redfin.com/TX/Dallas/1628-Neal-St-75208/home/30838981,NTREIS,14044889,N,Y,32.7665078,-96.8455901
MLS Listing,,Single Family Residential,3111 Flowerdale Ln,Dallas,TX,75229,345000,3,2.0,Walnut Hills 3rd Inst,1709,15507,1977,13,202,,Active,,,http://www.redfin.com/TX/Dallas/3111-Flowerdale-Ln-75229/home/30933529,NTREIS,14030406,N,Y,32.894368,-96.8753788
MLS Listing,,Single Family Residential,8711 San Fernando Way,Dallas,TX,75218,315000,2,1.0,Shamrock Shores,1064,6970,1940,15,296,,Active,March-31-2019 03:00 PM,March-31-2019 05:00 PM,http://www.redfin.com/TX/Dallas/8711-San-Fernando-Way-75218/home/30860539,NTREIS,14035632,N,Y,32.8236246,-96.7112095
MLS Listing,,Single Family Residential,6235 Gray Wolf Trl,Dallas,TX,75252,315000,4,2.5,Bent Trail Add Ph Four,2365,4356,1993,15,133,31,Active,,,http://www.redfin.com/TX/Dallas/6235-Gray-Wolf-Trl-75252/home/32040799,NTREIS,14043268,N,Y,33.0033147,-96.7972362
MLS Listing,,Single Family Residential,1606 Cascade Ave,Dallas,TX,75224,329000,2,2.0,Elmwood,1468,6839,1923,15,224,,Active,March-31-2019 03:00 PM,March-31-2019 05:00 PM,http://www.redfin.com/TX/Dallas/1606-Cascade-Ave-75224/home/30843181,NTREIS,14044026,N,Y,32.7293169,-96.8428156
MLS Listing,,Condo/Co-op,2902 State St #14,Dallas,TX,75204,350000,2,2.5,Carriage House Condo,1221,29969,1994,15,287,250,Active,March-30-2019 01:00 PM,March-30-2019 03:00 PM,http://www.redfin.com/TX/Dallas/2902-State-St-75204/unit-14/home/32218314,NTREIS,14042151,N,Y,32.7971998,-96.7978471
MLS Listing,,Townhouse,7416 Coronado Ave #17,Dallas,TX,75214,315000,2,2.0,Coronado Townhome,1835,1263,2005,15,172,116,Active,,,http://www.redfin.com/TX/Dallas/7416-Coronado-Ave-75214/unit-17/home/30763263,NTREIS,14040820,N,Y,32.8079961,-96.7314048
MLS Listing,,Condo/Co-op,3935 Buena Vista St Unit F,Dallas,TX,75204,315000,2,1.5,Bristle Cone Twnhse Condo,1053,95222,1980,15,299,335,Active,,,http://www.redfin.com/TX/Dallas/3935-Buena-Vista-St-75204/unit-F/home/30799024,NTREIS,14040934,N,Y,32.8125996,-96.7973798
MLS Listing,,Single Family Residential,2305 Castle Rock Rd,Carrollton,TX,75007,329900,4,2.0,Highlands Of Carrollton Sec 1,2385,8407,1979,15,138,,Active,April-7-2019 03:00 PM,April-7-2019 05:00 PM,http://www.redfin.com/TX/Carrollton/2305-Castle-Rock-Rd-75007/home/32956555,NTREIS,14042464,N,Y,33.0133844,-96.865235
MLS Listing,,Single Family Residential,1717 Hardy Rd,Grand Prairie,TX,75051,305500,4,3.5,Lake Crest Add Un 02,2187,9365,1988,15,140,,Active,March-31-2019 01:00 PM,March-31-2019 03:00 PM,http://www.redfin.com/TX/Grand-Prairie/1717-Hardy-Rd-75051/home/31567199,NTREIS,14043013,N,Y,32.722188,-96.977634
MLS Listing,,Condo/Co-op,2220 Canton St #103,Dallas,TX,75201,325000,1,1.0,Canton Loft 2220,1446,41774,1925,15,225,613,Active,March-31-2019 12:00 AM,March-31-2019 02:00 PM,http://www.redfin.com/TX/Dallas/2220-Canton-St-75201/unit-103/home/31170734,NTREIS,14043664,N,Y,32.7803008,-96.7894358
MLS Listing,,Single Family Residential,1521 Nokomis Ave,Dallas,TX,75224,315000,4,2.0,Oak Park Estates,2675,9932,1967,15,118,,Active,,,http://www.redfin.com/TX/Dallas/1521-Nokomis-Ave-75224/home/30899670,NTREIS,14043640,N,Y,32.7038504,-96.8458414
MLS Listing,,Single Family Residential,7929 Claremont Dr,Dallas,TX,75228,310000,3,2.0,Claremont 06 Inst,1827,15551,1960,16,170,,Active,,,http://www.redfin.com/TX/Dallas/7929-Claremont-Dr-75228/home/30967173,NTREIS,14041845,N,Y,32.7981022,-96.7117946
MLS Listing,,Single Family Residential,4725 Forrest Springs Cv,Garland,TX,75043,312000,5,3.5,Highport Estates,3157,7405,2004,16,99,28,Active,March-31-2019 01:00 PM,March-31-2019 04:00 PM,http://www.redfin.com/TX/Garland/4725-Forrest-Springs-Cv-75043/home/30734017,NTREIS,14041917,N,Y,32.8595638,-96.5586768
MLS Listing,,Single Family Residential,9627 Millridge Dr,Dallas,TX,75243,334900,4,2.5,Forest Meadows,2343,9017,1971,16,143,,Active,,,http://www.redfin.com/TX/Dallas/9627-Millridge-Dr-75243/home/31070465,NTREIS,14034577,N,Y,32.9045963,-96.7295595
MLS Listing,,Condo/Co-op,2129 Lovedale Ave #104,Dallas,TX,75235,314900,2,2.5,Welch & Reynolds,1500,10629,2019,16,210,165,Active,March-31-2019 01:00 PM,March-31-2019 03:00 PM,http://www.redfin.com/TX/Dallas/2129-Lovedale-Ave-75235/unit-104/home/160685613,NTREIS,14043126,N,Y,32.8291299,-96.8556752
MLS Listing,,Single Family Residential,8911 Bretshire Dr,Dallas,TX,75228,350000,4,2.0,Eastwood 02,2052,11021,1961,16,171,,Active,,,http://www.redfin.com/TX/Dallas/8911-Bretshire-Dr-75228/home/31012718,NTREIS,14042552,N,Y,32.8107321,-96.6971683
MLS Listing,,Single Family Residential,2315 Ray Hubbard Way,Wylie,TX,75098,345880,3,2.5,Grayhawk Park,2517,9148,2019,17,137,38,Active,,,http://www.redfin.com/TX/Wylie/2315-Ray-Hubbard-Way-75098/home/160678182,NTREIS,14042512,N,Y,33.009401,-96.497083
MLS Listing,,Single Family Residential,1716 Lone Lynx Way,Wylie,TX,75098,315000,4,2.0,Bozman Farm Estates Ph 5a,2113,6011,2017,17,149,42,Active,,,http://www.redfin.com/TX/Wylie/1716-Lone-Lynx-Way-75098/home/144146352,NTREIS,14042421,N,Y,32.9926586,-96.5046748
MLS Listing,,Single Family Residential,1014 Mobile St,Dallas,TX,75208,349900,4,2.0,Robinson,6048,6055,1922,17,58,,Active,,,http://www.redfin.com/TX/Dallas/1014-Mobile-St-75208/home/30839261,NTREIS,14042247,N,Y,32.769696,-96.8386383
MLS Listing,,Single Family Residential,8534 Sweetwood Dr,Dallas,TX,75228,350000,3,2.0,Claremont Park 02,2090,8364,1961,17,167,,Active,March-30-2019 01:00 PM,March-30-2019 03:00 PM,http://www.redfin.com/TX/Dallas/8534-Sweetwood-Dr-75228/home/30969213,NTREIS,14039218,N,Y,32.8051948,-96.6973355
MLS Listing,,Condo/Co-op,3901 Travis St #126,Dallas,TX,75204,304900,2,1.5,Parks on Travis Condos,1282,54014,1985,17,238,363,Active,,,http://www.redfin.com/TX/Dallas/3901-Travis-St-75204/unit-126/home/30745725,NTREIS,14031771,N,Y,32.8111845,-96.7970239
MLS Listing,,Single Family Residential,11345 Mccree Rd,Dallas,TX,75238,332000,3,2.0,Highland Meadows 10,1949,13547,1973,17,170,,Active,March-30-2019 01:00 PM,March-30-2019 03:00 PM,http://www.redfin.com/TX/Dallas/11345-McCree-Rd-75238/home/31023695,NTREIS,14041931,N,Y,32.8717643,-96.6855585
MLS Listing,,Single Family Residential,6734 Webster St,Dallas,TX,75209,310000,2,1.0,Webster & Woods North Park,1008,6229,1926,18,308,,Active,,,http://www.redfin.com/TX/Dallas/6734-Webster-St-75209/home/30817137,NTREIS,14040104,N,Y,32.8407614,-96.8330726
MLS Listing,,Single Family Residential,13039 Fall Manor Dr,Dallas,TX,75243,329000,4,2.5,Richland Park Estates,2189,8756,1979,18,150,,Active,April-7-2019 01:00 PM,April-7-2019 03:00 PM,http://www.redfin.com/TX/Dallas/13039-Fall-Manor-Dr-75243/home/31101844,NTREIS,14040130,N,Y,32.9263171,-96.7135917
MLS Listing,,Single Family Residential,1823 Enchanted Cv,Wylie,TX,75098,335000,4,2.5,Watermark,2933,11413,2016,19,114,50,Active,,,http://www.redfin.com/TX/Wylie/1823-Enchanted-Cv-75098/home/33889014,NTREIS,14040883,N,Y,32.9729964,-96.5075177
MLS Listing,,Single Family Residential,9514 Heartstone Ln,Rowlett,TX,75087,316000,4,3.0,Cypress Cove,2754,14462,1994,19,115,,Active,,,http://www.redfin.com/TX/Rockwall/9514-Heartstone-Ln-75087/home/33929868,NTREIS,14040279,N,Y,32.9131614,-96.5085175
MLS Listing,,Townhouse,2022 N Fitzhugh Ave Unit C,Dallas,TX,75204,325000,2,2.5,Monarch Place,1400,5881,2006,19,232,175,Active,,,http://www.redfin.com/TX/Dallas/2022-N-Fitzhugh-Ave-75204/unit-C/home/30793459,NTREIS,14040136,N,Y,32.8094347,-96.7798473
MLS Listing,,Single Family Residential,1722 S Beckley Ave,Dallas,TX,75216,319900,4,4.0,Beckley Club,2368,7449,1925,21,135,,Active,,,http://www.redfin.com/TX/Dallas/1722-S-Beckley-Ave-75224/home/30833220,NTREIS,14039842,N,Y,32.7269415,-96.82256
MLS Listing,,Condo/Co-op,1500 Pecos St #17,Dallas,TX,75204,344500,3,2.5,Georgetown Court Twnhms Condos,1637,11935,2002,22,210,311,Active,,,http://www.redfin.com/TX/Dallas/1500-Pecos-St-75204/unit-17/home/108459479,NTREIS,14031047,N,Y,32.7959763,-96.7844421
MLS Listing,,Single Family Residential,2923 Green Meadow Dr,Dallas,TX,75228,340000,4,2.5,Eastwood 04,2300,9060,1962,22,148,,Active,,,http://www.redfin.com/TX/Dallas/2923-Green-Meadow-Dr-75228/home/31012485,NTREIS,14035670,N,Y,32.8098028,-96.6940346
MLS Listing,,Condo/Co-op,6238 Bandera Ave Unit 6238B,Dallas,TX,75225,325000,2,2.0,Fontainbleau,1425,68825,1958,22,228,613,Active,March-31-2019 02:00 PM,March-31-2019 04:00 PM,http://www.redfin.com/TX/Dallas/6238-Bandera-Ave-75225/unit-6238B/home/30873042,NTREIS,14038240,N,Y,32.867201,-96.7989367
MLS Listing,,Single Family Residential,3804 Hawick Ln,Dallas,TX,75220,324500,3,2.0,Berkshire,1138,10803,1950,22,285,,Active,,,http://www.redfin.com/TX/Dallas/3804-Hawick-Ln-75220/home/30856285,NTREIS,14036660,N,Y,32.8632315,-96.852752
MLS Listing,,Single Family Residential,3559 Misty Meadow Dr,Dallas,TX,75287,315000,4,2.0,Meadow Glen Ph 2b,2345,9583,1994,23,134,6,Active,,,http://www.redfin.com/TX/Dallas/3559-Misty-Meadow-Dr-75287/home/33096905,NTREIS,14035880,N,Y,32.994157,-96.8558097
MLS Listing,,Single Family Residential,3713 Bishop Hill Dr,Carrollton,TX,75007,319000,4,2.5,Highlands Of Carrollton Sec 3,2448,8756,1983,23,130,10,Active,,,http://www.redfin.com/TX/Carrollton/3713-Bishop-Hill-Dr-75007/home/32954887,NTREIS,14033721,N,Y,33.0135756,-96.8617579
MLS Listing,,Vacant Land,4719 W University Blvd,Dallas,TX,75209,335000,0,,Greenway Terrace,,8799,,23,,,Active,,,http://www.redfin.com/TX/Dallas/4719-W-University-Blvd-75209/home/30850606,NTREIS,14037510,N,Y,32.8451768,-96.8293007
MLS Listing,,Single Family Residential,5410 Victor St,Dallas,TX,75214,349000,3,2.0,Berthurm,1169,7405,1920,23,299,,Active,,,http://www.redfin.com/TX/Dallas/5410-Victor-St-75214/home/30798624,NTREIS,14021974,N,Y,32.801143,-96.760283
MLS Listing,,Single Family Residential,5319 Blaney Way,Dallas,TX,75227,329000,3,3.0,Buckner Terrace,2069,8625,1967,23,159,,Active,,,http://www.redfin.com/TX/Dallas/5319-Blaney-Way-75227/home/30907284,NTREIS,14037649,N,Y,32.7901758,-96.7090362
MLS Listing,,Multi-Family (2-4 Unit),1139 Kings Hwy,Dallas,TX,75208,319900,0,,Oak Cliff Annex,2208,7318,1916,25,145,,Active,,,http://www.redfin.com/TX/Dallas/1139-Kings-Hwy-75208/home/30830874,NTREIS,14035205,N,Y,32.7512489,-96.8405273
MLS Listing,,Vacant Land,4726 Belmont Ave,Dallas,TX,75204,320000,0,,Rick & Hurts North Fitzhugh Ave,,5401,1930,25,,,Active,,,http://www.redfin.com/TX/Dallas/4726-Belmont-Ave-75204/home/30809182,NTREIS,14036068,N,Y,32.8110823,-96.784191
MLS Listing,,Single Family Residential,3215 S Franklin St,Dallas,TX,75233,329900,3,2.0,Kiestwood Estates,1876,11413,1955,25,176,,Active,,,http://www.redfin.com/TX/Dallas/3215-S-Franklin-St-75233/home/30900652,NTREIS,14035915,N,Y,32.7043782,-96.8602918
MLS Listing,,Single Family Residential,2305 Stone Glen Ln,Carrollton,TX,75007,300000,3,2.0,Highlands Of Carrollton Sec 1,2003,8364,1983,26,150,,Active,March-30-2019 08:00 AM,March-30-2019 08:00 PM,http://www.redfin.com/TX/Carrollton/2305-Stone-Glen-Ln-75007/home/33073002,NTREIS,14034317,N,Y,33.0125066,-96.8652768
MLS Listing,,Condo/Co-op,1200 Main St #409,Dallas,TX,75202,349000,2,2.0,Metropolitan 1200 Main Street,1448,44997,1974,26,241,395,Active,March-31-2019 02:00 PM,March-31-2019 04:00 PM,http://www.redfin.com/TX/Dallas/1200-Main-St-75202/unit-409/home/30776166,NTREIS,14035249,N,Y,32.7800759,-96.8011658
MLS Listing,,Single Family Residential,5514 Challenger Ct,Rockwall,TX,75032,309900,3,2.5,Chandlers Landing #17,2122,6490,1999,26,146,127,Active,,,http://www.redfin.com/TX/Rockwall/5514-Challenger-Ct-75032/home/33901414,NTREIS,14026846,N,Y,32.8836605,-96.4808812
MLS Listing,,Single Family Residential,2616 Pine St,Dallas,TX,75215,300000,3,2.5,Exline Ellis,2741,6186,2019,28,109,,Active,,,http://www.redfin.com/TX/Dallas/2616-Pine-St-75215/home/30803464,NTREIS,14034398,N,Y,32.757689,-96.758625
MLS Listing,,Single Family Residential,8531 Eustis Ave,Dallas,TX,75218,349000,3,1.0,Forest Hills,1631,10019,1952,29,214,,Active,,,http://www.redfin.com/TX/Dallas/8531-Eustis-Ave-75218/home/30860741,NTREIS,14034114,N,Y,32.8148022,-96.7071974
MLS Listing,,Single Family Residential,3001 Faulkner Dr,Rowlett,TX,75088,329900,3,3.0,Toler Bay,3821,9801,1984,29,86,6,Active,,,http://www.redfin.com/TX/Rowlett/3001-Faulkner-Dr-75088/home/32025401,NTREIS,14033474,N,Y,32.8792829,-96.57446
MLS Listing,,Single Family Residential,3519 S Versailles Ave,Dallas,TX,75209,349900,2,1.0,Lafoy Place,1110,7275,1946,29,315,,Active,,,http://www.redfin.com/TX/Dallas/3519-S-Versailles-Ave-75209/home/30815779,NTREIS,14032448,N,Y,32.8282654,-96.8231566
MLS Listing,,Single Family Residential,9190 Orbiter Cir,Dallas,TX,75243,350000,3,2.5,Northwood Park Sec 02,2237,9540,1971,29,156,,Active,,,http://www.redfin.com/TX/Dallas/9190-Orbiter-Cir-75243/home/31027450,NTREIS,14032850,N,Y,32.9006442,-96.7613813
MLS Listing,,Condo/Co-op,3701 Turtle Creek Blvd Unit 12BF,Dallas,TX,75219,329000,2,2.0,Turtle Creek North Condo,1355,,1962,29,243,898,Active,,,http://www.redfin.com/TX/Dallas/3701-Turtle-Creek-Blvd-75219/unit-12BF/home/30795170,NTREIS,14026361,N,Y,32.8130104,-96.8018189
MLS Listing,,Single Family Residential,8505 Lockhaven Dr,Dallas,TX,75238,314900,3,2.0,Lake Highlands Estates 9,1426,12545,1954,30,221,,Active,,,http://www.redfin.com/TX/Dallas/8505-Lockhaven-Dr-75238/home/31005820,NTREIS,14020308,N,Y,32.8646748,-96.7079914
MLS Listing,,Condo/Co-op,6141 Bandera Ave Unit D,Dallas,TX,75225,319999,2,2.0,Park Sovereign Condominiums,1506,,1957,30,212,596,Active,,,http://www.redfin.com/TX/Dallas/6141-Bandera-Ave-75225/unit-D/home/160566305,NTREIS,14033186,N,Y,32.86756,-96.8016825
MLS Listing,,Single Family Residential,10530 Channel Dr,Dallas,TX,75229,317400,4,2.0,Walnut Hills 4th Inst,2024,8146,1955,30,157,,Active,,,http://www.redfin.com/TX/Dallas/10530-Channel-Dr-75229/home/30933975,NTREIS,14030060,N,Y,32.8906156,-96.8793941
MLS Listing,,Townhouse,12237 Montego Plz,Dallas,TX,75230,329900,2,2.0,Preston Square Twnhms,1952,3049,1975,30,169,200,Active,March-31-2019 02:00 PM,March-31-2019 04:00 PM,http://www.redfin.com/TX/Dallas/12237-Montego-Plz-75230/home/30962936,NTREIS,14032207,N,Y,32.9205091,-96.8136432
MLS Listing,,Single Family Residential,1636 Kiltartan Dr,Dallas,TX,75228,331000,3,2.0,Lake Park Estates 6,1581,10498,1957,30,209,,Active,,,http://www.redfin.com/TX/Dallas/1636-Kiltartan-Dr-75228/home/31013160,NTREIS,14030014,N,Y,32.8240001,-96.6857413
MLS Listing,,Townhouse,1955 Longmeadow Hill Dr,Irving,TX,75063,309900,3,2.5,Emerald Valley Ph 03,2065,2919,2010,30,150,180,Active,,,http://www.redfin.com/TX/Irving/1955-Longmeadow-Hill-Dr-75063/home/30768634,NTREIS,14031181,N,Y,32.9248637,-96.9692703
MLS Listing,,Single Family Residential,6211 Cupertino Trl,Dallas,TX,75252,350000,3,2.5,Bent Trail Add Ph Four,2284,4356,1992,30,153,42,Active,,,http://www.redfin.com/TX/Dallas/6211-Cupertino-Trl-75252/home/32040820,NTREIS,14031853,N,Y,33.0044121,-96.7979895
MLS Listing,,Single Family Residential,6321 San Marino Dr,Rowlett,TX,75089,324990,4,3.5,Mariners Cove Ph 01,4012,11892,2003,31,81,35,Active,,,http://www.redfin.com/TX/Rowlett/6321-San-Marino-Dr-75089/home/32235811,NTREIS,14032182,N,Y,32.9202561,-96.5485459
MLS Listing,,Single Family Residential,3407 Gibsondell Ave,Dallas,TX,75211,334900,3,2.5,Irwindell,1879,7492,2016,32,178,,Active,March-31-2019 02:00 PM,March-31-2019 04:00 PM,http://www.redfin.com/TX/Dallas/3407-Gibsondell-Ave-75211/home/30846911,NTREIS,14031129,N,Y,32.738141,-96.876361
MLS Listing,,Townhouse,1938 Loma Alta Dr,Irving,TX,75063,304999,3,2.5,Emerald Valley Ph 03,2065,2352,2010,33,148,180,Active,,,http://www.redfin.com/TX/Irving/1938-Loma-Alta-Dr-75063/home/30768568,NTREIS,14029775,N,Y,32.9243729,-96.9689044
MLS Listing,,Condo/Co-op,3225 Turtle Creek Blvd #2007,Dallas,TX,75219,325000,2,2.0,Renaissance On Turtle Creek Condo,1162,154028,1998,33,280,671,Active,,,http://www.redfin.com/TX/Dallas/3225-Turtle-Creek-Blvd-75219/unit-2007/home/30732008,NTREIS,14028151,N,Y,32.8066148,-96.8038366
MLS Listing,,Single Family Residential,5506 Banting Way,Dallas,TX,75227,329000,3,2.5,Buckner Terrace,2162,8407,1967,33,152,,Active,,,http://www.redfin.com/TX/Dallas/5506-Banting-Way-75227/home/30907271,NTREIS,14028523,N,Y,32.7911774,-96.7059019
MLS Listing,,Condo/Co-op,3929 Buena Vista St Unit A,Dallas,TX,75204,311900,2,1.5,Bristle Cone Twnhs Condos,999,95222,1980,35,312,316,Active,,,http://www.redfin.com/TX/Dallas/3929-Buena-Vista-St-75204/unit-A/home/30799027,NTREIS,14028717,N,Y,32.8124566,-96.7974212
MLS Listing,,Condo/Co-op,15826 Quorum Dr #105,Addison,TX,75001,311805,2,2.5,Townhomes Of District A Ph 01-11,1845,262623,2007,36,169,281,Active,,,http://www.redfin.com/TX/Addison/15826-Quorum-Dr-75001/unit-105/home/147392964,NTREIS,14028552,N,Y,32.9645704,-96.8256153
MLS Listing,,Single Family Residential,1934 Angelina Dr,Dallas,TX,75212,325000,4,2.5,Roosevelt Manor 1st Inst,2000,7057,2019,36,163,,Active,,,http://www.redfin.com/TX/Dallas/1934-Angelina-Dr-75212/home/30976554,NTREIS,14028994,N,Y,32.790144,-96.851792
MLS Listing,,Single Family Residential,2607 Burlington Blvd,Dallas,TX,75211,315000,4,2.0,Crawford Park,2106,6970,1947,36,150,,Active,,,http://www.redfin.com/TX/Dallas/2607-Burlington-Blvd-75211/home/30838019,NTREIS,14028833,N,Y,32.7377181,-96.8615904
MLS Listing,,Single Family Residential,2434 El Cerrito Dr,Dallas,TX,75228,349500,3,2.0,Claremont 01 Inst,2045,13547,1962,37,171,,Active,,,http://www.redfin.com/TX/Dallas/2434-El-Cerrito-Dr-75228/home/30967102,NTREIS,14028145,N,Y,32.7998292,-96.7074064
MLS Listing,,Single Family Residential,11246 Lanewood Cir,Dallas,TX,75218,339000,3,2.0,Lochwood 04,1741,8189,1957,38,195,,Active,March-31-2019 02:00 PM,March-31-2019 04:00 PM,http://www.redfin.com/TX/Dallas/11246-Lanewood-Cir-75218/home/30863843,NTREIS,14007659,N,Y,32.8564714,-96.6875586
MLS Listing,,Single Family Residential,624 N Madison Ave,Dallas,TX,75208,349000,3,2.0,Miller & Stemmons,1262,7492,1916,38,277,,Active,,,http://www.redfin.com/TX/Dallas/624-N-Madison-Ave-75208/home/30828075,NTREIS,14027111,N,Y,32.7504005,-96.8262874
MLS Listing,,Townhouse,9463 Timberleaf Dr,Dallas,TX,75243,325000,3,2.5,Amerada Apts 02 Add Rep,1881,3572,2019,39,173,140,Active,April-7-2019 02:00 PM,April-7-2019 04:00 PM,http://www.redfin.com/TX/Dallas/9463-Timberleaf-Dr-75243/home/31071313,NTREIS,14026034,N,Y,32.9068078,-96.7340746
MLS Listing,,Single Family Residential,1925 Province Ln,Dallas,TX,75228,304900,3,2.0,Ferguson Heights Add 03 Rev,1644,9235,1957,39,185,,Active,,,http://www.redfin.com/TX/Dallas/1925-Province-Ln-75228/home/31014512,NTREIS,14026346,N,Y,32.8250105,-96.6828378
MLS Listing,,Single Family Residential,9217 Barton Creek Dr,Rowlett,TX,75089,329900,4,2.5,Graham Estates-Replat,2918,7492,1992,40,113,,Active,,,http://www.redfin.com/TX/Rowlett/9217-Barton-Creek-Dr-75089/home/33931834,NTREIS,14025425,N,Y,32.9229778,-96.511538
MLS Listing,,Townhouse,6832 E Northwest Hwy,Dallas,TX,75231,320000,2,2.5,Town North Twnhs,2242,2178,1974,40,143,350,Active,,,http://www.redfin.com/TX/Dallas/6832-E-NW-Hwy-75231/home/30870380,NTREIS,14025083,N,Y,32.854088,-96.742474
MLS Listing,,Condo/Co-op,5320 E Mockingbird Ln Unit L302,Dallas,TX,75206,315000,1,1.0,M Central Residences Condo,1083,170102,2005,40,291,737,Active,,,http://www.redfin.com/TX/Dallas/5320-E-Mockingbird-Ln-75206/unit-L302/home/30775744,NTREIS,14026061,N,Y,32.8364528,-96.7773
MLS Listing,,Single Family Residential,2816 Birmingham Ave,Dallas,TX,75215,300000,3,2.5,Winchester Place Rev,2037,6229,2019,40,147,,Active,,,http://www.redfin.com/TX/Dallas/2816-Birmingham-Ave-75215/home/30797767,NTREIS,14025817,N,Y,32.767354,-96.765226
MLS Listing,,Single Family Residential,10750 Coogan Dr,Dallas,TX,75229,319000,3,3.0,Walnut Hills 3rd Inst,1701,7492,1955,41,188,,Active,,,http://www.redfin.com/TX/Dallas/10750-Coogan-Dr-75229/home/30933600,NTREIS,14025353,N,Y,32.893529,-96.8781812
MLS Listing,,Single Family Residential,5107 Bradford Dr,Dallas,TX,75235,349900,3,2.0,Oak Lawn Heights,1825,7623,1935,42,192,,Active,,,http://www.redfin.com/TX/Dallas/5107-Bradford-Dr-75235/home/30814101,NTREIS,14024098,N,Y,32.8193796,-96.8262443
MLS Listing,,Single Family Residential,5625 Hillcroft St,Dallas,TX,75227,314900,5,3.0,Buckner Terrace,2545,8712,1965,42,124,,Active,,,http://www.redfin.com/TX/Dallas/5625-Hillcroft-St-75227/home/30906827,NTREIS,14021951,N,Y,32.7874735,-96.7037706
MLS Listing,,Townhouse,6849 Anglebluff Cir,Dallas,TX,75248,319000,3,2.5,Prestonwood Hillcrest Twnhs,2134,3398,1978,43,149,100,Active,,,http://www.redfin.com/TX/Dallas/6849-Anglebluff-Cir-75248/home/31080299,NTREIS,14024528,N,Y,32.965716,-96.789721
MLS Listing,,Condo/Co-op,458 Yacht Club Dr Unit C,Rockwall,TX,75032,300000,2,2.0,Cutter Hill #3,1816,2004,1990,43,165,167,Active,,,http://www.redfin.com/TX/Rockwall/458-Yacht-Club-Dr-75032/unit-C/home/33903525,NTREIS,14024037,N,Y,32.8790926,-96.4835166
MLS Listing,,Single Family Residential,2306 Rosser Ct,Rowlett,TX,75088,344900,5,3.5,Southbay Estates,3396,,1996,44,102,,Active,,,http://www.redfin.com/TX/Rowlett/2306-Rosser-Ct-75088/home/33931379,NTREIS,14023894,N,Y,32.8847078,-96.5172878
MLS Listing,,Single Family Residential,10023 Olmos Dr,Dallas,TX,75218,345000,4,3.0,Casa Linda Lawn Add,3132,7492,1954,44,110,,Active,,,http://www.redfin.com/TX/Dallas/10023-Olmos-Dr-75218/home/109946343,NTREIS,14023858,N,Y,32.8364819,-96.692639
MLS Listing,,Single Family Residential,5106 W Mockingbird Ln,Dallas,TX,75209,349000,2,1.5,Inwood Gardens,1416,8189,1950,44,246,,Active,,,http://www.redfin.com/TX/Dallas/5106-W-Mockingbird-Ln-75209/home/30881353,NTREIS,14012242,N,Y,32.8364283,-96.8240672
MLS Listing,,Multi-Family (2-4 Unit),10025 Olmos Dr,Dallas,TX,75218,345000,4,3.0,Casa Linda Lawn Add,3132,7492,1954,44,110,,Active,,,http://www.redfin.com/TX/Dallas/10025-Olmos-Dr-75218/home/30863378,NTREIS,14022702,N,Y,32.8364886,-96.6926516
MLS Listing,,Single Family Residential,1902 Brookhill Dr,Garland,TX,75043,320000,4,3.0,Hillside On The Lake,2470,,2016,45,130,50,Active,,,http://www.redfin.com/TX/Garland/1902-Brookhill-Dr-75043/home/104302276,NTREIS,14020655,N,Y,32.864398,-96.575578
MLS Listing,,Single Family Residential,114 Brookwood Dr,Richardson,TX,75080,325000,4,3.0,Richardson Heights Add Instl 10,2137,8364,1959,46,152,,Active,March-31-2019 01:00 PM,March-31-2019 03:00 PM,http://www.redfin.com/TX/Richardson/114-Brookwood-Dr-75080/home/31961620,NTREIS,14021963,N,Y,32.9526979,-96.7647275
MLS Listing,,Single Family Residential,464 Parkhurst Dr,Dallas,TX,75218,350000,3,1.0,Lake Highlands Estates,1446,9845,1951,47,242,,Active,,,http://www.redfin.com/TX/Dallas/464-Parkhurst-Dr-75218/home/30908506,NTREIS,14021193,N,Y,32.8530619,-96.71029
MLS Listing,,Single Family Residential,2727 W Brooklyn Ave,Dallas,TX,75211,339500,3,2.0,Sunset Summit,2263,,1925,47,150,,Active,,,http://www.redfin.com/TX/Dallas/2727-W-Brooklyn-Ave-75211/home/30832475,NTREIS,14016231,N,Y,32.7394382,-96.8646485
MLS Listing,,Multi-Family (2-4 Unit),1417 Mccoy St,Dallas,TX,75204,315000,2,2.0,Bryan Place Ph 08 Sec 01,1309,1699,1985,47,241,,Active,,,http://www.redfin.com/TX/Dallas/1417-Mccoy-St-75204/home/31121829,NTREIS,14020719,N,Y,32.7941656,-96.7864819
MLS Listing,,Single Family Residential,2039 Elmwood Blvd,Dallas,TX,75224,325000,3,2.0,Elmwood,1903,12632,1957,47,171,,Active,,,http://www.redfin.com/TX/Dallas/2039-Elmwood-Blvd-75224/home/30850067,NTREIS,14020743,N,Y,32.7262338,-96.8540505
MLS Listing,,Condo/Co-op,5200 Keller Springs Rd #537,Dallas,TX,75248,300000,2,2.0,Bonaventure Condo,1685,,1981,47,178,840,Active,,,http://www.redfin.com/TX/Dallas/5200-Keller-Springs-Rd-75248/unit-537/home/31129002,NTREIS,14011179,N,Y,32.9683918,-96.8197626
MLS Listing,,Condo/Co-op,4424 Holland Ave #104,Dallas,TX,75219,325000,2,2.5,4424 Holland Ave Condo,1185,24002,1983,47,274,225,Active,,,http://www.redfin.com/TX/Dallas/4424-Holland-Ave-75219/unit-104/home/147427655,NTREIS,14020752,N,Y,32.8203735,-96.8112154
MLS Listing,,Condo/Co-op,5617 Lindell Ave,Dallas,TX,75206,315000,2,2.0,Versaille Condo,1222,7187,2005,49,258,250,Active,,,http://www.redfin.com/TX/Dallas/5617-Lindell-Ave-75206/unit-2/home/30783828,NTREIS,14020101,N,Y,32.8091179,-96.768737
MLS Listing,,Single Family Residential,11222 Dalron Dr,Dallas,TX,75218,329900,3,2.0,Lochwood Estates,1605,8538,1961,49,206,,Active,,,http://www.redfin.com/TX/Dallas/11222-Dalron-Dr-75218/home/31047002,NTREIS,14020356,N,Y,32.8603538,-96.6863053
MLS Listing,,Single Family Residential,519 Goodwin Dr,Richardson,TX,75081,338500,4,2.0,Richland Park Sec 03,2207,9017,1975,50,153,,Active,,,http://www.redfin.com/TX/Richardson/519-Goodwin-Dr-75081/home/31974681,NTREIS,14019973,N,Y,32.9270639,-96.7261942
MLS Listing,,Single Family Residential,2548 Saint Francis Ave,Dallas,TX,75228,310000,3,2.0,Claremont Park 02,1723,7797,1962,50,180,,Active,,,http://www.redfin.com/TX/Dallas/2548-St-Francis-Ave-75228/home/30773144,NTREIS,14017596,N,Y,32.8052764,-96.6990904
MLS Listing,,Vacant Land,3215 Wake St,Dallas,TX,75212,300000,0,,Heights Macarthur,,5401,1950,50,,,Active,,,http://www.redfin.com/TX/Dallas/3215-Wake-St-75212/home/30971930,NTREIS,14019671,N,Y,32.7810353,-96.8294722
MLS Listing,,Single Family Residential,12621 Shadyridge Ln,Farmers Branch,TX,75234,329900,4,2.5,Town North Estates,1942,9409,1960,50,170,,Active,,,http://www.redfin.com/TX/Farmers-Branch/12621-Shadyridge-Ln-75234/home/31342958,NTREIS,14019617,N,Y,32.9182458,-96.859831
MLS Listing,,Condo/Co-op,4411 Bowser Ave #205,Dallas,TX,75219,311000,2,2.0,Nikko Condominiums,1332,24002,2008,51,233,323,Active,,,http://www.redfin.com/TX/Dallas/4411-Bowser-Ave-75219/unit-205/home/110137699,NTREIS,14019509,N,Y,32.8186982,-96.8118316
MLS Listing,,Single Family Residential,10208 Linkwood Dr,Dallas,TX,75238,349900,3,2.0,Lake Highlands Estates 9,1634,8581,1955,51,214,,Active,,,http://www.redfin.com/TX/Dallas/10208-Linkwood-Dr-75238/home/31005454,NTREIS,14018928,N,Y,32.8688972,-96.7102064
MLS Listing,,Vacant Land,2202 Bonnie View Rd,Dallas,TX,75216,325000,0,,Pearl Porterfields,,97749,,51,,,Active,,,http://www.redfin.com/TX/Dallas/2202-Bonnie-View-Rd-75216/home/31033787,NTREIS,14019015,N,Y,32.725541,-96.787176
MLS Listing,,Vacant Land,2206 Porterfield Dr,Dallas,TX,75216,325000,0,,Pearl Porterfields,,97757,,51,,,Active,,,http://www.redfin.com/TX/Dallas/2206-Porterfield-Dr-75216/home/146497476,NTREIS,14019005,N,Y,32.724768,-96.786863
MLS Listing,,Townhouse,2201 Wolf St #6103,Dallas,TX,75201,309000,2,2.0,Topaz Twnhms Condo,1419,158297,1995,51,218,313,Active,,,http://www.redfin.com/TX/Dallas/2201-Wolf-St-75201/unit-6103/home/30772765,NTREIS,14014518,N,Y,32.796745,-96.8089748
MLS Listing,,Single Family Residential,5208 Parkland Ave,Dallas,TX,75235,325000,3,1.0,Oak Lawn Heights,1588,8668,1950,52,205,,Active,,,http://www.redfin.com/TX/Dallas/5208-Parkland-Ave-75235/home/30813908,NTREIS,14012857,N,Y,32.8185549,-96.8293007
MLS Listing,,Single Family Residential,4307 Skillman St,Dallas,TX,75206,319900,2,1.0,Caruth Terrace,1374,7667,1951,52,233,,Active,March-31-2019 02:00 PM,March-31-2019 04:00 PM,http://www.redfin.com/TX/Dallas/4307-Skillman-St-75206/home/30822044,NTREIS,14018044,N,Y,32.838629,-96.7616672
MLS Listing,,Townhouse,8337 Oxalis Ln,Dallas,TX,75252,350000,3,2.5,University Place,1927,3049,2019,52,182,205,Active,,,http://www.redfin.com/TX/Dallas/8337-Oxalis-Ln-75252/home/147603873,NTREIS,14017856,N,Y,32.993993,-96.759005
MLS Listing,,Single Family Residential,3885 Clover Ln,Dallas,TX,75220,305000,3,1.0,North Davilla Drive Estates,1217,8233,1952,54,251,,Active,March-31-2019 01:00 PM,March-31-2019 03:00 PM,http://www.redfin.com/TX/Dallas/3885-Clover-Ln-75220/home/30912337,NTREIS,14013040,N,Y,32.8708188,-96.8494875
MLS Listing,,Condo/Co-op,2201 Wolf St #6202,Dallas,TX,75201,334900,2,2.0,Topaz Twnhms Condo,1475,158297,1995,56,227,322,Active,,,http://www.redfin.com/TX/Dallas/2201-Wolf-St-75201/unit-6202/home/30776653,NTREIS,14015702,N,Y,32.796745,-96.8089748
MLS Listing,,Single Family Residential,5241 Lake Terrace Ct,Garland,TX,75043,315000,4,3.0,Lake Terrace Rep,2244,5227,2018,56,140,68,Active,,,http://www.redfin.com/TX/Garland/5241-Lake-Terrace-Ct-75043/home/30766701,NTREIS,14015638,N,Y,32.85318,-96.548935
MLS Listing,,Single Family Residential,520 W 7th St,Dallas,TX,75208,350000,4,2.0,Hillside,1498,6490,1920,57,234,,Active,,,http://www.redfin.com/TX/Dallas/520-W-7th-St-75208/home/30826325,NTREIS,14015610,N,Y,32.7487702,-96.8312267
MLS Listing,,Condo/Co-op,5110 Westgrove Dr,Dallas,TX,75248,328888,2,2.5,Lakes Of Bent Tree Condo,1918,,1982,57,171,592,Active,March-31-2019 01:00 PM,March-31-2019 03:00 PM,http://www.redfin.com/TX/Dallas/5110-Westgrove-Dr-75248/home/31174164,NTREIS,14014410,N,Y,32.9763289,-96.8213113
MLS Listing,,Condo/Co-op,5055 Addison Cir #417,Addison,TX,75001,339000,2,2.0,Aventura Condos,1816,60461,2000,57,187,598,Active,,,http://www.redfin.com/TX/Addison/5055-Addison-Cir-75001/unit-417/home/32260061,NTREIS,14009285,N,Y,32.9622562,-96.8239695
MLS Listing,,Single Family Residential,3209 Sharpview Ln,Dallas,TX,75228,335000,3,2.5,Buckner Terrace 08 Sec 03 Inst,1900,14244,1965,57,176,,Active,,,http://www.redfin.com/TX/Dallas/3209-Sharpview-Ln-75228/home/31103773,NTREIS,14014723,N,Y,32.7964046,-96.6984219
MLS Listing,,Single Family Residential,614 Harter Rd,Dallas,TX,75218,349900,2,2.0,Lake Highlands Estates,1372,8843,1955,57,255,,Active,,,http://www.redfin.com/TX/Dallas/614-Harter-Rd-75218/home/30867438,NTREIS,14013601,N,Y,32.8489745,-96.7120871
MLS Listing,,Townhouse,8255 Snapdragon Way,Dallas,TX,75252,350000,3,2.5,University Place,1927,3049,2019,58,182,205,Active,,,http://www.redfin.com/TX/Dallas/8255-Snapdragon-Way-75252/home/147603879,NTREIS,14014285,N,Y,32.99379,-96.759915
MLS Listing,,Single Family Residential,4813 Crestpoint Ln,Garland,TX,75043,350000,5,3.5,Highcrest,3213,7187,2016,58,109,,Active,,,http://www.redfin.com/TX/Garland/4813-Crestpoint-Ln-75043/home/31405510,NTREIS,14013275,N,Y,32.8481918,-96.5588853
MLS Listing,,Townhouse,6404 Juliet Pl,Dallas,TX,75252,349000,3,2.5,Davenport Meadows Add Ph 2,2319,2788,2007,59,150,170,Active,,,http://www.redfin.com/TX/Dallas/6404-Juliet-Pl-75252/home/31774937,NTREIS,14013307,N,Y,32.9881594,-96.7940976
MLS Listing,,Condo/Co-op,3701 Turtle Creek Blvd Unit 4H,Dallas,TX,75219,339000,2,2.0,Turtle Creek North Condo,1340,58414,1962,61,253,823,Active,,,http://www.redfin.com/TX/Dallas/3701-Turtle-Creek-Blvd-75219/unit-4H/home/30795372,NTREIS,14011451,N,Y,32.8130104,-96.8018189
MLS Listing,,Single Family Residential,9030 Flicker Ln,Dallas,TX,75238,309000,3,2.0,Lakeland Hills 02,1579,10149,1971,63,196,,Active,,,http://www.redfin.com/TX/Dallas/9030-Flicker-Ln-75238/home/31023703,NTREIS,14010877,N,Y,32.8726537,-96.689188
MLS Listing,,Single Family Residential,1114 Haines Ave,Dallas,TX,75208,350000,3,2.0,Miller & Stemmons Add,1376,8668,1939,64,254,,Active,,,http://www.redfin.com/TX/Dallas/1114-Haines-Ave-75208/home/30739906,NTREIS,14009740,N,Y,32.756675,-96.8287181
MLS Listing,,Single Family Residential,4903 Willow Ridge Dr,Mesquite,TX,75150,309900,3,2.5,Willow Ridge Rev,2252,12502,1984,65,138,,Active,,,http://www.redfin.com/TX/Mesquite/4903-Willow-Ridge-Dr-75150/home/31912748,NTREIS,14009810,N,Y,32.8361558,-96.6448753
MLS Listing,,Condo/Co-op,2100 N Fitzhugh Ave Unit C,Dallas,TX,75204,323500,2,2.5,2100 N FITZHUGH CONDOMINIUMS,1272,27007,2007,65,254,242,Active,March-31-2019 01:00 PM,March-31-2019 03:00 PM,http://www.redfin.com/TX/Dallas/2100-N-Fitzhugh-Ave-75204/unit-C/home/110137429,NTREIS,14004552,N,Y,32.8098167,-96.7802471
MLS Listing,,Condo/Co-op,3208 Cole Ave #1308,Dallas,TX,75204,304900,2,2.0,Bois Du Chene,1048,,1984,65,291,348,Active,,,http://www.redfin.com/TX/Dallas/3208-Cole-Ave-75204/unit-1308/home/147435925,NTREIS,13999331,N,Y,32.8040323,-96.8007308
MLS Listing,,Condo/Co-op,5618 Lindell Ave #9,Dallas,TX,75206,349900,2,2.5,Eastside On Lindell Condo Ph 02,1687,14288,2008,66,207,273,Active,,,http://www.redfin.com/TX/Dallas/5618-Lindell-Ave-75206/unit-9/home/150297457,NTREIS,14008647,N,Y,32.808675,-96.76868
MLS Listing,,Single Family Residential,5417 ONSET BAY Dr,Rowlett,TX,75089,319500,4,3.0,Mariner Park SEC 2 BLK I LT 11,2979,,2001,70,107,50,Active,,,http://www.redfin.com/TX/Rowlett/5417-Onset-Bay-Dr-75089/home/32009877,NTREIS,14006652,N,Y,32.9169125,-96.549192
MLS Listing,,Single Family Residential,10203 Shadow Way,Dallas,TX,75243,349900,5,3.0,Woodbridge Add 03,3386,10934,1980,72,103,,Active,,,http://www.redfin.com/TX/Dallas/10203-Shadow-Way-75243/home/31112436,NTREIS,14005522,N,Y,32.9147247,-96.7111468
MLS Listing,,Condo/Co-op,5200 Keller Springs Rd #237,Dallas,TX,75248,339000,2,2.0,Bonaventure Condo,1685,331012,1981,73,201,840,Active,March-31-2019 02:00 PM,March-31-2019 04:00 PM,http://www.redfin.com/TX/Dallas/5200-Keller-Springs-Rd-75248/unit-237/home/143919061,NTREIS,14004192,N,Y,32.967807,-96.8184739
MLS Listing,,Single Family Residential,1888 Tahoe Dr,Rockwall,TX,75087,339900,3,2.5,Lakeside Village Ph V-B,2568,5837,2001,73,132,128,Active,,,http://www.redfin.com/TX/Rockwall/1888-Tahoe-Dr-75087/home/33938642,NTREIS,13993138,N,Y,32.8968088,-96.4793405
MLS Listing,,Single Family Residential,15755 Terrace Lawn Cir,Dallas,TX,75248,314900,4,2.5,Prestonwood,2134,7667,1971,73,148,66,Active,,,http://www.redfin.com/TX/Dallas/15755-Terrace-Lawn-Cir-75248/home/31078994,NTREIS,14001999,N,Y,32.962268,-96.7789315
MLS Listing,,Single Family Residential,5127 Blanchard Dr,Dallas,TX,75227,327000,4,3.0,Buckner Terrace Add 01 Instl 04sec,2443,8625,1969,75,134,,Active,,,http://www.redfin.com/TX/Dallas/5127-Blanchard-Dr-75227/home/30907507,NTREIS,14002497,N,Y,32.7896234,-96.7115647
MLS Listing,,Single Family Residential,851 Peavy Rd,Dallas,TX,75218,320000,3,2.0,Lake Terrace,1412,8102,1954,75,227,,Active,,,http://www.redfin.com/TX/Dallas/851-Peavy-Rd-75218/home/30908274,NTREIS,14002736,N,Y,32.8456514,-96.7069884
MLS Listing,,Single Family Residential,2405 Shorewood Ct,Rowlett,TX,75088,300000,4,3.0,Westwood Shores Ph 02,2727,9714,1999,78,110,,Active,,,http://www.redfin.com/TX/Rowlett/2405-Shorewood-Ct-75088/home/32029793,NTREIS,14001366,N,Y,32.8844235,-96.5771917
MLS Listing,,Single Family Residential,2530 Wedglea Dr,Dallas,TX,75211,345900,2,2.0,Wedglea Creek,1600,1742,2005,78,216,160,Active,March-30-2019 02:00 PM,March-30-2019 04:30 PM,http://www.redfin.com/TX/Dallas/2530-Wedglea-Dr-75211/home/30761294,NTREIS,14000583,N,Y,32.7560275,-96.8624805
MLS Listing,,Vacant Land,2115 Obenchain St,Dallas,TX,75208,350000,0,,W R Fishers,,3615,1975,79,,,Active,,,http://www.redfin.com/TX/Dallas/2115-Obenchain-St-75208/home/146116780,NTREIS,14000514,N,Y,32.7717947,-96.8371727
MLS Listing,,Condo/Co-op,3225 Turtle Creek Blvd #1906,Dallas,TX,75219,339000,2,2.0,Renaissance On Turtle Creek Condo,1152,154028,1998,82,294,675,Active,March-31-2019 02:00 PM,March-31-2019 04:00 PM,http://www.redfin.com/TX/Dallas/3225-Turtle-Creek-Blvd-75219/unit-1906/home/30732015,NTREIS,13998061,N,Y,32.8066148,-96.8038366
MLS Listing,,Condo/Co-op,4122 Avondale Ave #201,Dallas,TX,75219,315000,2,2.0,Avanti On Avondale Condo,1305,20517,2004,84,241,370,Active,,,http://www.redfin.com/TX/Dallas/4122-Avondale-Ave-75219/unit-201/home/30745355,NTREIS,13997468,N,Y,32.8174145,-96.8058957
MLS Listing,,Single Family Residential,3831 Holliday Rd,Dallas,TX,75224,345000,3,2.0,Druid Hills,2108,14636,1958,85,164,,Active,,,http://www.redfin.com/TX/Dallas/3831-Holliday-Rd-75224/home/30900130,NTREIS,13997247,N,Y,32.6961019,-96.8558516
MLS Listing,,Single Family Residential,2524 Springhill Dr,Dallas,TX,75228,349999,3,2.0,Casa Linda Forest Add,1886,16640,1960,86,186,,Active,,,http://www.redfin.com/TX/Dallas/2524-Springhill-Dr-75228/home/30998620,NTREIS,13996212,N,Y,32.8142622,-96.6967923
MLS Listing,,Condo/Co-op,5200 Keller Springs Rd #416,Dallas,TX,75248,329900,2,2.0,Bonaventure Condo,1685,331012,1981,86,196,840,Active,,,http://www.redfin.com/TX/Dallas/5200-Keller-Springs-Rd-75248/unit-416/home/31128905,NTREIS,13996019,N,Y,32.9683918,-96.8197626
MLS Listing,,Single Family Residential,810 Elsbeth St,Dallas,TX,75208,329000,3,2.0,Zang S Crystal Hill,1400,7492,1931,86,235,,Active,,,http://www.redfin.com/TX/Dallas/810-Elsbeth-St-75208/home/30828875,NTREIS,13995901,N,Y,32.7527047,-96.825072
MLS Listing,,Single Family Residential,8314 Navigation Dr,Rowlett,TX,75088,315000,5,3.0,Lake Highlands Lake Ray Hubbard,3015,10803,1993,87,104,,Active,,,http://www.redfin.com/TX/Rowlett/8314-Navigation-Dr-75088/home/32003547,NTREIS,13989774,N,Y,32.8893388,-96.5218297
MLS Listing,,Single Family Residential,11393 Fernald Ave,Dallas,TX,75218,339000,3,2.0,Lochwood Estates,1593,8233,1959,88,213,,Active,March-30-2019 02:00 PM,March-30-2019 04:00 PM,http://www.redfin.com/TX/Dallas/11393-Fernald-Ave-75218/home/31047095,NTREIS,13995062,N,Y,32.8601897,-96.6836316
MLS Listing,,Single Family Residential,7016 Belteau Ln,Dallas,TX,75227,343000,4,3.5,Enclave At Grove Hill,3090,7492,2008,94,111,55,Active,,,http://www.redfin.com/TX/Dallas/7016-Belteau-Ln-75227/home/30740284,NTREIS,13988841,N,Y,32.7852351,-96.7147196
MLS Listing,,Single Family Residential,3703 Clover Ln,Dallas,TX,75220,338900,3,2.0,North Davilla Drive Estates,1640,7971,1952,96,207,,Active,March-31-2019 01:00 PM,March-31-2019 04:00 PM,http://www.redfin.com/TX/Dallas/3703-Clover-Ln-75220/home/30911747,NTREIS,13992429,N,Y,32.870905,-96.8558878
MLS Listing,,Single Family Residential,2410 Hillview Dr,Garland,TX,75043,337990,4,3.0,Hillside on the Lake,2422,5663,2018,99,140,38,Active,,,http://www.redfin.com/TX/Garland/2410-Hillview-Dr-75043/home/145342078,NTREIS,13989931,N,Y,32.864953,-96.573796
MLS Listing,,Single Family Residential,1910 Edgewater,Garland,TX,75043,334990,4,3.5,Hillside on the Lake,2768,5663,2017,99,121,38,Active,,,http://www.redfin.com/TX/Garland/1910-Edgewater-Dr-75043/home/144041141,NTREIS,13989933,N,Y,32.864804,-96.574535
MLS Listing,,Single Family Residential,2318 Hillview,Garland,TX,75043,339990,4,2.5,Hillside on the Lake,2529,6098,2018,99,134,38,Active,,,http://www.redfin.com/TX/Garland/2318-Hillview-Dr-75043/home/144041142,NTREIS,13990155,N,Y,32.863981,-96.574681
MLS Listing,,Condo/Co-op,3235 Cole Ave #605,Dallas,TX,75204,334900,2,2.5,Woodshire Court Condos,1678,54363,1985,100,200,411,Active,,,http://www.redfin.com/TX/Dallas/3235-Cole-Ave-75204/unit-605/home/31193477,NTREIS,13991548,N,Y,32.8041205,-96.8011182
MLS Listing,,Single Family Residential,3847 Treeline Dr,Dallas,TX,75224,324900,4,3.5,Oak Park Estates 5,2581,8712,1966,102,126,,Active,,,http://www.redfin.com/TX/Dallas/3847-Treeline-Dr-75224/home/30900183,NTREIS,13990895,N,Y,32.6973001,-96.8491919
MLS Listing,,Single Family Residential,2938 Clydedale Dr,Dallas,TX,75220,320000,3,1.0,Watkins Sub,1328,18687,1950,102,241,,Active,,,http://www.redfin.com/TX/Dallas/2938-Clydedale-Dr-75220/home/30882947,NTREIS,13990634,N,Y,32.8607811,-96.8742426
MLS Listing,,Condo/Co-op,4319 Bowser Ave #104,Dallas,TX,75219,319900,2,2.0,Brownstones On Bowser Condos,1412,15987,2006,102,227,355,Active,,,http://www.redfin.com/TX/Dallas/4319-Bowser-Ave-75219/unit-104/home/30782751,NTREIS,13985106,N,Y,32.8177123,-96.8106857
MLS Listing,,Condo/Co-op,6015 Oram St Unit F,Dallas,TX,75206,329000,2,2.5,Town Homes on Oram,1200,,1986,104,274,250,Active,,,http://www.redfin.com/TX/Dallas/6015-Oram-St-75206/unit-F/home/148510121,NTREIS,13989753,N,Y,32.8141348,-96.7632426
MLS Listing,,Single Family Residential,874 Peavy Rd,Dallas,TX,75218,311000,3,2.0,Lake Terrace,1319,9017,1954,106,236,,Active,,,http://www.redfin.com/TX/Dallas/874-Peavy-Rd-75218/home/30908110,NTREIS,13987655,N,Y,32.8454071,-96.7058183
MLS Listing,,Single Family Residential,2404 Pennsylvania Ave,Dallas,TX,75215,339900,3,2.5,South Park,2437,6665,2018,106,139,,Active,,,http://www.redfin.com/TX/Dallas/2404-Pennsylvania-Ave-75215/home/30739021,NTREIS,13989106,N,Y,32.763715,-96.7709
MLS Listing,,Single Family Residential,9 Key Dr,Heath,TX,75032,339900,5,2.0,Secluded Shores,1917,26397,1974,114,177,,Active,,,http://www.redfin.com/TX/Heath/9-Key-Dr-75032/home/33921872,NTREIS,13983974,N,Y,32.8509051,-96.487562
MLS Listing,,Multi-Family (2-4 Unit),3929 Orlando Ct,Dallas,TX,75211,329000,4,,Dallas Park,2610,9191,1942,116,126,,Active,,,http://www.redfin.com/TX/Dallas/3929-Orlando-Ct-75211/home/30853385,NTREIS,13982969,N,Y,32.7443182,-96.8850653
MLS Listing,,Multi-Family (2-4 Unit),4115 Lakehurst Ct,Dallas,TX,75211,329000,4,,Dallas Park,2552,7492,1942,116,129,,Active,,,http://www.redfin.com/TX/Dallas/4115-Lakehurst-Ct-75211/home/30853503,NTREIS,13982972,N,Y,32.744873,-96.887968
MLS Listing,,Condo/Co-op,3225 Turtle Creek Blvd #1706,Dallas,TX,75219,309000,2,2.0,Renaissance On Turtle Creek Condominiums,1152,154028,1998,117,268,668,Active,,,http://www.redfin.com/TX/Dallas/3225-Turtle-Creek-Blvd-75219/unit-1706/home/30731884,NTREIS,13982286,N,Y,32.8066148,-96.8038366
MLS Listing,,Single Family Residential,10656 Longmeadow Dr,Dallas,TX,75238,325000,3,2.0,Lake Highlands Estates,1714,7667,1958,121,190,,Active,,,http://www.redfin.com/TX/Dallas/10656-Longmeadow-Dr-75238/home/31030848,NTREIS,13978955,N,Y,32.875658,-96.7010544
MLS Listing,,Single Family Residential,4006 Brundrette St,Dallas,TX,75212,350000,4,3.0,Roosevelt Manor 2nd Inst,2190,4443,2018,122,160,,Active,,,http://www.redfin.com/TX/Dallas/4006-Brundrette-St-75212/home/30976785,NTREIS,13973376,N,Y,32.791545,-96.854094
MLS Listing,,Condo/Co-op,7506 W Northwest Hwy #6,Dallas,TX,75225,339000,1,1.5,Northpark Garden Twnhms,1226,133816,1964,124,277,569,Active,April-7-2019 01:00 PM,April-7-2019 03:00 PM,http://www.redfin.com/TX/Dallas/7506-W-Northwest-Hwy-75225/unit-6/home/30871898,NTREIS,13968515,N,Y,32.8654322,-96.778033
MLS Listing,,Condo/Co-op,6015 Oram St Unit B,Dallas,TX,75206,349000,2,2.5,Town Homes on Oram,1400,,1986,130,249,200,Active,,,http://www.redfin.com/TX/Dallas/6015-Oram-St-75206/unit-B/home/148174516,NTREIS,13975402,N,Y,32.8141348,-96.7632426
MLS Listing,,Condo/Co-op,3225 Turtle Creek Blvd #1111,Dallas,TX,75219,327000,2,2.0,Renaissance On Turtle Creek Condo,1254,154028,1998,130,261,716,Active,,,http://www.redfin.com/TX/Dallas/3225-Turtle-Creek-Blvd-75219/unit-1111/home/30746473,NTREIS,13974744,N,Y,32.8066148,-96.8038366
MLS Listing,,Vacant Land,8419 Craighill Dr,Dallas,TX,75209,350000,0,,Crest Haven Place,,7536,1948,133,,,Active,,,http://www.redfin.com/TX/Dallas/8419-Craighill-Ave-75209/home/30855790,NTREIS,13974942,N,Y,32.8543346,-96.843873
MLS Listing,,Condo/Co-op,5618 Lindell Ave #6,Dallas,TX,75206,349900,2,2.5,Eastside On Lindell Condo Ph 02,1640,14288,2008,134,213,270,Active,,,http://www.redfin.com/TX/Dallas/5618-Lindell-Ave-75206/unit-6/home/147417733,NTREIS,13971933,N,Y,32.808675,-96.76868
MLS Listing,,Single Family Residential,6134 N Jim Miller Rd,Dallas,TX,75228,324000,3,2.0,Buckner Terrace 6th Sec 3rd Inst,2012,8581,1964,134,161,,Active,,,http://www.redfin.com/TX/Dallas/6134-N-Jim-Miller-Rd-75228/home/31103642,NTREIS,13974167,N,Y,32.7995396,-96.6964162
MLS Listing,,Condo/Co-op,4830 Cedar Springs Rd #36,Dallas,TX,75219,325000,2,2.5,Carreras Twnhms Condo,1561,84681,2004,137,208,280,Active,,,http://www.redfin.com/TX/Dallas/4830-Cedar-Springs-Rd-75219/unit-36/home/30745532,NTREIS,13972363,N,Y,32.8196373,-96.8211696
MLS Listing,,Single Family Residential,1906 W Five Mile Pkwy,Dallas,TX,75224,345000,4,3.0,Oak Park Estates,2222,14810,1972,138,155,,Active,,,http://www.redfin.com/TX/Dallas/1906-W-Five-Mile-Pkwy-75224/home/30900179,NTREIS,13971927,N,Y,32.7004097,-96.850951
MLS Listing,,Condo/Co-op,7506 W Northwest Hwy #2,Dallas,TX,75225,329900,2,1.5,Northpark Garden Twnhms,1226,133816,1964,141,269,569,Active,,,http://www.redfin.com/TX/Dallas/7506-W-Northwest-Hwy-75225/unit-2/home/30871960,NTREIS,13968508,N,Y,32.8654322,-96.778033
MLS Listing,,Single Family Residential,1426 S Montreal Ave,Dallas,TX,75208,345000,3,2.0,Hampton Hills Add,2213,7710,1952,142,156,,Active,,,http://www.redfin.com/TX/Dallas/1426-S-Montreal-Ave-75208/home/30839297,NTREIS,13969508,N,Y,32.7294802,-96.8540924
MLS Listing,,Single Family Residential,10804 Beauty Ln,Dallas,TX,75229,349900,3,2.0,Webster Grove,2221,12023,1962,145,158,,Active,,,http://www.redfin.com/TX/Dallas/10804-Beauty-Ln-75229/home/30930991,NTREIS,13962556,N,Y,32.8954536,-96.8642924
MLS Listing,,Condo/Co-op,3235 Cole Ave #30,Dallas,TX,75204,345000,2,2.5,Woodshire Court Condos,1220,54363,1985,146,283,349,Active,,,http://www.redfin.com/TX/Dallas/3235-Cole-Ave-75204/unit-30/home/31193452,NTREIS,13966919,N,Y,32.8041205,-96.8011182
MLS Listing,,Condo/Co-op,5200 Keller Springs Rd #1224,Dallas,TX,75248,319900,2,2.0,Bonaventure Condo,1685,331012,1981,152,190,840,Active,,,http://www.redfin.com/TX/Dallas/5200-Keller-Springs-Rd-75248/unit-1224/home/31128840,NTREIS,13963165,N,Y,32.9683918,-96.8197626
MLS Listing,,Condo/Co-op,3225 Turtle Creek Blvd #1606,Dallas,TX,75219,339000,2,2.0,Renaissance on Turtle Creek,1152,,1998,155,294,665,Active,,,http://www.redfin.com/TX/Dallas/3225-Turtle-Creek-Blvd-75219/unit-1606/home/147393927,NTREIS,13962213,N,Y,32.8067511,-96.8047905
MLS Listing,,Single Family Residential,2315 Hondo Ave,Dallas,TX,75219,330000,3,2.0,Clifton Place 02,1731,7536,1942,159,191,,Active,,,http://www.redfin.com/TX/Dallas/2315-Hondo-Ave-75219/home/30813215,NTREIS,13958256,N,Y,32.8080138,-96.8241368
MLS Listing,,Single Family Residential,3706 Bickers St,Dallas,TX,75212,330000,4,2.5,Homeland Estates,2236,6055,2018,163,148,,Active,,,http://www.redfin.com/TX/Dallas/3706-Bickers-St-75212/home/30980094,NTREIS,13952738,N,Y,32.78519,-96.881102
MLS Listing,,Single Family Residential,3702 Bickers St,Dallas,TX,75212,330000,4,2.5,Homeland Estates,2236,6055,2018,163,148,,Active,,,http://www.redfin.com/TX/Dallas/3702-Bickers-St-75212/home/30980095,NTREIS,13952745,N,Y,32.785188,-96.880938
MLS Listing,,Condo/Co-op,15795 Spectrum Dr #172,Addison,TX,75001,307800,2,2.5,Townhomes Of District A Ph 01-11,1698,262623,2005,163,181,289,Active,,,http://www.redfin.com/TX/Addison/15795-Spectrum-Dr-75001/unit-172/home/147461830,NTREIS,13947820,N,Y,32.9640914,-96.8241147
MLS Listing,,Single Family Residential,2438 Wycliff Ave,Dallas,TX,75219,314900,3,2.0,Clifton Place 03,1221,4008,2003,163,258,,Active,,,http://www.redfin.com/TX/Dallas/2438-Wycliff-Ave-75219/home/30730122,NTREIS,13956147,N,Y,32.8087629,-96.8206296
MLS Listing,,Condo/Co-op,8823 Tudor Pl,Dallas,TX,75228,323000,3,2.5,Villas At Ash Creek,2052,2178,2007,164,157,125,Active,March-30-2019 08:00 AM,March-30-2019 08:00 PM,http://www.redfin.com/TX/Dallas/8823-Tudor-Pl-75228/home/30781107,NTREIS,13952912,N,Y,32.8138368,-96.6976947
MLS Listing,,Single Family Residential,9710 Cloister Dr,Dallas,TX,75228,314900,3,1.5,Alger Park,1416,9583,1953,171,222,,Active,,,http://www.redfin.com/TX/Dallas/9710-Cloister-Dr-75228/home/30861826,NTREIS,13949724,N,Y,32.8270047,-96.6898564
MLS Listing,,Single Family Residential,4717 Bungalow Dr,Garland,TX,75043,315000,4,3.0,Cypress Cove Ph 2,2237,9104,2017,171,141,25,Active,,,http://www.redfin.com/TX/Garland/4717-Bungalow-Dr-75043/home/125130923,NTREIS,13950758,N,Y,32.8424297,-96.5591061
MLS Listing,,Condo/Co-op,2201 Wolf St #1103,Dallas,TX,75201,326000,2,2.0,Topaz Twnhms Condo,1411,158297,1995,172,231,312,Active,,,http://www.redfin.com/TX/Dallas/2201-Wolf-St-75201/unit-1103/home/30772780,NTREIS,13951152,N,Y,32.796745,-96.8089748
MLS Listing,,Single Family Residential,2517 Springhill Dr,Dallas,TX,75228,349000,3,2.0,Casa Linda Forest,1753,10193,1960,173,199,,Active,March-31-2019 02:00 PM,March-31-2019 04:00 PM,http://www.redfin.com/TX/Dallas/2517-Springhill-Dr-75228/home/30998586,NTREIS,13939092,N,Y,32.8147629,-96.6965495
MLS Listing,,Condo/Co-op,5990 Lindenshire #124,Dallas,TX,75230,319000,2,2.5,The Abbey on Preston,1663,,1984,175,192,362,Active,,,http://www.redfin.com/TX/Dallas/5990-Lindenshire-Ln-75230/unit-124/home/31161158,NTREIS,13929215,N,Y,32.9121453,-96.8038828
MLS Listing,,Townhouse,4620 Lester Dr,Dallas,TX,75219,329900,2,2.0,Hawthorne Street Twnhms,1978,1525,2007,176,167,75,Active,,,http://www.redfin.com/TX/Dallas/4620-Lester-Dr-75219/home/30781320,NTREIS,13948455,N,Y,32.8140542,-96.8244533
MLS Listing,,Single Family Residential,2611 W 12th St,Dallas,TX,75211,347900,4,3.0,Terry Heights Add,1841,7841,1954,176,189,,Active,,,http://www.redfin.com/TX/Dallas/2611-W-12th-St-75211/home/30847667,NTREIS,13946995,N,Y,32.7415486,-96.8617789
MLS Listing,,Single Family Residential,1102 Cedar Hill Ave,Dallas,TX,75208,349995,3,2.0,Miller & Stemmons,1262,4792,2000,178,277,,Active,,,http://www.redfin.com/TX/Dallas/1102-Cedar-Hill-Ave-75208/home/30829013,NTREIS,13946619,N,Y,32.756278,-96.8311849
MLS Listing,,Single Family Residential,1736 Reynoldston Ln,Dallas,TX,75232,325000,4,2.5,Glen Hills,2688,11021,1969,178,121,,Active,,,http://www.redfin.com/TX/Dallas/1736-Reynoldston-Ln-75232/home/30955817,NTREIS,13934750,N,Y,32.6764297,-96.8501552
MLS Listing,,Vacant Land,320 E 8th St,Dallas,TX,75203,325000,0,,Oak Cliff Original Town Of,,10237,,180,,,Active,,,http://www.redfin.com/TX/Dallas/320-E-8th-St-75203/home/30826037,NTREIS,13945326,N,Y,32.7494609,-96.819227
MLS Listing,,Single Family Residential,3902 Park Ln,Dallas,TX,75220,350000,3,1.0,Glenridge Estates,985,8146,1951,182,355,,Active,,,http://www.redfin.com/TX/Dallas/3902-Park-Ln-75220/home/30910911,NTREIS,13944519,N,Y,32.8750815,-96.8501133
MLS Listing,,Single Family Residential,610 W Page Ave,Dallas,TX,75208,300000,4,2.0,Ruthmede Rev,1800,7013,1925,182,167,,Active,,,http://www.redfin.com/TX/Dallas/610-W-Page-Ave-75208/home/30826950,NTREIS,13944395,N,Y,32.7399621,-96.832649
MLS Listing,,Single Family Residential,3711 Hawick Ln,Dallas,TX,75220,349000,3,3.0,Hilltop Homes,1484,7449,1952,183,235,,Active,,,http://www.redfin.com/TX/Dallas/3711-Hawick-Ln-75220/home/30856084,NTREIS,13943611,N,Y,32.8637423,-96.8554327
MLS Listing,,Condo/Co-op,6335 W Northwest Hwy W #813,Dallas,TX,75225,315000,2,2.0,Athena Condo,1770,,1966,183,178,1037,Active,,,http://www.redfin.com/TX/Dallas/6335-W-Northwest-Hwy-75225/unit-813/home/30873462,NTREIS,13938700,N,Y,32.8657471,-96.7985183
MLS Listing,,Single Family Residential,2541 Rivercrest Dr,Dallas,TX,75228,315000,3,2.0,Hillridge 3rd Sec,1744,8102,1963,184,181,,Active,,,http://www.redfin.com/TX/Dallas/2541-Rivercrest-Dr-75228/home/30968437,NTREIS,13942937,N,Y,32.8020113,-96.7018902
MLS Listing,,Single Family Residential,12132 Larchgate Dr,Dallas,TX,75243,330000,4,3.0,Woodbridge 02,2831,10062,1980,185,117,,Active,,,http://www.redfin.com/TX/Dallas/12132-Larchgate-Dr-75243/home/31102002,NTREIS,13941681,N,Y,32.914112,-96.7148038
MLS Listing,,Single Family Residential,509 Gentle Breeze Ct,Heath,TX,75126,344350,3,2.0,Heath Golf & Yacht Club,2452,7013,2018,189,140,183,Active,,,http://www.redfin.com/TX/Heath/1500-Clubhouse-Dr-75032/home/160543109,NTREIS,13940057,N,Y,32.8127802,-96.4864417
MLS Listing,,Single Family Residential,812 Tarryall Dr,Dallas,TX,75224,310000,4,2.5,Southern Hills,2366,12981,2018,193,131,,Active,,,http://www.redfin.com/TX/Dallas/812-Tarryall-Dr-75224/home/30894701,NTREIS,13918856,N,Y,32.693188,-96.8367729
MLS Listing,,Condo/Co-op,4830 Cedar Springs Rd #11,Dallas,TX,75219,342900,2,2.5,Carreras Twnhms Condos,1994,84681,2005,194,172,270,Active,,,http://www.redfin.com/TX/Dallas/4830-Cedar-Springs-Rd-75219/unit-11/home/30764653,NTREIS,13934934,N,Y,32.8196373,-96.8211696
MLS Listing,,Condo/Co-op,4411 Bowser Ave #102,Dallas,TX,75219,309000,2,2.0,Nikko Condominiums,1314,24002,2008,197,235,323,Active,,,http://www.redfin.com/TX/Dallas/4411-Bowser-Ave-75219/unit-102/home/35537720,NTREIS,13934879,N,Y,32.8186982,-96.8118316
MLS Listing,,Single Family Residential,10615 Old Seagoville Rd,Dallas,TX,75217,350000,4,3.0,,3880,17642,1977,198,90,,Active,,,http://www.redfin.com/TX/Dallas/10615-Old-Seagoville-Rd-75217/home/31048956,NTREIS,13924629,N,Y,32.7053433,-96.6418227
MLS Listing,,Single Family Residential,702 Beckley Ave,Dallas,TX,75203,350000,3,3.0,Patton Addition,1720,7275,1935,201,203,,Active,,,http://www.redfin.com/TX/Dallas/702-N-Beckley-Ave-75203/home/30829760,NTREIS,13931770,N,Y,32.7508622,-96.8225977
MLS Listing,,Single Family Residential,9223 Angora St,Dallas,TX,75218,350000,3,2.5,Casa Linda Highlands,2092,15987,1950,218,167,,Active,,,http://www.redfin.com/TX/Dallas/9223-Angora-St-75218/home/30861420,NTREIS,13914764,N,Y,32.830386,-96.705633
MLS Listing,,Vacant Land,115 W 9th St,Dallas,TX,75208,300000,0,,Dallas Land & Loan 02,,5837,,222,,,Active,,,http://www.redfin.com/TX/Dallas/115-W-9th-St-75208/home/30826849,NTREIS,13917969,N,Y,32.7465539,-96.8235042
MLS Listing,,Single Family Residential,4322 Merrell Rd,Dallas,TX,75229,340000,3,2.0,Northcrest Rev,1500,6665,1952,224,227,,Active,,,http://www.redfin.com/TX/Dallas/4322-Merrell-Rd-75229/home/30878044,NTREIS,13916864,N,Y,32.887447,-96.8356233
MLS Listing,,Condo/Co-op,5909 Luther Ln #707,Dallas,TX,75225,349000,1,1.0,Shelton Condo,889,65993,1983,227,393,555,Active,,,http://www.redfin.com/TX/Dallas/5909-Luther-Ln-75225/unit-707/home/30776995,NTREIS,13911487,N,Y,32.8637187,-96.8111691
MLS Listing,,Single Family Residential,13040 Pennystone Dr,Farmers Branch,TX,75244,335000,3,2.0,Crestpark Club Estates,1970,10237,1969,229,170,,Active,March-30-2019 08:00 AM,March-30-2019 08:00 PM,http://www.redfin.com/TX/Farmers-Branch/13040-Pennystone-Dr-75244/home/31334701,NTREIS,13912378,N,Y,32.923172,-96.854254
MLS Listing,,Townhouse,9465 Timberleaf Dr,Dallas,TX,75243,325000,3,2.5,Timberleaf Lane Twnhms,1881,3006,2018,232,173,140,Active,,,http://www.redfin.com/TX/Dallas/9465-Timberleaf-Dr-75243/home/31071316,NTREIS,13911894,N,Y,32.9067789,-96.7340015
MLS Listing,,Condo/Co-op,5200 Keller Springs Rd #517,Dallas,TX,75248,349900,2,2.0,Bonaventure Condo,1685,331012,1981,233,208,807,Active,,,http://www.redfin.com/TX/Dallas/5200-Keller-Springs-Rd-75248/unit-517/home/31128987,NTREIS,13911431,N,Y,32.9683918,-96.8197626
MLS Listing,,Single Family Residential,2430 Gibbs Williams Rd,Dallas,TX,75233,324500,4,5.0,Green Hill,2491,10237,1960,239,130,,Active,,,http://www.redfin.com/TX/Dallas/2430-Gibbs-Williams-Rd-75233/home/30901221,NTREIS,13907003,N,Y,32.6979198,-96.8583439
MLS Listing,,Vacant Land,3 Terry Ln,Heath,TX,75032,330000,0,,Le Ruisseau,,95832,1968,240,,,Active,,,http://www.redfin.com/TX/Heath/3-Terry-Ln-75032/home/146450418,NTREIS,13897206,N,Y,32.8394653,-96.5001165
MLS Listing,,Single Family Residential,4305 Timberglen Rd,Dallas,TX,75287,300000,3,2.5,Parkway Village Sec Two,2079,6098,1988,244,144,33,Active,March-30-2019 08:00 AM,March-30-2019 08:00 PM,http://www.redfin.com/TX/Dallas/4305-Timberglen-Rd-75287/home/32028556,NTREIS,13901972,N,Y,33.0043069,-96.8367958
MLS Listing,,Single Family Residential,1703 Melbourne Ave,Dallas,TX,75224,349900,3,2.0,Elmwood Add,2063,10149,1948,245,170,,Active,,,http://www.redfin.com/TX/Dallas/1703-Melbourne-Ave-75224/home/30849939,NTREIS,13901760,N,Y,32.7235459,-96.8486056
MLS Listing,,Condo/Co-op,4830 Cedar Springs Rd #14,Dallas,TX,75219,330000,3,2.5,Carreras Townhomes Condominium,1601,84681,2005,246,206,280,Active,,,http://www.redfin.com/TX/Dallas/4830-Cedar-Springs-Rd-75219/unit-14/home/30764652,NTREIS,13880718,N,Y,32.8196373,-96.8211696
MLS Listing,,Vacant Land,1919 Pollard St,Dallas,TX,75208,325000,0,,Lyons,,8581,,269,,,Active,,,http://www.redfin.com/TX/Dallas/1919-Pollard-St-75208/home/30987207,NTREIS,13882933,N,Y,32.771993,-96.851047
MLS Listing,,Single Family Residential,522 Wentworth,Richardson,TX,75081,312000,4,3.0,Richland Park 3rd sec,2268,9017,1976,273,138,,Active,,,http://www.redfin.com/TX/Richardson/522-Wentworth-Dr-75081/home/31974550,NTREIS,13880312,N,Y,32.9257357,-96.726445
MLS Listing,,Single Family Residential,6914 Prosper St,Dallas,TX,75209,300000,2,2.0,Mount Vernon Heights,1768,6316,1944,277,170,,Active,,,http://www.redfin.com/TX/Dallas/6914-Prosper-St-75209/home/30855235,NTREIS,13875634,N,Y,32.8426466,-96.8282539
MLS Listing,,Single Family Residential,1005 Windham Dr,Rockwall,TX,75087,349990,4,2.0,Castle Ridge Estates Ph 3,2419,10019,2018,279,145,33,Active,,,http://www.redfin.com/TX/Rockwall/1005-Windham-Dr-75087/home/143990732,NTREIS,13874797,N,Y,32.97446,-96.47378
MLS Listing,,Vacant Land,1843 Pollard St,Dallas,TX,75208,310000,0,,Oneal & Huffmans Rev,,7492,1925,292,,,Active,,,http://www.redfin.com/TX/Dallas/1843-Pollard-St-75208/home/30987171,NTREIS,13863024,N,Y,32.771896,-96.8497783
MLS Listing,,Single Family Residential,2718 Kimsey Dr,Dallas,TX,75235,350000,2,2.0,Maple Lawn Terrace Add,952,7492,1936,326,368,,Active,,,http://www.redfin.com/TX/Dallas/2718-Kimsey-Dr-75235/home/30882269,NTREIS,13837265,N,Y,32.8250401,-96.8364504
MLS Listing,,Single Family Residential,2706 Kimsey Dr,Dallas,TX,75235,350000,2,1.0,Maple Lawn Terrace,648,7492,1936,330,540,,Active,,,http://www.redfin.com/TX/Dallas/2706-Kimsey-Dr-75235/home/30882279,NTREIS,13835504,N,Y,32.8247148,-96.8367854
MLS Listing,,Condo/Co-op,5122 Westgrove Dr,Dallas,TX,75248,349900,2,2.5,Lakes Of Bent Tree Condo,2128,,1982,332,164,656,Active,,,http://www.redfin.com/TX/Dallas/5122-Westgrove-Dr-75248/home/31174174,NTREIS,13831872,N,Y,32.9761059,-96.8212228
MLS Listing,,Single Family Residential,4606 Capitol Ave,Dallas,TX,75204,310000,2,2.0,Golf Pak,1404,6490,1940,340,221,,Active,,,http://www.redfin.com/TX/Dallas/4606-Capitol-Ave-75204/home/30809486,NTREIS,13825480,N,Y,32.808881,-96.7846239
MLS Listing,,Single Family Residential,1310 Duluth St,Dallas,TX,75212,300000,2,1.0,Cement City,980,7144,1948,376,306,,Active,,,http://www.redfin.com/TX/Dallas/1310-Duluth-St-75212/home/30987383,NTREIS,13797823,N,Y,32.7766271,-96.8427004
MLS Listing,,Vacant Land,4215 Memory Lane Blvd,Dallas,TX,75241,300000,0,,Pleasant View Plantations,,212486,,418,,,Active,,,http://www.redfin.com/TX/Dallas/4215-Memory-Ln-Blvd-75241/home/31089499,NTREIS,13770866,N,Y,32.663426,-96.753919
MLS Listing,,Single Family Residential,2122 S Vernon Ave,Dallas,TX,75224,350000,5,4.5,Wme,4471,12415,1958,519,78,,Active,,,http://www.redfin.com/TX/Dallas/2122-S-Vernon-Ave-75224/home/31137918,NTREIS,13720245,N,Y,32.7246731,-96.836398
MLS Listing,,Condo/Co-op,1200 Main St #1104,Dallas,TX,75202,308900,1,2.0,Metropolitan 1200 Main St Condo,1169,44997,1974,529,264,539,Active,March-31-2019 02:00 PM,March-31-2019 04:00 PM,http://www.redfin.com/TX/Dallas/1200-Main-St-75202/unit-1104/home/144316045,NTREIS,13703124,N,Y,32.7797086,-96.801404
New Construction Home,,Single Family Residential,7509 Sunset Blvd,Rowlett,TX,75088,344482,3,2.5,Bayside,1912,,2019,31,180,,Active,,,http://www.redfin.com/TX/Rowlett/7509-Sunset-Blvd-75088/home/160543770,NewHomeSource.com,1594455,N,Y,32.881291,-96.528853
New Construction Home,,Single Family Residential,1909 Edgewater Dr,Garland,TX,75043,349990,3,2.5,Hillside On The Lake,2186,,2019,54,160,,Active,,,http://www.redfin.com/TX/Garland/1909-Edgewater-Dr-75043/home/143414275,NewHomeSource.com,1581415,N,Y,32.864804,-96.574535
New Construction Home,,Single Family Residential,7500 Palisades Dr,Rowlett,TX,75088,307648,3,2.5,Bayside,1912,,2018,192,161,,Active,,,http://www.redfin.com/TX/Dallas/7500-Palisades-Dr-75088/home/147121309,NewHomeSource.com,1516936,N,Y,32.881291,-96.528853
New Construction Home,,Single Family Residential,7424 Palisades Dr,Rowlett,TX,75088,305085,3,2.5,Bayside,2017,,2018,192,151,,Active,,,http://www.redfin.com/TX/Dallas/7424-Palisades-Dr-75088/home/147121308,NewHomeSource.com,1516938,N,Y,32.881291,-96.528853
New Construction Home,,Single Family Residential,7428 Palisades Dr,Rowlett,TX,75088,318631,3,2.5,Bayside,1878,,2018,192,170,,Active,,,http://www.redfin.com/TX/Dallas/7428-Palisades-Dr-75088/home/147121305,NewHomeSource.com,1516940,N,Y,32.881291,-96.528853
New Construction Home,,Single Family Residential,7508 Palisades Dr,Rowlett,TX,75088,301008,3,2.5,Bayside,1683,,2018,234,179,,Active,,,http://www.redfin.com/TX/Rowlett/7508-Palisades-Dr-75088/home/146509944,NewHomeSource.com,1485256,N,Y,32.881291,-96.528853
New Construction Home,,Single Family Residential,7512 Palisades Dr,Rowlett,TX,75088,304377,3,2.5,Bayside,2017,,2018,234,151,,Active,,,http://www.redfin.com/TX/Rowlett/7512-Palisades-Dr-75088/home/146527331,NewHomeSource.com,1485262,N,Y,32.881291,-96.528853
New Construction Home,,Single Family Residential,7504 Palisades Dr,Rowlett,TX,75088,303990,3,2.5,Bayside,1878,,2018,234,162,,Active,,,http://www.redfin.com/TX/Rowlett/7504-Palisades-Dr-75088/home/146527327,NewHomeSource.com,1485259,N,Y,32.881291,-96.528853
New Construction Plan,,Single Family Residential,Westchester 2410 FSW (w/Game),Wylie,TX,75098,323950,4,2.5,Grayhawk Park,2685,,,,121,,Active,,,http://www.redfin.com/TX/Unknown/Grayhawk-Park/Westchester-2410-FSW-w-Game/home/148262990,NewHomeSource.com,Plan-81549040,N,Y,33.009722,-96.497074
New Construction Plan,,Single Family Residential,Mckinney,Wylie,TX,75098,309990,3,2.0,Grayhawk Park,2165,,,,143,,Active,,,http://www.redfin.com/TX/Unknown/Grayhawk-Park/Mckinney/home/160686160,NewHomeSource.com,Plan-71615367,N,Y,33.009401,-96.497083
New Construction Plan,,Single Family Residential,Sheldon,Wylie,TX,75098,318990,3,2.0,Grayhawk Park,2210,,,,144,,Active,,,http://www.redfin.com/TX/Unknown/Grayhawk-Park/Sheldon/home/160686159,NewHomeSource.com,Plan-71615368,N,Y,33.009401,-96.497083
New Construction Plan,,Single Family Residential,Lockhart,Wylie,TX,75098,330990,3,2.5,Grayhawk Park,2600,,,,127,,Active,,,http://www.redfin.com/TX/Unknown/Grayhawk-Park/Lockhart/home/160686158,NewHomeSource.com,Plan-71615369,N,Y,33.009401,-96.497083
New Construction Plan,,Single Family Residential,Mooreville,Wylie,TX,75098,332990,3,3.0,Grayhawk Park,2640,,,,126,,Active,,,http://www.redfin.com/TX/Unknown/Grayhawk-Park/Mooreville/home/160686157,NewHomeSource.com,Plan-71615370,N,Y,33.009401,-96.497083
New Construction Plan,,Single Family Residential,San Marcos,Wylie,TX,75098,335990,4,2.5,Grayhawk Park,2714,,,,124,,Active,,,http://www.redfin.com/TX/Unknown/Grayhawk-Park/San-Marcos/home/160686155,NewHomeSource.com,Plan-71615371,N,Y,33.009401,-96.497083
New Construction Plan,,Single Family Residential,Beaumont,Wylie,TX,75098,342990,4,2.5,Grayhawk Park,2903,,,,118,,Active,,,http://www.redfin.com/TX/Unknown/Grayhawk-Park/Beaumont/home/160686154,NewHomeSource.com,Plan-71615372,N,Y,33.009401,-96.497083
New Construction Plan,,Single Family Residential,Caldwell,Wylie,TX,75098,346990,4,2.0,Grayhawk Park,3122,,,,111,,Active,,,http://www.redfin.com/TX/Unknown/Grayhawk-Park/Caldwell/home/160686153,NewHomeSource.com,Plan-71615373,N,Y,33.009401,-96.497083
New Construction Plan,,Single Family Residential,Bryant,Garland,TX,75043,331990,4,2.0,Hillside On The Lake,2529,,,,131,,Active,,,http://www.redfin.com/TX/Garland/Hillside-On-The-Lake/Bryant/home/146244447,NewHomeSource.com,Plan-81440814,N,Y,32.864322,-96.57595
New Construction Plan,,Single Family Residential,Addison,Wylie,TX,75098,346990,4,2.0,Grayhawk Park,3264,,,,106,,Active,,,http://www.redfin.com/TX/Unknown/Grayhawk-Park/Addison/home/160499364,NewHomeSource.com,Plan-71539500,N,Y,33.009401,-96.497083
New Construction Plan,,Single Family Residential,Weston,Wylie,TX,75098,335990,4,2.5,Grayhawk Park,3083,,,,109,,Active,,,http://www.redfin.com/TX/Unknown/Grayhawk-Park/Weston/home/160571621,NewHomeSource.com,Plan-71539499,N,Y,33.009401,-96.497083
New Construction Plan,,Single Family Residential,Kennedale,Wylie,TX,75098,334990,4,2.0,Grayhawk Park,2837,,,,118,,Active,,,http://www.redfin.com/TX/Unknown/Grayhawk-Park/Kennedale/home/160629699,NewHomeSource.com,Plan-71539498,N,Y,33.009401,-96.497083
New Construction Plan,,Multi-Family (2-4 Unit),Princeton,Dallas,TX,75252,338900,3,2.5,University Place,1927,,,,176,,Active,,,http://www.redfin.com/TX/Dallas/University-Place/Princeton/home/148564369,NewHomeSource.com,Plan-71572462,N,Y,32.992538,-96.761867
New Construction Plan,,Multi-Family (2-4 Unit),Harvard,Dallas,TX,75252,339900,3,2.5,University Place,1927,,,,176,,Active,,,http://www.redfin.com/TX/Dallas/University-Place/Harvard/home/148564368,NewHomeSource.com,Plan-71572463,N,Y,32.992538,-96.761867
New Construction Plan,,Multi-Family (2-4 Unit),Cambridge,Dallas,TX,75252,339900,3,2.5,University Place,1923,,,,177,,Active,,,http://www.redfin.com/TX/Dallas/University-Place/Cambridge/home/148564367,NewHomeSource.com,Plan-71572464,N,Y,32.992538,-96.761867
New Construction Plan,,Multi-Family (2-4 Unit),Oxford,Dallas,TX,75252,341900,3,2.5,University Place,1932,,,,177,,Active,,,http://www.redfin.com/TX/Dallas/University-Place/Oxford/home/148564366,NewHomeSource.com,Plan-71572465,N,Y,32.992538,-96.761867
New Construction Plan,,Single Family Residential,Northlake,Wylie,TX,75098,321990,4,2.0,Grayhawk Park,2740,,,,118,,Active,,,http://www.redfin.com/TX/Unknown/Grayhawk-Park/Northlake/home/160571622,NewHomeSource.com,Plan-71539497,N,Y,33.009401,-96.497083
New Construction Plan,,Single Family Residential,Argyle,Wylie,TX,75098,308990,3,2.0,Grayhawk Park,2354,,,,131,,Active,,,http://www.redfin.com/TX/Unknown/Grayhawk-Park/Argyle/home/160571623,NewHomeSource.com,Plan-71539495,N,Y,33.009401,-96.497083
New Construction Plan,,Single Family Residential,Dunlay,Wylie,TX,75098,314990,4,2.0,Grayhawk Park,2517,,,,125,,Active,,,http://www.redfin.com/TX/Unknown/Grayhawk-Park/Dunlay/home/160499365,NewHomeSource.com,Plan-71539496,N,Y,33.009401,-96.497083
New Construction Plan,,Single Family Residential,Preserve,Garland,TX,75043,314990,4,2.5,Hillside On The Lake,2186,,,,144,,Active,,,http://www.redfin.com/TX/Garland/Hillside-On-The-Lake/Preserve/home/113808172,NewHomeSource.com,Plan-71422912,N,Y,32.864322,-96.57595
New Construction Plan,,Single Family Residential,Hillcrest F (w/Media),Wylie,TX,75098,345950,5,3.5,Grayhawk Park,3788,,,,91,,Active,,,http://www.redfin.com/TX/Wylie/Grayhawk-Park/Hillcrest-F-w-Media/home/145204880,NewHomeSource.com,Plan-71411369,N,Y,33.009722,-96.497074
New Construction Plan,,Single Family Residential,Stonehaven F,Wylie,TX,75098,336950,5,3.5,Grayhawk Park,3520,,,,96,,Active,,,http://www.redfin.com/TX/Wylie/Grayhawk-Park/Stonehaven-F/home/145204882,NewHomeSource.com,Plan-71411367,N,Y,33.009722,-96.497074
New Construction Plan,,Single Family Residential,Newport F,Wylie,TX,75098,336950,5,3.5,Grayhawk Park,3520,,,,96,,Active,,,http://www.redfin.com/TX/Wylie/Grayhawk-Park/Newport-F/home/145204881,NewHomeSource.com,Plan-71411368,N,Y,33.009722,-96.497074
New Construction Plan,,Single Family Residential,Whitley,Garland,TX,75043,341990,4,3.5,Hillside On The Lake,2768,,,,124,,Active,,,http://www.redfin.com/TX/Garland/Hillside-On-The-Lake/Whitley/home/113604889,NewHomeSource.com,Plan-71422916,N,Y,32.864322,-96.57595
New Construction Plan,,Single Family Residential,Birchwood FSW (w/Media),Wylie,TX,75098,333950,4,3.5,Grayhawk Park,3319,,,,101,,Active,,,http://www.redfin.com/TX/Wylie/Grayhawk-Park/Birchwood-FSW-w-Media/home/145204883,NewHomeSource.com,Plan-71411366,N,Y,33.009722,-96.497074
New Construction Plan,,Single Family Residential,Hilton FSW,Wylie,TX,75098,329950,4,3.5,Grayhawk Park,2926,,,,113,,Active,,,http://www.redfin.com/TX/Wylie/Grayhawk-Park/Hilton-FSW/home/145204885,NewHomeSource.com,Plan-71411365,N,Y,33.009722,-96.497074
New Construction Plan,,Single Family Residential,Richland,Garland,TX,75043,326990,4,3.0,Hillside On The Lake,2356,,,,139,,Active,,,http://www.redfin.com/TX/Garland/Hillside-On-The-Lake/Richland/home/113808171,NewHomeSource.com,Plan-71422914,N,Y,32.864322,-96.57595
New Construction Plan,,Single Family Residential,Brighton FSW,Wylie,TX,75098,323950,4,2.5,Grayhawk Park,2846,,,,114,,Active,,,http://www.redfin.com/TX/Wylie/Grayhawk-Park/Brighton-FSW/home/145204886,NewHomeSource.com,Plan-71411364,N,Y,33.009722,-96.497074
New Construction Plan,,Single Family Residential,Bradford F,Wylie,TX,75098,318950,4,2.5,Grayhawk Park,2836,,,,112,,Active,,,http://www.redfin.com/TX/Wylie/Grayhawk-Park/Bradford-F/home/145204888,NewHomeSource.com,Plan-71411362,N,Y,33.009722,-96.497074
New Construction Plan,,Single Family Residential,Brittany 40 FSW,Wylie,TX,75098,316950,4,2.5,Grayhawk Park,2719,,,,117,,Active,,,http://www.redfin.com/TX/Wylie/Grayhawk-Park/Brittany-40-FSW/home/145204889,NewHomeSource.com,Plan-71411361,N,Y,33.009722,-96.497074
New Construction Plan,,Single Family Residential,Westchester 2410 FSW,Wylie,TX,75098,313950,4,2.5,Grayhawk Park,2410,,,,130,,Active,,,http://www.redfin.com/TX/Wylie/Grayhawk-Park/Westchester-2410-FSW/home/145204890,NewHomeSource.com,Plan-71411360,N,Y,33.009722,-96.497074
New Construction Plan,,Single Family Residential,Seville 2323 F,Wylie,TX,75098,304950,3,2.0,Grayhawk Park,2323,,,,131,,Active,,,http://www.redfin.com/TX/Wylie/Grayhawk-Park/Seville-2323-F/home/145204891,NewHomeSource.com,Plan-71411359,N,Y,33.009722,-96.497074
