SALE TYPE,SOLD DATE,PROPERTY TYPE,ADDRESS,CITY,STATE OR PROVINCE,ZIP OR POSTAL CODE,PRICE,BEDS,BATHS,LOCATION,SQUARE FEET,LOT SIZE,YEAR BUILT,DAYS ON MARKET,$/SQUARE FEET,HOA/MONTH,STATUS,NEXT OPEN HOUSE START TIME,NEXT OPEN HOUSE END TIME,URL (SEE http://www.redfin.com/buy-a-home/comparative-market-analysis FOR INFO ON PRICING),SOURCE,MLS#,FAVORITE,INTERESTED,LATITUDE,LONGITUDE
MLS Listing,,Single Family Residential,6614 Brookshire Dr,Dallas,TX,75230,2199000,5,6.0,Waggoner Place,6609,15682,2005,1,333,,Active,,,http://www.redfin.com/TX/Dallas/6614-Brookshire-Dr-75230/home/30876170,NTREIS,14048177,N,Y,32.8890311,-96.7908545
MLS Listing,,Single Family Residential,5940 Azalea Ln,Dallas,TX,75230,2549000,5,6.5,Preston Royal,6158,18295,2014,1,414,,Active,March-31-2019 01:00 PM,March-31-2019 03:00 PM,http://www.redfin.com/TX/Dallas/5940-Azalea-Ln-75230/home/30876843,NTREIS,14053496,N,Y,32.8981597,-96.8055648
MLS Listing,,Single Family Residential,4441 S Versailles Ave,Highland Park,TX,75205,6950000,6,11.0,Highland Park,11698,13068,2008,2,594,,Active,,,http://www.redfin.com/TX/Dallas/4441-S-Versailles-Ave-75205/home/32068740,NTREIS,14053156,N,Y,32.8302639,-96.8120316
MLS Listing,,Single Family Residential,4425 Pomona Rd,Dallas,TX,75209,2499000,5,6.0,Bluffview Estates,6259,12284,2019,3,399,,Active,,,http://www.redfin.com/TX/Dallas/4425-Pomona-Rd-75209/home/30854402,NTREIS,14051953,N,Y,32.8549854,-96.8335716
MLS Listing,,Single Family Residential,3301 Wentwood Dr,University Park,TX,75225,2350000,5,6.5,University Heights,6069,10498,2008,3,387,,Active,March-31-2019 01:00 PM,March-31-2019 03:00 PM,http://www.redfin.com/TX/Dallas/3301-Wentwood-Dr-75225/home/32106545,NTREIS,14050775,N,Y,32.8630259,-96.7853312
MLS Listing,,Single Family Residential,3868 Potomac Ave,Highland Park,TX,75205,6295000,4,4.5,Mount Vernon 03,5786,16771,1917,4,1088,,Active,,,http://www.redfin.com/TX/Dallas/3868-Potomac-Ave-75205/home/32091916,NTREIS,14051310,N,Y,32.8379445,-96.7982197
MLS Listing,,Condo/Co-op,3505 Turtle Creek Blvd Unit 9A,Dallas,TX,75219,3150000,3,4.5,Vendome On Turtle Creek Condo,4780,90997,2002,4,659,2876,Active,,,http://www.redfin.com/TX/Dallas/3505-Turtle-Creek-Blvd-75219/unit-9A/home/30731963,NTREIS,14051557,N,Y,32.8107585,-96.8037023
MLS Listing,,Vacant Land,4509 Chiesa Rd,Rowlett,TX,75088,2500000,0,,Sunset trailer Court,,600692,,4,,,Active,,,http://www.redfin.com/TX/Rowlett/4509-Chiesa-Rd-75088/home/30738058,NTREIS,14051115,N,Y,32.90186,-96.532668
MLS Listing,,Condo/Co-op,1717 Arts Plz #2303,Dallas,TX,75201,2250000,2,2.5,One Arts Plaza,3153,,2007,5,714,2189,Active,,,http://www.redfin.com/TX/Dallas/1717-Arts-Plz-75201/unit-2303/home/30782518,NTREIS,14046935,N,Y,32.791964,-96.7951229
MLS Listing,,Vacant Land,4408 Mckinney Ave,Dallas,TX,75205,8950000,0,,Cockrell Fairland Rev,,30000,1975,5,,,Active,,,http://www.redfin.com/TX/Dallas/4408-McKinney-Ave-75205/home/30799187,NTREIS,14050435,N,Y,32.8195972,-96.7887623
MLS Listing,,Single Family Residential,4421 Bluffview Blvd,Dallas,TX,75209,3499000,5,5.5,Bluffview Estates,6676,18513,2014,5,524,,Active,March-31-2019 02:00 PM,March-31-2019 03:30 PM,http://www.redfin.com/TX/Dallas/4421-Bluffview-Blvd-75209/home/30854431,NTREIS,14049262,N,Y,32.8556206,-96.8347859
MLS Listing,,Single Family Residential,11011 Jamestown Rd,Dallas,TX,75230,2395000,5,5.5,Northaven Park,5824,18426,2019,8,411,,Active,,,http://www.redfin.com/TX/Dallas/11011-Jamestown-Rd-75230/home/30926176,NTREIS,14049307,N,Y,32.8986143,-96.8075176
MLS Listing,,Single Family Residential,3301 Cornell Ave,Highland Park,TX,75205,2599000,5,6.0,Highland Park,5792,10498,2004,8,449,,Active,March-31-2019 01:00 PM,March-31-2019 03:00 PM,http://www.redfin.com/TX/Dallas/3301-Cornell-Ave-75205/home/32065623,NTREIS,14049016,N,Y,32.8332008,-96.7854149
MLS Listing,,Single Family Residential,3413 Marquette St,University Park,TX,75225,2395000,5,5.5,University Heights,5334,10498,1993,8,449,,Active,March-31-2019 02:00 PM,March-31-2019 04:00 PM,http://www.redfin.com/TX/Dallas/3413-Marquette-St-75225/home/32105553,NTREIS,14048694,N,Y,32.8610572,-96.7876744
MLS Listing,,Single Family Residential,4224 Beverly Dr,Highland Park,TX,75205,2500000,4,3.5,Highland Park,3907,13939,1929,8,640,,Active,,,http://www.redfin.com/TX/Dallas/4224-Beverly-Dr-75205/home/32068968,NTREIS,14047998,N,Y,32.8324062,-96.8061089
MLS Listing,,Single Family Residential,765 Evergreen Hills Rd,Dallas,TX,75208,2000000,4,4.5,Kessler Park Add 5,4330,17424,2019,9,462,,Active,,,http://www.redfin.com/TX/Dallas/765-Evergreen-Hills-Rd-75208/home/143838020,NTREIS,14048334,N,Y,32.7646368,-96.8346802
MLS Listing,,Single Family Residential,4604 Lakeside Dr,Highland Park,TX,75205,6750000,4,4.5,Highland Park 2ns Inst,6950,22303,1919,10,971,,Active,,,http://www.redfin.com/TX/Dallas/4604-Lakeside-Dr-75205/home/32064359,NTREIS,14046516,N,Y,32.8272194,-96.800668
MLS Listing,,Single Family Residential,11887 Doolin Ct,Dallas,TX,75230,2895000,3,3.5,Iris Hollow,5429,16945,2013,10,533,250,Active,,,http://www.redfin.com/TX/Dallas/11887-Doolin-Ct-75230/home/49674044,NTREIS,14046380,N,Y,32.9107545,-96.7899549
MLS Listing,,Single Family Residential,7139 Hillgreen Dr,Dallas,TX,75214,2495000,5,5.0,CLOISTERS ESTATES,5380,44867,1979,11,464,,Active,,,http://www.redfin.com/TX/Dallas/7139-Hillgreen-Dr-75214/home/30845479,NTREIS,14035924,N,Y,32.8440868,-96.7312317
MLS Listing,,Single Family Residential,2708 Daniel Ave,University Park,TX,75205,2065000,4,4.5,Landrums,5248,11587,2018,11,393,,Active,,,http://www.redfin.com/TX/Dallas/2708-Daniel-Ave-75205/home/32087787,NTREIS,14046422,N,Y,32.8469234,-96.7737631
MLS Listing,,Condo/Co-op,1918 Olive St #3902,Dallas,TX,75201,5500000,3,3.5,Museum Tower Condo,4587,67649,2012,11,1199,3991,Active,,,http://www.redfin.com/TX/Dallas/1918-Olive-St-75201/unit-3902/home/160706210,NTREIS,14045942,N,Y,32.7891925,-96.8000171
MLS Listing,,Condo/Co-op,3505 Turtle Creek Blvd Unit 2A,Dallas,TX,75219,2695000,3,4.5,Vendome On Turtle Creek,4200,90997,2000,11,642,2876,Active,,,http://www.redfin.com/TX/Dallas/3505-Turtle-Creek-Blvd-75219/unit-2A/home/30731949,NTREIS,14045376,N,Y,32.8107585,-96.8037023
MLS Listing,,Multi-Family (5+ Unit),5708 Hudson St,Dallas,TX,75206,2500000,0,,Ross Ave Heights,10840,19384,1964,11,231,,Active,,,http://www.redfin.com/TX/Dallas/5708-Hudson-St-75206/home/30798649,NTREIS,14046129,N,Y,32.8097454,-96.7681741
MLS Listing,,Single Family Residential,5744 Brookstown,Dallas,TX,75230,2100000,5,5.5,Melshire Estates,5485,16117,2015,11,383,,Active,,,http://www.redfin.com/TX/Dallas/5744-Brookstown-Dr-75230/home/30925560,NTREIS,14041179,N,Y,32.9104826,-96.8094574
MLS Listing,,Single Family Residential,4592 Belfort Ave,Highland Park,TX,75205,2550000,4,4.5,Highland Park West 1,5089,6752,2013,12,501,,Active,April-14-2019 01:00 PM,April-14-2019 03:00 PM,http://www.redfin.com/TX/Dallas/4592-Belfort-Pl-75205/home/32067370,NTREIS,14045089,N,Y,32.8260906,-96.8157781
MLS Listing,,Single Family Residential,4408 Lorraine Ave,Highland Park,TX,75205,2100000,3,4.5,Highland Park,3711,11935,1939,12,566,,Active,,,http://www.redfin.com/TX/Dallas/4408-Lorraine-Ave-75205/home/32068775,NTREIS,14045116,N,Y,32.8292978,-96.810441
MLS Listing,,Single Family Residential,3528 Marquette St,University Park,TX,75225,3495000,6,7.0,University Heights,6833,10498,2015,12,511,,Active,March-31-2019 02:00 PM,March-31-2019 04:00 PM,http://www.redfin.com/TX/Dallas/3528-Marquette-St-75225/home/32105594,NTREIS,14043947,N,Y,32.8616736,-96.790457
MLS Listing,,Single Family Residential,3825 Wentwood Dr,University Park,TX,75225,2495000,5,5.5,University Heights,5297,10498,2003,12,471,,Active,March-31-2019 02:00 PM,March-31-2019 04:00 PM,http://www.redfin.com/TX/Dallas/3825-Wentwood-Dr-75225/home/32106851,NTREIS,14040795,N,Y,32.8630688,-96.7974664
MLS Listing,,Single Family Residential,4021 Marquette St,University Park,TX,75225,2225000,4,5.5,University Heights,5846,12153,2005,12,381,,Active,,,http://www.redfin.com/TX/Dallas/4021-Marquette-St-75225/home/32105770,NTREIS,14044191,N,Y,32.8605856,-96.803221
MLS Listing,,Single Family Residential,3809 Caruth Blvd,University Park,TX,75225,2799000,6,6.5,University Heights 4th Sec Amd,7303,13199,1994,12,383,,Active,,,http://www.redfin.com/TX/Dallas/3809-Caruth-Blvd-75225/home/32105924,NTREIS,14044255,N,Y,32.858864,-96.7973827
MLS Listing,,Single Family Residential,3605 Wentwood Dr,University Park,TX,75225,3499000,5,7.0,University Heights Sec 06,6548,10498,2013,12,534,,Active,March-31-2019 02:00 PM,March-31-2019 04:00 PM,http://www.redfin.com/TX/Dallas/3605-Wentwood-Dr-75225/home/32106777,NTREIS,14044231,N,Y,32.8630693,-96.7926121
MLS Listing,,Single Family Residential,12114 Prestonridge Rd,Dallas,TX,75230,2250000,5,6.0,Shiremont 02,6226,16117,2017,12,361,,Active,,,http://www.redfin.com/TX/Dallas/12114-Prestonridge-Rd-75230/home/31018520,NTREIS,14045125,N,Y,32.9139427,-96.7917084
MLS Listing,,Single Family Residential,3701 Marquette St,University Park,TX,75225,2799000,6,7.0,University Heights Add Sec 05,6556,10498,2004,12,427,,Active,,,http://www.redfin.com/TX/Dallas/3701-Marquette-St-75225/home/32105651,NTREIS,14036976,N,Y,32.8610495,-96.7946835
MLS Listing,,Single Family Residential,4445 Larchmont St,University Park,TX,75205,2100000,5,5.5,Armstrong Fairway 2nd Inst,5000,7013,2016,13,420,,Active,,,http://www.redfin.com/TX/Dallas/4445-Larchmont-St-75205/home/32053850,NTREIS,14043756,N,Y,32.8431377,-96.812806
MLS Listing,,Single Family Residential,6606 Northaven Rd,Dallas,TX,75230,2424000,5,6.0,Hillcrest Estates,5358,63249,1964,14,452,3,Active,March-31-2019 02:00 AM,March-31-2019 04:00 PM,http://www.redfin.com/TX/Dallas/6606-Northaven-Rd-75230/home/31023607,NTREIS,14043025,N,Y,32.9015478,-96.7928573
MLS Listing,,Single Family Residential,,Dallas,TX,75229,3750000,5,7.5,Taylor Estates,10820,43560,1997,15,347,,Active,,,http://www.redfin.com/TX/Dallas/Undisclosed-address-75229/home/30878467,NTREIS,14044127,N,Y,32.8810155,-96.8253382
MLS Listing,,Vacant Land,3600 Crescent Ave,Highland Park,TX,75205,5499000,0,,Highland Park,,1,1919,15,,,Active,,,http://www.redfin.com/TX/Dallas/3600-Crescent-Ave-75205/home/32064429,NTREIS,14044259,N,Y,32.8246583,-96.7947014
MLS Listing,,Single Family Residential,2908 Hood St,Dallas,TX,75219,2295000,4,5.5,Regents Park,6547,3615,2003,15,351,665,Active,March-31-2019 03:00 PM,March-31-2019 04:30 PM,http://www.redfin.com/TX/Dallas/2908-Hood-St-75219/home/32212174,NTREIS,14039068,N,Y,32.8062661,-96.8080153
MLS Listing,,Single Family Residential,3521 Wentwood Dr,University Park,TX,75225,2895000,5,6.5,University Heights,6183,10498,2007,15,468,,Active,April-14-2019 02:00 PM,April-14-2019 04:00 PM,http://www.redfin.com/TX/Dallas/3521-Wentwood-Dr-75225/home/32106682,NTREIS,14035818,N,Y,32.8630348,-96.7900176
MLS Listing,,Single Family Residential,7110 Greenbrook Ln,Dallas,TX,75214,2249000,4,5.0,Green Cove Estates,5538,25831,2014,15,406,,Active,March-31-2019 01:30 PM,March-31-2019 03:00 PM,http://www.redfin.com/TX/Dallas/7110-Greenbrook-Ln-75214/home/30845446,NTREIS,14022591,N,Y,32.8440565,-96.7358724
MLS Listing,,Single Family Residential,6637 Northaven Rd,Dallas,TX,75230,2897630,4,5.0,Hillcrest Estates,7441,41121,2007,16,389,,Active,,,http://www.redfin.com/TX/Dallas/6637-Northaven-Rd-75230/home/31023895,NTREIS,14042400,N,Y,32.902448742,-96.79201441
MLS Listing,,Condo/Co-op,2300 Wolf St Unit 20A&B,Dallas,TX,75201,7195000,3,4.5,Residences at the Stoneleigh,7500,,2008,16,959,5300,Active,,,http://www.redfin.com/TX/Dallas/2300-Wolf-St-75201/unit-20A-B/home/113105221,NTREIS,14042899,N,Y,32.7972022,-96.8077287
MLS Listing,,Multi-Family (5+ Unit),4104 Cole,Dallas,TX,75205,4100000,0,,Elizabeth Court,18200,18295,1983,18,225,,Active,,,http://www.redfin.com/TX/Dallas/4104-Cole-Ave-75204/unit-104/home/31169604,NTREIS,14041417,N,Y,32.814666,-96.7936308
MLS Listing,,Multi-Family (5+ Unit),4230 Mckinney Ave,Dallas,TX,75205,2995000,0,,Cockrell Fairland Rev,9550,14985,1972,18,314,,Active,,,http://www.redfin.com/TX/Dallas/4230-McKinney-Ave-75205/home/30799071,NTREIS,14041356,N,Y,32.817068,-96.7901013
MLS Listing,,Single Family Residential,3836 Maplewood Ave,Highland Park,TX,75205,2975000,5,4.5,Highland Park,4887,14157,1996,18,609,,Active,,,http://www.redfin.com/TX/Dallas/3836-Maplewood-Ave-75205/home/32064023,NTREIS,14040478,N,Y,32.8355531,-96.7982406
MLS Listing,,Single Family Residential,11842 Doolin Ct,Dallas,TX,75230,2295000,4,4.5,Iris Hollow,5241,16248,2016,19,438,150,Active,,,http://www.redfin.com/TX/Dallas/11842-Doolin-Ct-75230/home/45517139,NTREIS,14040237,N,Y,32.9101841,-96.7894208
MLS Listing,,Single Family Residential,3101 Amherst Ave,University Park,TX,75225,2650000,5,5.5,Caruth Hills,5657,9583,2018,20,468,,Active,,,http://www.redfin.com/TX/Dallas/3101-Amherst-Ave-75225/home/32056924,NTREIS,14038829,N,Y,32.8518279,-96.7803732
MLS Listing,,Single Family Residential,5319 Bent Tree Dr,Dallas,TX,75248,2500000,5,6.5,Bent Tree,8413,22041,2005,22,297,,Active,,,http://www.redfin.com/TX/Dallas/5319-Bent-Tree-Dr-75248/home/31086542,NTREIS,14039442,N,Y,32.9797644,-96.8175572
MLS Listing,,Single Family Residential,5514 Edlen Dr,Dallas,TX,75220,4799000,6,8.0,Inwood,9130,27791,2018,22,526,,Active,,,http://www.redfin.com/TX/Dallas/5514-Edlen-Dr-75220/home/30879960,NTREIS,14039123,N,Y,32.8782591,-96.8132037
MLS Listing,,Single Family Residential,4818 Irvin Simmons Dr,Dallas,TX,75229,2750000,5,7.0,Royal Gardens,6050,22259,2010,22,455,,Active,,,http://www.redfin.com/TX/Dallas/4818-Irvin-Simmons-Dr-75229/home/30877284,NTREIS,14035083,N,Y,32.895911,-96.8255116
MLS Listing,,Single Family Residential,5941 Club Oaks Dr,Dallas,TX,75248,2195000,6,6.0,CLUB OAKS ANNEX,7543,18165,1977,22,291,,Active,,,http://www.redfin.com/TX/Dallas/5941-Club-Oaks-Dr-75248/home/31088781,NTREIS,14036685,N,Y,32.9849876,-96.8181433
MLS Listing,,Single Family Residential,5934 Walnut Hill Ln,Dallas,TX,75230,2875000,6,9.0,John Howell Abs 580,7144,34848,2004,23,402,,Active,,,http://www.redfin.com/TX/Dallas/5934-Walnut-Hill-Ln-75230/home/30879854,NTREIS,14032774,N,Y,32.87968,-96.805135
MLS Listing,,Single Family Residential,4421 Belclaire Ave,Highland Park,TX,75205,2000000,5,4.5,Highland Park,4815,10585,1938,23,415,,Active,,,http://www.redfin.com/TX/Dallas/4421-Belclaire-Ave-75205/home/32068767,NTREIS,14037149,N,Y,32.8295915,-96.8110898
MLS Listing,,Single Family Residential,4304 Belclaire Ave,Highland Park,TX,75205,5985000,5,5.5,Highland Park West 3rd Instl,7398,11718,2009,23,809,,Active,,,http://www.redfin.com/TX/Dallas/4304-Belclaire-Ave-75205/home/32068644,NTREIS,14027955,N,Y,32.8305098,-96.807511
MLS Listing,,Single Family Residential,4407 Pomona Rd,Dallas,TX,75209,3449000,5,6.0,Bluffview Estates,6873,16553,2017,24,502,,Active,,,http://www.redfin.com/TX/Dallas/4407-Pomona-Rd-75209/home/30854416,NTREIS,14036775,N,Y,32.8541435,-96.8345346
MLS Listing,,Single Family Residential,3740 PURDUE Ave,University Park,TX,75225,2475000,5,5.5,University Heights Add 01 Sec Rev,5489,7013,2019,24,451,,Active,April-14-2019 03:00 PM,April-14-2019 05:00 PM,http://www.redfin.com/TX/Dallas/3740-Purdue-Ave-75225/home/32108441,NTREIS,14034510,N,Y,32.854191,-96.796115
MLS Listing,,Single Family Residential,6507 Lakehurst,Dallas,TX,75230,2895000,4,5.5,Hillcrest Park,7990,16945,2002,24,362,,Active,,,http://www.redfin.com/TX/Dallas/6507-Lakehurst-Ave-75230/home/30875724,NTREIS,14036625,N,Y,32.8845384,-96.7928631
MLS Listing,,Single Family Residential,6346 Desco Dr,Dallas,TX,75225,3675000,5,7.0,Jackson Heights 04,8583,18774,2009,25,428,,Active,,,http://www.redfin.com/TX/Dallas/6346-Desco-Dr-75225/home/30875396,NTREIS,14034963,N,Y,32.8742176,-96.7956251
MLS Listing,,Condo/Co-op,1918 Olive St #3003,Dallas,TX,75201,2795000,2,2.5,Museum Tower Condo,3070,67649,2012,25,910,2671,Active,,,http://www.redfin.com/TX/Dallas/1918-Olive-St-75201/unit-3003/home/30782875,NTREIS,14035022,N,Y,32.7892661,-96.8005498
MLS Listing,,Condo/Co-op,2300 Wolf St Unit 19CD,Dallas,TX,75201,3999000,4,4.0,Heritage At The Stoneleigh Hotel,5075,67039,2012,26,788,2935,Active,,,http://www.redfin.com/TX/Dallas/2300-Wolf-St-75201/unit-19CD/home/144664165,NTREIS,14034024,N,Y,32.7971171,-96.8079
MLS Listing,,Multi-Family (5+ Unit),5404 Reiger Ave,Dallas,TX,75214,3050000,0,,East Columbia Place,14568,25700,1986,26,209,,Active,,,http://www.redfin.com/TX/Dallas/5404-Reiger-Ave-75214/home/30792469,NTREIS,14035397,N,Y,32.8002892,-96.7592482
MLS Listing,,Single Family Residential,4731 Wildwood Rd,Dallas,TX,75209,6499000,5,5.0,Bluffview Estates,8144,54232,1935,26,798,,Active,,,http://www.redfin.com/TX/Dallas/4731-Wildwood-Rd-75209/home/30854466,NTREIS,14035189,N,Y,32.860503,-96.8332994
MLS Listing,,Single Family Residential,3529 Caruth Blvd,University Park,TX,75225,4500000,5,7.5,University Heights,7530,11892,2014,26,598,,Active,,,http://www.redfin.com/TX/Dallas/3529-Caruth-Blvd-75225/home/32104267,NTREIS,14033868,N,Y,32.858919,-96.7915241
MLS Listing,,Single Family Residential,3421 Wentwood Dr,University Park,TX,75225,2850000,5,6.5,University Heights,6914,10498,2002,26,412,,Active,,,http://www.redfin.com/TX/Dallas/3421-Wentwood-Dr-75225/home/32106694,NTREIS,14034946,N,Y,32.8630515,-96.7880928
MLS Listing,,Single Family Residential,5539 Montrose Dr,Dallas,TX,75209,2499000,4,5.0,Greenway Parks,6494,12676,1949,26,385,100,Active,March-31-2019 03:00 PM,March-31-2019 05:00 PM,http://www.redfin.com/TX/Dallas/5539-Montrose-Dr-75209/home/30853342,NTREIS,14035049,N,Y,32.8382349,-96.8158618
MLS Listing,,Single Family Residential,4411 Taos Rd,Dallas,TX,75209,2850000,5,4.5,Bluffview Estates,4723,17076,2016,26,603,,Active,March-31-2019 02:00 PM,March-31-2019 04:00 PM,http://www.redfin.com/TX/Dallas/4411-Taos-Rd-75209/home/30854026,NTREIS,14033826,N,Y,32.8534,-96.8336972
MLS Listing,,Single Family Residential,3628 Dartmouth Ave,Highland Park,TX,75205,4150000,5,6.0,Highland Park,7204,10498,2007,26,576,,Active,,,http://www.redfin.com/TX/Dallas/3628-Dartmouth-Ave-75205/home/32065910,NTREIS,14035042,N,Y,32.830442,-96.7926121
MLS Listing,,Single Family Residential,4001 W Lawther Dr,Dallas,TX,75214,5495000,5,7.0,J R Estates,10681,84898,1987,26,514,,Active,,,http://www.redfin.com/TX/Dallas/4001-W-Lawther-Dr-75214/home/31134442,NTREIS,14035033,N,Y,32.8352409,-96.7281172
MLS Listing,,Single Family Residential,5344 Nakoma Dr,Dallas,TX,75209,2095000,3,3.5,Greenway Parks,4409,12894,1958,26,475,103,Active,,,http://www.redfin.com/TX/Dallas/5344-Nakoma-Dr-75209/home/30853803,NTREIS,14034947,N,Y,32.8398605,-96.8197929
MLS Listing,,Single Family Residential,3319 Hanover St,University Park,TX,75225,2850000,5,5.0,University Heights 03 Amd,4959,16814,2005,26,575,,Active,,,http://www.redfin.com/TX/Dallas/3319-Hanover-St-75225/home/32102628,NTREIS,14034608,N,Y,32.8546674,-96.7858333
MLS Listing,,Single Family Residential,3641 Greenbrier Dr,University Park,TX,75225,3250000,4,5.0,University Heights Sec 03,5342,11195,2012,28,608,,Active,April-14-2019 03:00 PM,April-14-2019 05:00 PM,http://www.redfin.com/TX/Dallas/3641-Greenbrier-Dr-75225/home/32104364,NTREIS,14031397,N,Y,32.8577453,-96.795374
MLS Listing,,Single Family Residential,7222 Colgate Ave,Dallas,TX,75225,2139000,5,5.5,CARUTH HILLS 7,5301,9409,2018,29,404,,Active,April-14-2019 02:00 PM,April-14-2019 04:00 PM,http://www.redfin.com/TX/Dallas/7222-Colgate-Ave-75225/home/30872159,NTREIS,14034143,N,Y,32.8601127,-96.7820467
MLS Listing,,Single Family Residential,6015 Norway Rd,Dallas,TX,75230,2989000,4,6.5,Preston Terrace,6243,19863,2017,29,479,,Active,,,http://www.redfin.com/TX/Dallas/6015-Norway-Rd-75230/home/30875917,NTREIS,14033862,N,Y,32.8888563,-96.8033465
MLS Listing,,Single Family Residential,916 Cedar Shores Dr,Heath,TX,75032,4950000,5,7.0,Shores At Cedar Glen,9985,65296,2016,29,496,33,Active,,,http://www.redfin.com/TX/Heath/916-Cedar-Shores-Dr-75032/home/160571851,NTREIS,14028075,N,Y,32.857789,-96.489514
MLS Listing,,Single Family Residential,5330 Drane Dr,Dallas,TX,75209,2995000,5,6.5,Greenway Parks Add,7033,24481,1983,29,426,112,Active,April-14-2019 01:00 PM,April-14-2019 03:00 PM,http://www.redfin.com/TX/Dallas/5330-Drane-Dr-75209/home/30853824,NTREIS,14033902,N,Y,32.8422657,-96.8203157
MLS Listing,,Single Family Residential,6623 Lupton Dr,Dallas,TX,75225,3275000,5,6.0,Jackson Heights 02,6896,22216,2019,30,475,,Active,,,http://www.redfin.com/TX/Dallas/6623-Lupton-Dr-75225/home/30875007,NTREIS,14032937,N,Y,32.8771695,-96.7909173
MLS Listing,,Single Family Residential,4557 Belclaire Ave,Highland Park,TX,75205,3495000,5,6.0,Highland Park,5790,8146,2019,30,604,,Active,,,http://www.redfin.com/TX/Dallas/4557-Belclaire-Ave-75205/home/32068780,NTREIS,14019991,N,Y,32.8291489,-96.8151921
MLS Listing,,Single Family Residential,4955 Wedgewood Ln,Dallas,TX,75220,6995000,4,5.0,Ridgewood Rev,7075,44257,2016,31,989,,Active,,,http://www.redfin.com/TX/Dallas/4955-Wedgewood-Ln-75220/home/31136763,NTREIS,14031649,N,Y,32.8741516,-96.823816
MLS Listing,,Single Family Residential,4432 Mockingbird Pkwy,University Park,TX,75205,2375000,5,7.0,Loma Linda,5126,7492,2008,32,463,,Active,,,http://www.redfin.com/TX/Dallas/4432-Mockingbird-Pkwy-75205/home/32090417,NTREIS,14020787,N,Y,32.8370033,-96.8120452
MLS Listing,,Single Family Residential,3926 Potomac Ave,Highland Park,TX,75205,6000000,5,4.5,Third Instl Mount Vernon,5949,14244,1921,33,1009,,Active,,,http://www.redfin.com/TX/Dallas/3926-Potomac-Ave-75205/home/32091954,NTREIS,14030301,N,Y,32.8380335,-96.79981
MLS Listing,,Single Family Residential,11525 Hillcrest Rd,Dallas,TX,75230,3600000,3,3.5,Hazel W Johnson,6130,58675,1941,33,587,,Active,,,http://www.redfin.com/TX/Dallas/11525-Hillcrest-Rd-75230/home/31023625,NTREIS,14029889,N,Y,32.90646,-96.7879255
MLS Listing,,Single Family Residential,9109 Guernsey Ln,Dallas,TX,75220,3149000,5,6.0,Landsdowne Estate 2nd Instl,6480,19471,2019,33,486,,Active,,,http://www.redfin.com/TX/Dallas/9109-Guernsey-Ln-75220/home/30879286,NTREIS,14026496,N,Y,32.8648773,-96.831478
MLS Listing,,Single Family Residential,3420 Saint Johns Dr,Highland Park,TX,75205,3000000,5,6.0,Highland Park 4th Inst,6115,9757,2003,33,491,,Active,,,http://www.redfin.com/TX/Dallas/3420-St-Johns-Dr-75205/home/32065799,NTREIS,14029979,N,Y,32.8347918,-96.7884276
MLS Listing,,Single Family Residential,4504 Mockingbird Ln,University Park,TX,75205,2499000,5,4.5,Potomac Park,5207,10716,2015,33,480,,Active,,,http://www.redfin.com/TX/Dallas/4504-Mockingbird-Ln-75205/home/32093556,NTREIS,14019649,N,Y,32.8369637,-96.8134339
MLS Listing,,Single Family Residential,10211 Waller Dr,Dallas,TX,75229,4195000,5,7.0,Mayflower Estates,7992,43560,2000,33,525,,Active,,,http://www.redfin.com/TX/Dallas/10211-Waller-Dr-75229/home/30877924,NTREIS,14027760,N,Y,32.8837004,-96.8194768
MLS Listing,,Single Family Residential,4430 Arcady Ave,Highland Park,TX,75205,4475000,5,7.5,Highland Park West 05 Instl,7742,13112,2016,36,578,,Active,,,http://www.redfin.com/TX/Dallas/4430-Arcady-Ave-75205/home/32067001,NTREIS,14028307,N,Y,32.8282133,-96.811027
MLS Listing,,Single Family Residential,4420 Bordeaux Ave,Highland Park,TX,75205,5295000,6,7.5,Highland Park,8737,17250,2008,36,606,,Active,,,http://www.redfin.com/TX/Dallas/4420-Bordeaux-Ave-75205/home/32067133,NTREIS,14029130,N,Y,32.8271788,-96.8106922
MLS Listing,,Single Family Residential,6630 Northport Dr,Dallas,TX,75230,2295000,5,6.0,WAGGONER PLACE,6072,17860,2003,36,378,,Active,March-31-2019 02:00 PM,March-31-2019 04:00 PM,http://www.redfin.com/TX/Dallas/6630-Northport-Dr-75230/home/30876246,NTREIS,14029016,N,Y,32.890115,-96.7902687
MLS Listing,,Single Family Residential,3909 Greenbrier Dr,University Park,TX,75225,2350000,5,4.5,University Heights,5635,10629,1982,36,417,,Active,March-31-2019 02:00 PM,March-31-2019 04:00 PM,http://www.redfin.com/TX/Dallas/3909-Greenbrier-Dr-75225/home/32105855,NTREIS,14028228,N,Y,32.857657,-96.8002285
MLS Listing,,Single Family Residential,6323 Meadow Rd,Dallas,TX,75230,2490000,6,6.5,Preston Road Estates,7123,12676,2007,36,350,350,Active,,,http://www.redfin.com/TX/Dallas/6323-Meadow-Rd-75230/home/30875684,NTREIS,14027783,N,Y,32.8865794,-96.7972176
MLS Listing,,Condo/Co-op,3505 Turtle Creek Blvd Unit 11A,Dallas,TX,75219,2695000,3,4.5,Vendome on Turtle Creek Condo,4200,90997,2000,37,642,2876,Active,,,http://www.redfin.com/TX/Dallas/3505-Turtle-Creek-Blvd-75219/unit-11A/home/30731987,NTREIS,14026721,N,Y,32.8107535,-96.8037013
MLS Listing,,Single Family Residential,6326 Carrington Dr,Dallas,TX,75254,2249000,4,6.0,Oaks At Williamsburg,7200,29534,2002,37,312,467,Active,,,http://www.redfin.com/TX/Dallas/6326-Carrington-Dr-75254/home/31153929,NTREIS,14011542,N,Y,32.9440123,-96.8016515
MLS Listing,,Single Family Residential,3828 Colgate Ave,University Park,TX,75225,3450000,4,5.5,University Heights,6436,10977,2010,38,536,,Active,March-31-2019 01:00 PM,March-31-2019 03:00 PM,http://www.redfin.com/TX/Dallas/3828-Colgate-Ave-75225/home/32105705,NTREIS,14027374,N,Y,32.8606,-96.7981151
MLS Listing,,Multi-Family (5+ Unit),2307 Kirby St Unit 1-5,Dallas,TX,75204,2280500,0,,MILIMO TERRACE,9915,9888,2019,38,230,,Active,,,http://www.redfin.com/TX/Dallas/2307-Kirby-St-75204/unit-1-5/home/160504250,NTREIS,14026872,N,Y,32.8086869,-96.7828499
MLS Listing,,Single Family Residential,4502 Watauga Rd,Dallas,TX,75209,2795000,5,5.5,Bluffview Estates,7452,36111,2016,38,375,,Active,March-31-2019 01:00 PM,March-31-2019 02:30 PM,http://www.redfin.com/TX/Dallas/4502-Watauga-Rd-75209/home/30854461,NTREIS,14027073,N,Y,32.8585478,-96.8369843
MLS Listing,,Single Family Residential,5540 N 40 Pl,Dallas,TX,75252,6999000,9,10.5,M A Jackson Survey,15074,158297,2007,39,464,,Active,,,http://www.redfin.com/TX/Dallas/5540-N-40-Pl-75252/home/32287490,NTREIS,14017405,N,Y,33.0006656,-96.8116968
MLS Listing,,Single Family Residential,5980 Melshire Dr,Dallas,TX,75230,2699900,5,6.0,Melshire Estates,6787,16553,2019,39,398,,Active,,,http://www.redfin.com/TX/Dallas/5980-Melshire-Dr-75230/home/30962529,NTREIS,13998811,N,Y,32.9139342,-96.8040162
MLS Listing,,Single Family Residential,3312 Centenary Ave,University Park,TX,75225,2395000,5,7.0,University Heights,6050,10498,2005,39,396,,Active,,,http://www.redfin.com/TX/Dallas/3312-Centenary-Ave-75225/home/32106562,NTREIS,14026869,N,Y,32.8626388,-96.7860007
MLS Listing,,Single Family Residential,4428 Lorraine Ave,Highland Park,TX,75205,5499000,5,5.5,Highland Park West 05 Instl,7145,10977,2018,39,770,,Active,,,http://www.redfin.com/TX/Dallas/4428-Lorraine-Ave-75205/home/32068777,NTREIS,14026354,N,Y,32.8290771,-96.8116758
MLS Listing,,Single Family Residential,4300 Park Ln,Dallas,TX,75220,2595000,5,6.5,Park Lane 349 4fr Manchester A,5616,46566,1991,39,462,,Active,March-31-2019 12:00 PM,March-31-2019 02:00 PM,http://www.redfin.com/TX/Dallas/4300-Park-Ln-75220/home/30879399,NTREIS,14024985,N,Y,32.8736361,-96.8356652
MLS Listing,,Single Family Residential,4012 Glenwick Ln,University Park,TX,75205,6750000,4,5.5,Troths Add,7361,29316,2000,39,917,,Active,,,http://www.redfin.com/TX/Dallas/4012-Glenwick-Ln-75205/home/32099937,NTREIS,14025637,N,Y,32.8473379,-96.8029071
MLS Listing,,Single Family Residential,3916 Windsor Ave,University Park,TX,75205,3499000,5,6.5,Windsor Place,7698,9583,2015,40,455,,Active,March-31-2019 02:00 PM,March-31-2019 04:00 PM,http://www.redfin.com/TX/Dallas/3916-Windsor-Ave-75205/home/32114525,NTREIS,14025941,N,Y,32.843293,-96.8014841
MLS Listing,,Single Family Residential,3520 Villanova St,University Park,TX,75225,2590000,5,6.5,University Heights Sec 07,6272,10498,2019,40,413,,Active,,,http://www.redfin.com/TX/Dallas/3520-Villanova-St-75225/home/32106642,NTREIS,14025778,N,Y,32.8646363,-96.7899967
MLS Listing,,Single Family Residential,4610 Wildwood Rd,Dallas,TX,75209,8250000,3,5.0,Young Estates,6995,56715,2008,40,1179,,Active,,,http://www.redfin.com/TX/Dallas/4610-Wildwood-Rd-75209/home/31134524,NTREIS,14025513,N,Y,32.8588049,-96.8331807
MLS Listing,,Single Family Residential,6700 Golf Dr,University Park,TX,75205,4850000,5,6.5,Francis Daniel Park Sec 02,8862,17860,2004,40,547,,Active,,,http://www.redfin.com/TX/Dallas/6700-Golf-Dr-75205/home/30758224,NTREIS,14025596,N,Y,32.8475386,-96.7943696
MLS Listing,,Single Family Residential,5854 Lakehurst Ave,Dallas,TX,75230,2395000,4,3.5,Lakes of Preston Hollow,5113,12415,1998,40,468,175,Active,March-31-2019 01:00 PM,March-31-2019 03:00 PM,http://www.redfin.com/TX/Dallas/5854-Lakehurst-Ave-75230/home/31136008,NTREIS,14021199,N,Y,32.8836953,-96.8067576
MLS Listing,,Single Family Residential,3552 Wentwood Dr,University Park,TX,75225,5650000,6,7.0,University Heights 4th Sec Amd,9209,20255,2007,40,614,,Active,,,http://www.redfin.com/TX/Dallas/3552-Wentwood-Dr-75225/home/30758762,NTREIS,14025496,N,Y,32.8636409,-96.7917751
MLS Listing,,Single Family Residential,4136 Caruth Blvd,University Park,TX,75225,2425000,5,5.5,Preston Homes Add,7091,8625,2008,40,342,,Active,,,http://www.redfin.com/TX/Dallas/4136-Caruth-Blvd-75225/home/32095276,NTREIS,14025227,N,Y,32.8591709,-96.8062554
MLS Listing,,Single Family Residential,6338 Desco Dr,Dallas,TX,75225,2395000,4,4.5,Devonshire,4673,18818,1953,40,513,,Active,April-7-2019 01:00 PM,April-7-2019 03:00 PM,http://www.redfin.com/TX/Dallas/6338-Desco-Dr-75225/home/30875293,NTREIS,14014423,N,Y,32.8742039,-96.7958762
MLS Listing,,Single Family Residential,3901 Turtle Creek Blvd #16,Dallas,TX,75219,4195000,3,5.0,Place Des Vosges,6243,5227,2004,41,672,1435,Active,,,http://www.redfin.com/TX/Dallas/3901-Turtle-Creek-Blvd-75219/unit-16/home/31125502,NTREIS,14024433,N,Y,32.8164047,-96.7995138
MLS Listing,,Single Family Residential,4562 Isabella Ln,Dallas,TX,75229,6499000,7,7.5,Wilson Estates,11083,52882,2005,43,586,,Active,,,http://www.redfin.com/TX/Dallas/4562-Isabella-Ln-75229/home/30738446,NTREIS,14024460,N,Y,32.8893089,-96.8299947
MLS Listing,,Single Family Residential,2706 Turtle Creek Cir,Dallas,TX,75219,4220000,3,3.0,Turtle Creek Circle 03,3037,10106,1997,43,1390,223,Active,,,http://www.redfin.com/TX/Dallas/2706-Turtle-Creek-Cir-75219/home/31122387,NTREIS,14024522,N,Y,32.801588,-96.807777
MLS Listing,,Single Family Residential,3709 Lexington Ave,Highland Park,TX,75205,5750000,4,4.0,Highland Park,6209,17685,1992,43,926,,Active,,,http://www.redfin.com/TX/Dallas/3709-Lexington-Ave-75205/home/32064435,NTREIS,14024362,N,Y,32.826225,-96.7959599
MLS Listing,,Single Family Residential,3541 Potomac Ave,Highland Park,TX,75205,2895000,5,5.5,Mount Vernon Heights,4920,7841,2019,43,588,,Active,,,http://www.redfin.com/TX/Dallas/3541-Potomac-Ave-75205/home/32091790,NTREIS,14023883,N,Y,32.8374357,-96.7918379
MLS Listing,,Single Family Residential,4422 Pomona Rd,Dallas,TX,75209,2045000,5,4.5,Bluffview Estates,5588,16727,1991,44,366,,Active,,,http://www.redfin.com/TX/Dallas/4422-Pomona-Rd-75209/home/30854020,NTREIS,14022954,N,Y,32.854482,-96.8331528
MLS Listing,,Single Family Residential,5020 Park Ln,Dallas,TX,75220,7295000,5,6.0,Sunnybrook Estates,10352,48569,2017,44,705,,Active,,,http://www.redfin.com/TX/Dallas/5020-Park-Ln-75220/home/30879648,NTREIS,14022402,N,Y,32.872826,-96.822909
MLS Listing,,Single Family Residential,4324 Versailles Ave,Highland Park,TX,75205,3300000,6,4.5,Highland Park,6464,16988,1936,44,511,,Active,,,http://www.redfin.com/TX/Dallas/4324-Versailles-Ave-75205/home/32068664,NTREIS,14022576,N,Y,32.8314155,-96.8085993
MLS Listing,,Single Family Residential,6323 Aberdeen Ave,Dallas,TX,75230,2199000,5,6.5,Simpsons,6761,15072,2002,45,325,,Active,,,http://www.redfin.com/TX/Dallas/6323-Aberdeen-Ave-75230/home/30875982,NTREIS,14015143,N,Y,32.8825445,-96.7973798
MLS Listing,,Single Family Residential,7420 Caruth Blvd,Dallas,TX,75225,2450000,5,7.0,Caruth Hills 08,6898,10498,2011,45,355,,Active,,,http://www.redfin.com/TX/Dallas/7420-Caruth-Blvd-75225/home/30871818,NTREIS,14022079,N,Y,32.8589401,-96.7794109
MLS Listing,,Multi-Family (5+ Unit),2800 Douglas Ave,Dallas,TX,75219,8995000,0,,Martys Oak Lawn Add,38880,44344,1972,46,231,,Active,,,http://www.redfin.com/TX/Dallas/2800-Douglas-Ave-75219/home/30798716,NTREIS,14022095,N,Y,32.8108689,-96.8149828
MLS Listing,,Multi-Family (5+ Unit),1902 Bennett Ave,Dallas,TX,75206,3950000,0,,Bennett Lofts,16246,30318,2002,46,243,,Active,,,http://www.redfin.com/TX/Dallas/1902-Bennett-Ave-75206/home/30739529,NTREIS,14021946,N,Y,32.809438,-96.777372
MLS Listing,,Multi-Family (5+ Unit),4950 Cedar Springs Rd,Dallas,TX,75235,5995000,0,,Cedar Spgs-Mahanna Add,26200,25352,2013,46,229,,Active,,,http://www.redfin.com/TX/Dallas/4950-Cedar-Springs-Rd-75219/home/110137344,NTREIS,14021828,N,Y,32.8206782,-96.8218676
MLS Listing,,Condo/Co-op,1918 Olive St #2602,Dallas,TX,75201,3100000,2,2.5,Museum Tower Condo,3276,67649,2011,46,946,3244,Active,,,http://www.redfin.com/TX/Dallas/1918-Olive-St-75201/unit-2602/home/30782890,NTREIS,14017486,N,Y,32.7892661,-96.8005498
MLS Listing,,Single Family Residential,3600 Saint Johns Dr,Highland Park,TX,75205,3975000,4,4.5,Hackberry Creek,5007,22390,1974,47,794,,Active,March-31-2019 01:00 PM,March-31-2019 03:00 PM,http://www.redfin.com/TX/Dallas/3600-St-Johns-Dr-75205/home/32062535,NTREIS,14021275,N,Y,32.8347876,-96.7913358
MLS Listing,,Single Family Residential,3656 Stratford Ave,Highland Park,TX,75205,5000000,4,5.5,Highland Park,6279,12458,1999,47,796,,Active,,,http://www.redfin.com/TX/Dallas/3656-Stratford-Ave-75205/home/32064012,NTREIS,14020891,N,Y,32.8342154,-96.7942022
MLS Listing,,Single Family Residential,3601 Beverly Dr,Highland Park,TX,75205,9499000,6,6.5,Highland Park,12834,18992,1923,49,740,,Active,,,http://www.redfin.com/TX/Dallas/3601-Beverly-Dr-75205/home/32065664,NTREIS,14019932,N,Y,32.8319182,-96.791273
MLS Listing,,Single Family Residential,7209 Colgate Ave,Dallas,TX,75225,2695000,6,5.5,Caruth Hills 07,7344,8625,2018,49,367,,Active,March-31-2019 02:00 PM,March-31-2019 04:00 PM,http://www.redfin.com/TX/Dallas/7209-Colgate-Ave-75225/home/30872124,NTREIS,14020543,N,Y,32.8606325,-96.7825697
MLS Listing,,Single Family Residential,9779 Audubon Pl,Dallas,TX,75220,3995000,5,7.0,Sunnybrook Estates,7358,63815,1949,50,543,,Active,,,http://www.redfin.com/TX/Dallas/9779-Audubon-Pl-75220/home/30879586,NTREIS,14020155,N,Y,32.8764461,-96.8251511
MLS Listing,,Single Family Residential,3612 Dartmouth Ave,Highland Park,TX,75205,3799000,5,6.0,Fourth Instl Hlnd Park,5724,9017,2013,50,664,,Active,,,http://www.redfin.com/TX/Dallas/3612-Dartmouth-Ave-75205/home/32065933,NTREIS,14004578,N,Y,32.8304182,-96.7918379
MLS Listing,,Single Family Residential,4603 Bluffview Blvd,Dallas,TX,75209,3295000,3,2.5,Bluffview Estates,3312,24176,2012,50,995,,Active,,,http://www.redfin.com/TX/Dallas/4603-Bluffview-Blvd-75209/home/30854487,NTREIS,14019986,N,Y,32.8577539,-96.8322967
MLS Listing,,Single Family Residential,11322 E Ricks Cir,Dallas,TX,75230,3795000,5,7.0,Hillcrest Estates,7154,84942,1993,50,530,,Active,April-14-2019 01:00 PM,April-14-2019 03:00 PM,http://www.redfin.com/TX/Dallas/11322-E-Ricks-Cir-75230/home/31023602,NTREIS,14015128,N,Y,32.9029232,-96.7901013
MLS Listing,,Single Family Residential,6154 Yorkshire Dr,Dallas,TX,75230,2499000,5,5.5,Preston Haven Estates,5868,16291,2019,51,426,,Active,,,http://www.redfin.com/TX/Dallas/6154-Yorkshire-Dr-75230/home/30925788,NTREIS,14018898,N,Y,32.9023919,-96.8010865
MLS Listing,,Single Family Residential,4425 Arcady Ave,Highland Park,TX,75205,2995000,4,4.5,Highland Park,4648,12371,1938,51,644,,Active,,,http://www.redfin.com/TX/Dallas/4425-Arcady-Ave-75205/home/32067140,NTREIS,14011568,N,Y,32.8276291,-96.8108805
MLS Listing,,Single Family Residential,5600 Park Ln,Dallas,TX,75220,6950000,3,4.0,Venetian,7469,43604,2015,51,931,,Active,,,http://www.redfin.com/TX/Dallas/5600-Park-Ln-75220/home/30788187,NTREIS,14018205,N,Y,32.8734611,-96.8110289
MLS Listing,,Single Family Residential,6607 Desco Dr,Dallas,TX,75225,2549000,5,5.5,Jackson Heights 04,5589,25178,2005,51,456,,Active,,,http://www.redfin.com/TX/Dallas/6607-Desco-Dr-75225/home/30874739,NTREIS,14018804,N,Y,32.8748183,-96.7910219
MLS Listing,,Vacant Land,3637 Miramar Ave,Highland Park,TX,75205,4900000,0,,Highland Park,,40685,1950,52,,,Active,,,http://www.redfin.com/TX/Dallas/3637-Miramar-Ave-75205/home/32070006,NTREIS,14018472,N,Y,32.8304993,-96.7947881
MLS Listing,,Single Family Residential,5251 Ravine Dr,Dallas,TX,75220,3300000,5,6.5,Ella Rose Thatcher,8064,38551,1938,52,409,,Active,,,http://www.redfin.com/TX/Dallas/5251-Ravine-Dr-75220/home/30879756,NTREIS,14010626,N,Y,32.8729648,-96.8186457
MLS Listing,,Single Family Residential,3529 Colgate Ave,University Park,TX,75225,2850000,5,9.5,University Heights,7302,11195,2008,52,390,,Active,,,http://www.redfin.com/TX/Dallas/3529-Colgate-Ave-75225/home/32104169,NTREIS,14016600,N,Y,32.8600259,-96.7905198
MLS Listing,,Single Family Residential,3805 Marquette St,University Park,TX,75225,2250000,5,6.0,University Heights Add Sec 05,5492,10498,2001,53,410,,Active,March-31-2019 03:30 PM,March-31-2019 05:00 PM,http://www.redfin.com/TX/Dallas/3805-Marquette-St-75225/home/32105727,NTREIS,14017610,N,Y,32.8610372,-96.7965248
MLS Listing,,Single Family Residential,4332 Lorraine Ave,Highland Park,TX,75205,4950000,3,4.0,Highland Park West 01 Instl,5542,12545,1996,53,893,,Active,,,http://www.redfin.com/TX/Dallas/4332-Lorraine-Ave-75205/home/32068758,NTREIS,14017291,N,Y,32.8294538,-96.8091853
MLS Listing,,Single Family Residential,3816 Miramar Ave,Highland Park,TX,75205,4795000,5,4.5,Highland Park,6955,15769,1915,53,689,,Active,,,http://www.redfin.com/TX/Dallas/3816-Miramar-Ave-75205/home/32064222,NTREIS,14012468,N,Y,32.8312266,-96.7975501
MLS Listing,,Condo/Co-op,1918 Olive St #2901,Dallas,TX,75201,2200000,2,2.0,Museum Tower Condo,2385,,2011,53,922,2075,Active,,,http://www.redfin.com/TX/Dallas/1918-Olive-St-75201/unit-2901/home/147426207,NTREIS,14016459,N,Y,32.7891972,-96.8000193
MLS Listing,,Condo/Co-op,1918 Olive St #2904,Dallas,TX,75201,2985000,2,2.5,Museum Tower Condo,3069,67649,2011,53,973,2670,Active,,,http://www.redfin.com/TX/Dallas/1918-Olive-St-75201/unit-2904/home/30782886,NTREIS,14016481,N,Y,32.7892661,-96.8005498
MLS Listing,,Single Family Residential,5805 Club Oaks Plz,Dallas,TX,75248,2500000,6,8.0,Bent Tree 02 Rev,7494,27573,2005,54,334,,Active,,,http://www.redfin.com/TX/Dallas/5805-Club-Oaks-Plz-75248/home/31088799,NTREIS,14007088,N,Y,32.983389,-96.8201528
MLS Listing,,Single Family Residential,3826 Maplewood Ave,Highland Park,TX,75205,3750000,5,6.5,Highland Park,8508,13721,2003,54,441,,Active,,,http://www.redfin.com/TX/Dallas/3826-Maplewood-Ave-75205/home/32064022,NTREIS,14016160,N,Y,32.8357497,-96.7980566
MLS Listing,,Single Family Residential,3717 Maplewood Ave,Highland Park,TX,75205,3195000,4,3.5,Highland Park,5067,16640,1964,54,631,,Active,,,http://www.redfin.com/TX/Dallas/3717-Maplewood-Ave-75205/home/32064007,NTREIS,13979976,N,Y,32.8347522,-96.7956251
MLS Listing,,Single Family Residential,3901 Stanford Ave,University Park,TX,75225,2295000,5,6.0,University Heights,5189,7013,2018,55,442,,Active,,,http://www.redfin.com/TX/Dallas/3901-Stanford-Ave-75225/home/32108179,NTREIS,14015504,N,Y,32.8527581,-96.7983871
MLS Listing,,Single Family Residential,3644 Mcfarlin Blvd,University Park,TX,75205,2750000,5,6.5,University Park,6731,12023,2008,56,409,,Active,,,http://www.redfin.com/TX/Dallas/3644-McFarlin-Blvd-75205/home/32110017,NTREIS,14015687,N,Y,32.8442363,-96.7950183
MLS Listing,,Vacant Land,3652 Maplewood Ave,Highland Park,TX,75205,2995000,0,,Highland Park,,14157,1916,57,,,Active,,,http://www.redfin.com/TX/Dallas/3652-Maplewood-Ave-75205/home/32064053,NTREIS,14012594,N,Y,32.8355448,-96.7939512
MLS Listing,,Single Family Residential,4707 Walnut Hill Ln,Dallas,TX,75229,3499000,2,3.0,Roxbury Grove,4480,91912,1975,57,781,,Active,,,http://www.redfin.com/TX/Dallas/4707-Walnut-Hill-Ln-75229/home/30878455,NTREIS,14015250,N,Y,32.8807578,-96.828882
MLS Listing,,Single Family Residential,3736 Potomac Ave,Highland Park,TX,75205,2395000,5,6.0,A C Bookout,6493,16727,1956,57,369,,Active,,,http://www.redfin.com/TX/Dallas/3736-Potomac-Ave-75205/home/32055380,NTREIS,14015289,N,Y,32.8380113,-96.795374
MLS Listing,,Multi-Family (5+ Unit),832 Blaylock Dr,Dallas,TX,75203,2999000,17,8.0,Kynerds W D,9227,13852,1920,57,325,,Active,,,http://www.redfin.com/TX/Dallas/832-Blaylock-Dr-75203/home/30825577,NTREIS,14013364,N,Y,32.7584804,-96.8165316
MLS Listing,,Condo/Co-op,2300 Wolf St Unit 17CD,Dallas,TX,75201,4000000,3,4.5,Heritage At The Stoneleigh Hotel,5030,67039,2008,57,795,3330,Active,,,http://www.redfin.com/TX/Dallas/2300-Wolf-St-75201/unit-17CD/home/144766613,NTREIS,14013564,N,Y,32.7969392,-96.8077499
MLS Listing,,Single Family Residential,3608 Lexington Ave,Highland Park,TX,75205,6295000,7,8.5,Highland Park,9820,21344,2008,57,641,,Active,,,http://www.redfin.com/TX/Dallas/3608-Lexington-Ave-75205/home/32064268,NTREIS,14014830,N,Y,32.826154,-96.7940349
MLS Listing,,Single Family Residential,4209 Lorraine Ave,Highland Park,TX,75205,4295000,5,5.5,Highland Park 02,5120,16466,1928,57,839,,Active,,,http://www.redfin.com/TX/Dallas/4209-Lorraine-Ave-75205/home/32068815,NTREIS,14014856,N,Y,32.8286382,-96.8052299
MLS Listing,,Single Family Residential,4214 Shorecrest Dr,Dallas,TX,75209,2350000,3,3.0,W P Cochran Homestead Add,3407,42253,1939,57,690,,Active,,,http://www.redfin.com/TX/Dallas/4214-Shorecrest-Dr-75209/home/30855910,NTREIS,14010527,N,Y,32.8581383,-96.8396643
MLS Listing,,Single Family Residential,3925 Southwestern Blvd,University Park,TX,75225,2395000,4,6.5,University Heights,6044,9583,1946,58,396,,Active,,,http://www.redfin.com/TX/Dallas/3925-Southwestern-Blvd-75225/home/32105820,NTREIS,14014394,N,Y,32.8566468,-96.8010656
MLS Listing,,Single Family Residential,3816 Colgate Ave,University Park,TX,75225,3100000,5,7.0,University Heights,5786,10585,2004,58,536,,Active,,,http://www.redfin.com/TX/Dallas/3816-Colgate-Ave-75225/home/32105700,NTREIS,14014258,N,Y,32.8606133,-96.7974664
MLS Listing,,Single Family Residential,4524 Belclaire Ave,Highland Park,TX,75205,2297000,4,6.0,Highland Park West 05 Instl,4730,9148,2007,58,486,,Active,March-31-2019 03:30 PM,March-31-2019 05:00 PM,http://www.redfin.com/TX/Dallas/4524-Belclaire-Ave-75205/home/32068689,NTREIS,14014105,N,Y,32.8295818,-96.8136851
MLS Listing,,Single Family Residential,6754 PRESTONSHIRE Ln,Dallas,TX,75225,2475000,5,5.5,CESCO REV,6305,17990,2018,58,393,,Active,March-31-2019 02:00 PM,March-31-2019 04:00 PM,http://www.redfin.com/TX/Dallas/6754-Prestonshire-Ln-75225/home/30874969,NTREIS,14002493,N,Y,32.8753982,-96.788828
MLS Listing,,Single Family Residential,6315 Northwood Rd,Dallas,TX,75225,3295000,5,6.5,Preston Highlands 02,7006,17642,2019,58,470,,Active,,,http://www.redfin.com/TX/Dallas/6315-Northwood-Rd-75225/home/30874616,NTREIS,14013968,N,Y,32.8697813,-96.7969851
MLS Listing,,Single Family Residential,3901 Turtle Creek Blvd #10,Dallas,TX,75219,4495000,3,5.0,Place Des Vosges,6572,6578,2003,59,684,1435,Active,,,http://www.redfin.com/TX/Dallas/3901-Turtle-Creek-Blvd-75219/unit-10/home/31125472,NTREIS,14012864,N,Y,32.8171318,-96.8002669
MLS Listing,,Single Family Residential,6101 Armstrong Pkwy,University Park,TX,75205,2849000,5,6.0,Armstrong Fairway,5467,10672,1983,60,521,,Active,,,http://www.redfin.com/TX/Dallas/6101-Armstrong-Pkwy-75205/home/32053925,NTREIS,14010735,N,Y,32.8409671,-96.8115921
MLS Listing,,Single Family Residential,10727 Camellia Dr,Dallas,TX,75230,2350000,4,5.5,Preston Royal 03,8223,33323,1999,61,286,,Active,March-31-2019 12:00 PM,March-31-2019 01:30 PM,http://www.redfin.com/TX/Dallas/10727-Camellia-Dr-75230/home/30876105,NTREIS,14011752,N,Y,32.8933447,-96.8018189
MLS Listing,,Single Family Residential,4301 Lorraine Ave,Highland Park,TX,75205,3945000,4,3.5,Highland Park,5006,15899,1935,61,788,,Active,March-31-2019 03:30 PM,March-31-2019 05:00 PM,http://www.redfin.com/TX/Dallas/4301-Lorraine-Ave-75205/home/32067021,NTREIS,14005134,N,Y,32.8288798,-96.807239
MLS Listing,,Single Family Residential,6324 Brookshire Dr,Dallas,TX,75230,2199000,6,6.0,Waggoner Place Add,6482,18557,2000,62,339,,Active,March-31-2019 01:00 PM,March-31-2019 03:00 PM,http://www.redfin.com/TX/Dallas/6324-Brookshire-Dr-75230/home/30876201,NTREIS,14009282,N,Y,32.8892209,-96.7974017
MLS Listing,,Single Family Residential,3541 Colgate Ave,University Park,TX,75225,3299000,4,6.0,University Heights,7622,11195,2009,64,433,,Active,April-14-2019 03:00 PM,April-14-2019 05:00 PM,http://www.redfin.com/TX/Dallas/3541-Colgate-Ave-75225/home/32104166,NTREIS,14010108,N,Y,32.8600772,-96.7911893
MLS Listing,,Single Family Residential,3925 Caruth Blvd,University Park,TX,75225,2399000,6,6.0,University Heights 4th Sec,6087,10977,1998,64,394,,Active,,,http://www.redfin.com/TX/Dallas/3925-Caruth-Blvd-75225/home/32105893,NTREIS,14010299,N,Y,32.8586638,-96.8010656
MLS Listing,,Single Family Residential,4308 Beverly Dr,Highland Park,TX,75205,2575000,4,3.5,Highland Park,4281,10890,1928,64,601,,Active,April-14-2019 03:00 PM,April-14-2019 05:00 PM,http://www.redfin.com/TX/Dallas/4308-Beverly-Dr-75205/home/32068524,NTREIS,14010305,N,Y,32.8324305,-96.8076785
MLS Listing,,Single Family Residential,4501 Lorraine Ave,Highland Park,TX,75205,2699000,4,4.5,Highland Park,4460,12676,1936,64,605,,Active,,,http://www.redfin.com/TX/Dallas/4501-Lorraine-Ave-75205/home/32067064,NTREIS,14010032,N,Y,32.8284218,-96.8120316
MLS Listing,,Multi-Family (2-4 Unit),4522 Westway Ave,Highland Park,TX,75205,2395000,0,,West Park,5565,12720,1981,65,430,,Active,,,http://www.redfin.com/TX/Dallas/4522-Westway-Ave-75205/home/32113233,NTREIS,14009894,N,Y,32.824225,-96.814188
MLS Listing,,Single Family Residential,5828 Woodland Dr,Dallas,TX,75225,4450000,5,6.5,Woodland Estates,11476,37897,2003,65,388,,Active,March-31-2019 02:00 PM,March-31-2019 04:00 PM,http://www.redfin.com/TX/Dallas/5828-Woodland-Dr-75225/home/30880017,NTREIS,14009826,N,Y,32.8721866,-96.8071762
MLS Listing,,Vacant Land,3916 Miramar Ave,Highland Park,TX,75205,3499000,0,,Highland Park 02,,15769,1962,65,,,Active,,,http://www.redfin.com/TX/Dallas/3916-Miramar-Ave-75205/home/32064208,NTREIS,14009705,N,Y,32.8313806,-96.7995589
MLS Listing,,Single Family Residential,3220 Beverly Dr,Highland Park,TX,75205,2000000,4,3.5,Highland Park,3594,11195,1928,65,556,,Active,,,http://www.redfin.com/TX/Dallas/3220-Beverly-Dr-75205/home/32065631,NTREIS,14009612,N,Y,32.8327202,-96.7849756
MLS Listing,,Single Family Residential,5605 Bent Tree Dr,Dallas,TX,75248,2100000,5,5.5,Bent Tree,9024,23087,1985,65,233,,Active,March-30-2019 02:00 PM,March-30-2019 04:00 PM,http://www.redfin.com/TX/Dallas/5605-Bent-Tree-Dr-75248/home/31086531,NTREIS,14002595,N,Y,32.9792363,-96.8123874
MLS Listing,,Single Family Residential,10853 Camellia Dr,Dallas,TX,75230,2145000,5,6.0,Preston Royal,6035,17990,2014,66,355,,Active,,,http://www.redfin.com/TX/Dallas/10853-Camellia-Dr-75230/home/30876605,NTREIS,14008924,N,Y,32.896353,-96.8017143
MLS Listing,,Single Family Residential,4040 Cochran Chapel Rd,Dallas,TX,75209,3995000,4,6.0,Maffett Love & Eisner,5564,63815,2014,66,718,,Active,,,http://www.redfin.com/TX/Dallas/4040-Cochran-Chapel-Rd-75209/home/30855897,NTREIS,14005125,N,Y,32.860465,-96.844016
MLS Listing,,Single Family Residential,3901 Turtle Creek Blvd #3,Dallas,TX,75219,2750000,4,6.0,Place Des Vosges,5724,5881,1998,66,480,,Active,,,http://www.redfin.com/TX/Dallas/3901-Turtle-Creek-Blvd-75219/unit-3/home/31125473,NTREIS,14007998,N,Y,32.8166251,-96.79933
MLS Listing,,Single Family Residential,3510 Gillon Ave,Highland Park,TX,75205,2575000,4,5.5,Highland Park,6180,11326,1990,66,417,,Active,April-7-2019 01:00 PM,April-7-2019 03:00 PM,http://www.redfin.com/TX/Dallas/3510-Gillon-Ave-75205/home/32067197,NTREIS,14008723,N,Y,32.827181,-96.790633
MLS Listing,,Single Family Residential,4312 Lorraine Ave,Highland Park,TX,75205,2850000,4,4.5,Highland Park,4640,12545,1929,67,614,,Active,March-31-2019 03:00 PM,March-31-2019 05:00 PM,http://www.redfin.com/TX/Dallas/4312-Lorraine-Ave-75205/home/32068753,NTREIS,14007749,N,Y,32.8294091,-96.8079924
MLS Listing,,Single Family Residential,10427 Lennox Ln,Dallas,TX,75229,3300000,6,8.5,Roxbury Park,9655,55321,1983,68,342,,Active,,,http://www.redfin.com/TX/Dallas/10427-Lennox-Ln-75229/home/30878441,NTREIS,13988779,N,Y,32.8877827,-96.8282749
MLS Listing,,Single Family Residential,4332 Belclaire Ave,Highland Park,TX,75205,6995000,5,6.0,Highland Park,8721,17990,2018,68,802,,Active,,,http://www.redfin.com/TX/Dallas/4332-Belclaire-Ave-75205/home/32068649,NTREIS,14007028,N,Y,32.8304697,-96.8094574
MLS Listing,,Single Family Residential,3537 Hanover St,University Park,TX,75225,2795000,5,6.0,University Heights,5733,11195,1994,68,488,,Active,,,http://www.redfin.com/TX/Dallas/3537-Hanover-St-75225/home/32102651,NTREIS,14007021,N,Y,32.8546198,-96.7919635
MLS Listing,,Single Family Residential,3517 Gillon Ave,Highland Park,TX,75205,4795000,4,5.0,Highland Park,6399,22608,1915,68,749,,Active,,,http://www.redfin.com/TX/Dallas/3517-Gillon-Ave-75205/home/32064272,NTREIS,14007017,N,Y,32.827006,-96.7916705
MLS Listing,,Single Family Residential,5626 Greenbrier Dr,Dallas,TX,75209,2349000,4,5.0,Highway Estates,5582,11718,2018,69,421,,Active,March-31-2019 01:00 PM,March-31-2019 03:00 PM,http://www.redfin.com/TX/Dallas/5626-Greenbrier-Dr-75209/home/30880682,NTREIS,14005113,N,Y,32.8576779,-96.8163642
MLS Listing,,Condo/Co-op,3130 N Harwood St #1801,Dallas,TX,75201,3495000,3,3.5,Bleu Ciel Condo,3604,,2018,71,970,2398,Active,,,http://www.redfin.com/TX/Dallas/3130-N-Harwood-St-75201/unit-1801/home/148735080,NTREIS,14006274,N,Y,32.7970118,-96.8112353
MLS Listing,,Single Family Residential,3828 Hanover St,University Park,TX,75225,2395000,5,7.0,University Heights 4th Sec Rev,6588,8494,2001,71,364,,Active,,,http://www.redfin.com/TX/Dallas/3828-Hanover-St-75225/home/32106002,NTREIS,13962828,N,Y,32.8551215,-96.7984708
MLS Listing,,Single Family Residential,4241 Woodfin Dr,Dallas,TX,75220,2460000,5,6.5,Rockbrook Estates,6175,32670,2001,71,398,,Active,March-31-2019 02:00 PM,March-31-2019 04:00 PM,http://www.redfin.com/TX/Dallas/4241-Woodfin-Dr-75220/home/30879429,NTREIS,13996812,N,Y,32.8714792,-96.8366283
MLS Listing,,Single Family Residential,4511 Watauga Rd,Dallas,TX,75209,6250000,6,7.5,Nanette Estates,13627,44823,2013,71,459,,Active,,,http://www.redfin.com/TX/Dallas/4511-Watauga-Rd-75209/home/30854189,NTREIS,13999006,N,Y,32.85955,-96.836803
MLS Listing,,Single Family Residential,4423 Woodfin Dr,Dallas,TX,75220,3650000,5,5.5,Rockbrook Estates,7223,25178,2019,72,505,,Active,,,http://www.redfin.com/TX/Dallas/4423-Woodfin-Dr-75220/home/30879269,NTREIS,14005513,N,Y,32.871482,-96.8331833
MLS Listing,,Single Family Residential,4340 Fairfax Ave,Highland Park,TX,75205,4395000,5,6.0,Highland Park,6100,8799,2018,72,720,,Active,,,http://www.redfin.com/TX/Dallas/4340-Fairfax-Ave-75205/home/32068952,NTREIS,14005426,N,Y,32.833369,-96.8093737
MLS Listing,,Single Family Residential,4311 Brookview Dr,Dallas,TX,75220,3380000,5,6.0,Bowling Greenwood,8204,32365,2007,72,412,,Active,,,http://www.redfin.com/TX/Dallas/4311-Brookview-Dr-75220/home/30879217,NTREIS,14003557,N,Y,32.8701729,-96.836063
MLS Listing,,Single Family Residential,2515 Thomas Ave,Dallas,TX,75201,2500000,3,3.0,Thomas,2958,7492,1930,73,845,,Active,,,http://www.redfin.com/TX/Dallas/2515-Thomas-Ave-75201/home/113416381,NTREIS,14004289,N,Y,32.7943887,-96.8001658
MLS Listing,,Single Family Residential,8923 Devonshire Dr,Dallas,TX,75209,2650000,6,5.5,Northwest Hills,6985,23392,2004,74,379,,Active,March-31-2019 01:00 PM,March-31-2019 03:00 PM,http://www.redfin.com/TX/Dallas/8923-Devonshire-Dr-75209/home/30880850,NTREIS,14002806,N,Y,32.8617992,-96.8159665
MLS Listing,,Vacant Land,54 Braewood Pl,Dallas,TX,75248,2200000,0,,Glen Abbey At Ash Bluff,,46217,,74,,492,Active,,,http://www.redfin.com/TX/Dallas/54-Braewood-Pl-75248/home/32217931,NTREIS,14003563,N,Y,32.974268,-96.81217
MLS Listing,,Vacant Land,48 Braewood Pl,Dallas,TX,75248,2200000,0,,Glen Abbey Ph 4,,41295,,74,,492,Active,,,http://www.redfin.com/TX/Dallas/48-Braewood-Pl-75248/home/32217930,NTREIS,14003604,N,Y,32.973684,-96.811843
MLS Listing,,Single Family Residential,10115 Waller Dr,Dallas,TX,75229,3290000,5,6.5,Mayflower Estates,8138,50965,2003,74,404,,Active,April-7-2019 01:00 PM,April-7-2019 03:00 PM,http://www.redfin.com/TX/Dallas/10115-Waller-Dr-75229/home/30877929,NTREIS,14001824,N,Y,32.8824021,-96.8192318
MLS Listing,,Single Family Residential,3805 Greenbrier Dr,University Park,TX,75225,3690000,5,6.0,University Heights,6150,10062,2015,75,600,,Active,April-14-2019 01:00 PM,April-14-2019 03:00 PM,http://www.redfin.com/TX/Dallas/3805-Greenbrier-Dr-75225/home/32105974,NTREIS,14003286,N,Y,32.8577375,-96.7971316
MLS Listing,,Single Family Residential,6035 Aberdeen Ave,Dallas,TX,75230,2295000,5,6.0,Dickeys,5869,15594,2014,75,391,,Active,,,http://www.redfin.com/TX/Dallas/6035-Aberdeen-Ave-75230/home/30875978,NTREIS,13999120,N,Y,32.882617,-96.8024048
MLS Listing,,Single Family Residential,3612 Greenbrier Dr,University Park,TX,75225,2695000,5,6.5,University Heights,5664,11195,1990,75,476,,Active,April-14-2019 02:00 PM,April-14-2019 04:00 PM,http://www.redfin.com/TX/Dallas/3612-Greenbrier-Dr-75225/home/32104377,NTREIS,14002127,N,Y,32.8584247,-96.7937628
MLS Listing,,Single Family Residential,4305 Westway Ave,Highland Park,TX,75205,2150000,5,5.0,Highland Park,4448,10585,1937,76,483,,Active,March-31-2019 03:00 PM,March-31-2019 04:30 PM,http://www.redfin.com/TX/Dallas/4305-Westway-Ave-75205/home/32067259,NTREIS,13993565,N,Y,32.8234757,-96.8074064
MLS Listing,,Condo/Co-op,2300 WOLF St Unit 9A,Dallas,TX,75201,3300000,3,3.5,Stoneleigh,4261,66995,2018,79,774,2835,Active,March-31-2019 01:00 PM,March-31-2019 05:00 PM,http://www.redfin.com/TX/Dallas/2300-Wolf-St-75201/unit-9A/home/32396282,NTREIS,14000515,N,Y,32.7972022,-96.8077287
MLS Listing,,Single Family Residential,3132 Caruth Blvd,University Park,TX,75225,2195000,5,5.0,Caruth Hills 03,5008,11892,1996,79,438,,Active,,,http://www.redfin.com/TX/Dallas/3132-Caruth-Blvd-75225/home/32056850,NTREIS,14000473,N,Y,32.8595937,-96.7823187
MLS Listing,,Single Family Residential,4324 Potomac Ave,Highland Park,TX,75205,2099000,4,5.5,Preston Place 01,5385,8233,1985,80,390,,Active,April-14-2019 01:00 PM,April-14-2019 03:00 PM,http://www.redfin.com/TX/Dallas/4324-Potomac-Ave-75205/home/32095027,NTREIS,14000225,N,Y,32.8378416,-96.8081807
MLS Listing,,Single Family Residential,9920 Strait Ln,Dallas,TX,75220,2595000,5,3.5,Dallas,5995,41382,1971,81,433,,Active,,,http://www.redfin.com/TX/Dallas/9920-Strait-Ln-75220/home/30879386,NTREIS,13998410,N,Y,32.8784512,-96.8257628
MLS Listing,,Condo/Co-op,3505 Turtle Creek Blvd Ph 20D,Dallas,TX,75219,3550000,3,3.5,Vendome On Turtle Creek Condo,4303,,2019,81,825,2672,Active,,,http://www.redfin.com/TX/Dallas/3505-Turtle-Creek-Blvd-75219/unit-20D/home/148633840,NTREIS,13969433,N,Y,32.8107535,-96.8037013
MLS Listing,,Condo/Co-op,2430 Victory Park Ln #2309,Dallas,TX,75219,2095000,3,3.5,Residences,3779,71787,2004,81,554,3000,Active,,,http://www.redfin.com/TX/Dallas/2430-Victory-Park-Ln-75219/unit-2309/home/30745427,NTREIS,13998328,N,Y,32.7894829,-96.810563
MLS Listing,,Condo/Co-op,2011 Cedar Springs Rd #606,Dallas,TX,75201,2999998,2,2.5,Cedar Spgs 2011,4655,,1999,81,644,1186,Active,,,http://www.redfin.com/TX/Dallas/2011-Cedar-Springs-Rd-75201/unit-606/home/32218266,NTREIS,13998709,N,Y,32.7909033,-96.8051408
MLS Listing,,Single Family Residential,4610 Irvin Simmons Dr,Dallas,TX,75229,3599000,5,5.0,Royal Gardens,7700,28706,2016,82,467,,Active,,,http://www.redfin.com/TX/Dallas/4610-Irvin-Simmons-Dr-75229/home/30877215,NTREIS,13998519,N,Y,32.8959913,-96.8292588
MLS Listing,,Single Family Residential,6539 Tulip Ln,Dallas,TX,75230,2675000,5,5.5,Nor-Dal,6740,15682,2018,82,397,,Active,April-14-2019 02:00 PM,April-14-2019 04:00 PM,http://www.redfin.com/TX/Dallas/6539-Tulip-Ln-75230/home/30876496,NTREIS,13998295,N,Y,32.8939273,-96.7915031
MLS Listing,,Single Family Residential,3632 Normandy Ave,Highland Park,TX,75205,3895000,8,8.5,Mount Vernon 01 & 03,7978,9017,2005,82,488,,Active,,,http://www.redfin.com/TX/Dallas/3632-Normandy-Ave-75205/home/32091600,NTREIS,13998135,N,Y,32.8391684,-96.793449
MLS Listing,,Single Family Residential,6606 Orchid Ln,Dallas,TX,75230,2650000,5,5.5,Nor-Dal,5940,17685,2019,82,446,,Active,,,http://www.redfin.com/TX/Dallas/6606-Orchid-Ln-75230/home/30876511,NTREIS,13998187,N,Y,32.8922775,-96.7912102
MLS Listing,,Single Family Residential,5300 Deloache Ave,Dallas,TX,75220,3900000,5,7.5,Preston Hollow Rev,6818,43821,1937,83,572,,Active,,,http://www.redfin.com/TX/Dallas/5300-Deloache-Ave-75220/home/30879678,NTREIS,13997663,N,Y,32.8706887,-96.8169712
MLS Listing,,Single Family Residential,6119 Joyce Way,Dallas,TX,75225,2349000,4,5.0,Biglot,5691,20735,2018,85,413,,Active,March-31-2019 02:00 PM,March-31-2019 04:00 PM,http://www.redfin.com/TX/Dallas/6119-Joyce-Way-75225/home/30875230,NTREIS,13997231,N,Y,32.879404,-96.801086
MLS Listing,,Single Family Residential,6283 Forest Ln,Dallas,TX,75230,2249000,4,5.0,Waterfront at Forest,5292,15290,2018,85,425,,Active,March-30-2019 02:00 PM,March-30-2019 04:00 PM,http://www.redfin.com/TX/Dallas/6283-Forest-Ln-75230/home/143838287,NTREIS,13997145,N,Y,32.909517,-96.7983499
MLS Listing,,Single Family Residential,3548 BRYN MAWR Dr,University Park,TX,75225,5250000,5,6.5,University Heights,9550,14462,2009,86,550,,Active,,,http://www.redfin.com/TX/Dallas/3548-Bryn-Mawr-Dr-75225/home/32104466,NTREIS,13964919,N,Y,32.8563258,-96.7924447
MLS Listing,,Multi-Family (5+ Unit),4300 Congress Ave,Dallas,TX,75219,4795000,0,,Clifton Place 01,19678,31494,1968,87,244,,Active,,,http://www.redfin.com/TX/Dallas/4300-Congress-Ave-75219/home/30738583,NTREIS,13995619,N,Y,32.8109296,-96.8158828
MLS Listing,,Single Family Residential,3644 Hanover St,University Park,TX,75225,3595000,5,5.5,University Heights 03,7234,11195,2018,91,497,,Active,,,http://www.redfin.com/TX/Dallas/3644-Hanover-St-75225/home/32104094,NTREIS,13990767,N,Y,32.8552137,-96.7955623
MLS Listing,,Single Family Residential,5930 Norway Rd,Dallas,TX,75230,2299000,5,6.0,Meaders Place 03 Unstl,5570,15682,2018,95,413,,Active,March-31-2019 02:00 PM,March-31-2019 04:00 PM,http://www.redfin.com/TX/Dallas/5930-Norway-Rd-75230/home/30877644,NTREIS,13982082,N,Y,32.8884629,-96.804937
MLS Listing,,Single Family Residential,6414 Aberdeen Ave,Dallas,TX,75230,2399000,5,6.5,Aberdeen Place,7115,14636,2015,99,337,,Active,,,http://www.redfin.com/TX/Dallas/6414-Aberdeen-Ave-75230/home/30875114,NTREIS,13991845,N,Y,32.8819867,-96.7958552
MLS Listing,,Single Family Residential,3912 Miramar Ave,Highland Park,TX,75205,3900000,4,4.0,Highland Park 2ND SEC,3876,15769,1920,101,1006,,Active,,,http://www.redfin.com/TX/Dallas/3912-Miramar-Ave-75205/home/32064215,NTREIS,13986948,N,Y,32.8312138,-96.799355
MLS Listing,,Single Family Residential,3525 Caruth Blvd,University Park,TX,75225,2435000,4,5.0,University Heights,5309,11892,1940,102,459,,Active,March-31-2019 03:30 PM,March-31-2019 05:00 PM,http://www.redfin.com/TX/Dallas/3525-Caruth-Blvd-75225/home/32104262,NTREIS,13989775,N,Y,32.8589281,-96.7913567
MLS Listing,,Single Family Residential,3414 Beverly Dr,Highland Park,TX,75205,8500000,6,7.0,Highland Park,10282,12676,2017,103,827,,Active,,,http://www.redfin.com/TX/Dallas/3414-Beverly-Dr-75205/home/32065636,NTREIS,13989970,N,Y,32.8326862,-96.7880301
MLS Listing,,Vacant Land,3412 Beverly Dr,Highland Park,TX,75205,3500000,0,,Highland Park 04 Instl,,13634,,105,,,Active,,,http://www.redfin.com/TX/Dallas/3412-Beverly-Dr-75205/home/32065633,NTREIS,13988967,N,Y,32.8326975,-96.7878208
MLS Listing,,Single Family Residential,6337 Tulip Ln,Dallas,TX,75230,2175000,5,6.0,Pemberton,6184,12894,2019,107,352,,Active,,,http://www.redfin.com/TX/Dallas/6337-Tulip-Ln-75230/home/30876451,NTREIS,13956278,N,Y,32.8939938,-96.7967341
MLS Listing,,Single Family Residential,5632 Caladium Dr,Dallas,TX,75230,2075000,5,6.0,Inwood Road Estates,6246,16771,2019,107,332,,Active,,,http://www.redfin.com/TX/Dallas/5632-Caladium-Dr-75230/home/30925712,NTREIS,13956550,N,Y,32.9073408,-96.8107946
MLS Listing,,Multi-Family (5+ Unit),3501 Normandy Ave,Highland Park,TX,75205,3995000,12,12.0,Mount Vernon Heights Add,9600,12153,1950,108,416,,Active,,,http://www.redfin.com/TX/Dallas/3501-Normandy-Ave-75205/home/32091822,NTREIS,13984150,N,Y,32.8385244,-96.7901265
MLS Listing,,Condo/Co-op,3130 N Harwood St #3101,Dallas,TX,75201,9900000,4,4.5,Bleu Ciel Condo,5793,,2017,108,1709,,Active,,,http://www.redfin.com/TX/Dallas/3130-N-Harwood-St-75201/unit-3101/home/148460989,NTREIS,13987956,N,Y,32.7970118,-96.8112353
MLS Listing,,Multi-Family (5+ Unit),6051 Ross Ave,Dallas,TX,75206,2190000,12,7.5,Ross at Live Oak Add,9046,11326,2013,110,242,,Active,,,http://www.redfin.com/TX/Dallas/6051-Ross-Ave-75206/home/110135137,NTREIS,13984131,N,Y,32.8114501,-96.7629677
MLS Listing,,Single Family Residential,819 Kessler Woods Trl,Dallas,TX,75208,2250000,4,5.0,Kessler Woods Court,4905,13504,2018,114,459,,Active,April-14-2019 02:00 PM,April-14-2019 04:00 PM,http://www.redfin.com/TX/Dallas/819-Kessler-Woods-Trl-75208/home/30763421,NTREIS,13983975,N,Y,32.7526297,-96.8521165
MLS Listing,,Single Family Residential,4328 Mcfarlin Blvd,University Park,TX,75205,3495000,5,6.0,Armstrong Fairway 1st Inst,7545,11282,2018,118,463,,Active,March-30-2019 01:00 PM,March-30-2019 03:00 PM,http://www.redfin.com/TX/Dallas/4328-McFarlin-Blvd-75205/home/32053785,NTREIS,13981230,N,Y,32.8444906,-96.8101062
MLS Listing,,Single Family Residential,8446 Santa Clara Dr,Dallas,TX,75218,2190000,5,5.5,Forest Hills,5672,19994,2018,120,386,,Active,,,http://www.redfin.com/TX/Dallas/8446-Santa-Clara-Dr-75218/home/30860086,NTREIS,13978986,N,Y,32.8166743,-96.7123797
MLS Listing,,Single Family Residential,7242 Paldao Dr,Dallas,TX,75240,4690000,4,3.5,Northwood Hills,4790,33454,2008,122,979,,Active,,,http://www.redfin.com/TX/Dallas/7242-Paldao-Dr-75240/home/31015475,NTREIS,13979717,N,Y,32.93905,-96.7804987
MLS Listing,,Single Family Residential,4350 Rheims Pl,Highland Park,TX,75205,2850000,3,3.0,Highland Park,4692,19341,1963,129,607,,Active,,,http://www.redfin.com/TX/Dallas/4350-Rheims-Pl-75205/home/32067319,NTREIS,13976314,N,Y,32.8252328,-96.8092759
MLS Listing,,Single Family Residential,12211 Creek Forest Dr,Dallas,TX,75230,2495000,7,7.0,Lake Forest Ph B,8983,20430,1999,134,278,434,Active,,,http://www.redfin.com/TX/Dallas/12211-Creek-Forest-Dr-75230/home/31151405,NTREIS,13974705,N,Y,32.9152132,-96.7792645
MLS Listing,,Single Family Residential,4215 Beechwood Ln,Dallas,TX,75220,2195000,6,6.5,Meadow Estates Sec 3,6868,20517,2015,134,320,,Active,,,http://www.redfin.com/TX/Dallas/4215-Beechwood-Ln-75220/home/30879510,NTREIS,13973070,N,Y,32.8757967,-96.8378427
MLS Listing,,Single Family Residential,4800 Park Ln,Dallas,TX,75220,9950000,5,6.0,Sunnybrook Estates,10210,187308,1939,135,975,,Active,,,http://www.redfin.com/TX/Dallas/4800-Park-Ln-75220/home/30879570,NTREIS,13973301,N,Y,32.873188,-96.8274305
MLS Listing,,Townhouse,2555 N Pearl St Unit RR3,Dallas,TX,75201,7200000,3,5.0,Tower & Regency Row Residence Condo,6545,52969,2009,137,1100,7135,Active,,,http://www.redfin.com/TX/Dallas/2555-N-Pearl-St-75201/unit-RR3/home/30783715,NTREIS,13967978,N,Y,32.7930223,-96.8045832
MLS Listing,,Single Family Residential,5311 Nakoma Dr,Dallas,TX,75209,2239000,4,4.0,Greenway Parks Add,5928,13155,1998,138,378,99,Active,,,http://www.redfin.com/TX/Dallas/5311-Nakoma-Dr-75209/home/30853869,NTREIS,13971637,N,Y,32.8403813,-96.8210733
MLS Listing,,Single Family Residential,5122 Shadywood Ln,Dallas,TX,75209,4250000,4,4.5,Sunnybrook Estate,6386,64295,1940,141,666,,Active,,,http://www.redfin.com/TX/Dallas/5122-Shadywood-Ln-75209/home/30879823,NTREIS,13962062,N,Y,32.8613124,-96.8236904
MLS Listing,,Single Family Residential,6404 Lavendale Ave,Dallas,TX,75230,2695000,5,6.5,Preston Royal,6146,15899,2018,141,438,,Active,,,http://www.redfin.com/TX/Dallas/6404-Lavendale-Ave-75230/home/30876683,NTREIS,13970797,N,Y,32.8956447,-96.796229
MLS Listing,,Single Family Residential,8819 Lakemont Dr,Dallas,TX,75209,2150000,4,4.5,Cullum Earl W,5641,17337,2018,142,381,,Active,March-31-2019 02:00 PM,March-31-2019 04:00 PM,http://www.redfin.com/TX/Dallas/8819-Lakemont-Dr-75209/home/30855951,NTREIS,13969659,N,Y,32.8592289,-96.8437731
MLS Listing,,Vacant Land,8740 Canyon Dr,Dallas,TX,75209,2795000,0,,Bluffview Estates,,57717,1939,144,,,Active,,,http://www.redfin.com/TX/Dallas/8740-Canyon-Dr-75209/home/30854478,NTREIS,13968379,N,Y,32.8594103,-96.8356443
MLS Listing,,Vacant Land,8738 Canyon Dr,Dallas,TX,75209,2395000,0,,Bluffview Estates,,36547,1950,144,,,Active,,,http://www.redfin.com/TX/Dallas/8738-Canyon-Dr-75209/home/30854476,NTREIS,13968372,N,Y,32.8589785,-96.8351209
MLS Listing,,Single Family Residential,6523 Pemberton Dr,Dallas,TX,75230,2600000,5,6.0,Royal Hills,5993,17250,2019,144,434,,Active,,,http://www.redfin.com/TX/Dallas/6523-Pemberton-Dr-75230/home/30876082,NTREIS,13968319,N,Y,32.8917869,-96.7921727
MLS Listing,,Single Family Residential,5656 Cedar Ridge Dr,Dallas,TX,75236,2450000,4,4.5,Booger Woods Add,7783,409028,1984,144,315,,Active,,,http://www.redfin.com/TX/Dallas/5656-Cedar-Ridge-Dr-75236/home/148124967,NTREIS,13968213,N,Y,32.6792003,-96.9258371
MLS Listing,,Single Family Residential,2909 Southwestern Blvd,University Park,TX,75225,2395000,5,8.0,Caruth Hills,5925,11195,2003,144,404,,Active,March-30-2019 01:00 PM,March-30-2019 03:00 PM,http://www.redfin.com/TX/Dallas/2909-Southwestern-Blvd-75225/home/32055159,NTREIS,13966466,N,Y,32.8567085,-96.7772981
MLS Listing,,Single Family Residential,4720 Saint Johns Dr,Highland Park,TX,75205,2950000,5,5.5,Highland Park,5644,11848,1990,146,523,,Active,March-31-2019 03:00 PM,March-31-2019 05:00 PM,http://www.redfin.com/TX/Dallas/4720-St-Johns-Dr-75205/home/32064251,NTREIS,13966928,N,Y,32.8285649,-96.7948718
MLS Listing,,Single Family Residential,709 Smirl Dr,Heath,TX,75032,2100000,4,2.5,A 0207 E Teal Track 67 and 68,1933,204732,1968,148,1086,,Active,,,http://www.redfin.com/TX/Heath/709-Smirl-Dr-75032/home/33897935,NTREIS,13965504,N,Y,32.8490318,-96.486774
MLS Listing,,Single Family Residential,3836 Centenary Ave,University Park,TX,75225,3459000,5,5.5,University Heights,6511,10498,1985,149,531,,Active,,,http://www.redfin.com/TX/Dallas/3836-Centenary-Ave-75225/home/32106761,NTREIS,13963767,N,Y,32.862639,-96.798136
MLS Listing,,Multi-Family (2-4 Unit),4144 Grassmere Ln,University Park,TX,75205,2500000,16,7.0,J W Halsells Sub,8557,7144,2007,150,292,,Active,,,http://www.redfin.com/TX/Dallas/4144-Grassmere-Ln-75205/home/30791055,NTREIS,13951430,N,Y,32.8495424,-96.8063182
MLS Listing,,Single Family Residential,3704 Centenary Ave,University Park,TX,75225,3600000,5,5.5,University Heights,5734,10498,2018,151,628,,Active,,,http://www.redfin.com/TX/Dallas/3704-Centenary-Ave-75225/home/32106798,NTREIS,13963754,N,Y,32.862637,-96.794406
MLS Listing,,Vacant Land,4417 Rheims Pl,Highland Park,TX,75205,2150000,0,,Highland Park,,12894,,151,,,Active,,,http://www.redfin.com/TX/Dallas/4417-Rheims-Pl-75205/home/32067267,NTREIS,13963497,N,Y,32.8245524,-96.8100921
MLS Listing,,Single Family Residential,6011 Club Oaks Dr,Dallas,TX,75248,2400000,5,7.0,Bent Tree 02 Rev,6610,16248,2008,152,363,,Active,,,http://www.redfin.com/TX/Dallas/6011-Club-Oaks-Dr-75248/home/31088767,NTREIS,13961612,N,Y,32.9839224,-96.8172014
MLS Listing,,Single Family Residential,19 Robledo Dr,Dallas,TX,75230,2950000,5,5.0,Estates 3,7168,32888,1996,152,412,945,Active,,,http://www.redfin.com/TX/Dallas/19-Robledo-Dr-75230/home/31141327,NTREIS,13916559,N,Y,32.906528,-96.7995542
MLS Listing,,Single Family Residential,4655 Meadowood Rd,Dallas,TX,75220,5695000,5,7.0,Meadowood Estates Sec 1,9235,76622,1999,155,617,200,Active,,,http://www.redfin.com/TX/Dallas/4655-Meadowood-Rd-75220/home/30879363,NTREIS,13961848,N,Y,32.8777944,-96.8281071
MLS Listing,,Vacant Land,6705 Golf Dr,University Park,TX,75205,2450000,0,,Francis Daniels Park 2nd Sec,,18339,,162,,,Active,,,http://www.redfin.com/TX/Dallas/6705-Golf-Dr-75205/home/143839549,NTREIS,13957005,N,Y,32.8477975,-96.7948509
MLS Listing,,Single Family Residential,9119 Guernsey Ln,Dallas,TX,75220,2995000,4,5.0,Mc Cullah Sub,5225,29621,1984,163,573,,Active,,,http://www.redfin.com/TX/Dallas/9119-Guernsey-Ln-75220/home/31136756,NTREIS,13955604,N,Y,32.8651772,-96.8312058
MLS Listing,,Single Family Residential,4400 Beverly Dr,Highland Park,TX,75205,4690000,4,5.5,Highland Park West 04 Instl,7444,10454,2015,165,630,,Active,,,http://www.redfin.com/TX/Dallas/4400-Beverly-Dr-75205/home/32068498,NTREIS,13954903,N,Y,32.8324349,-96.8104201
MLS Listing,,Vacant Land,9122 Inwood Rd,Dallas,TX,75209,4670000,0,,Sunnybrook Estates,,203425,,166,,,Active,,,http://www.redfin.com/TX/Dallas/9122-Inwood-Rd-75209/home/30879773,NTREIS,13950933,N,Y,32.8650842,-96.8216599
MLS Listing,,Condo/Co-op,2801 Turtle Creek Blvd Unit 7W,Dallas,TX,75219,3195000,3,5.5,Mansion Residence,4128,,1992,166,774,4071,Active,,,http://www.redfin.com/TX/Dallas/2801-Turtle-Creek-Blvd-75219/unit-7W/home/31176131,NTREIS,13954333,N,Y,32.8042498,-96.8068204
MLS Listing,,Single Family Residential,6215 Rex Dr,Dallas,TX,75230,2135000,5,6.0,Royal Crest,7390,16030,2001,166,289,,Active,,,http://www.redfin.com/TX/Dallas/6215-Rex-Dr-75230/home/30876731,NTREIS,13911287,N,Y,32.8993486,-96.799383
MLS Listing,,Single Family Residential,9346 Sunnybrook Ln,Dallas,TX,75220,5250000,5,6.5,Sunnybrook Estates Add,8977,48961,1987,166,585,,Active,,,http://www.redfin.com/TX/Dallas/9346-Sunnybrook-Ln-75220/home/30739823,NTREIS,13953898,N,Y,32.8710441,-96.8249254
MLS Listing,,Single Family Residential,4216 Caruth Blvd,University Park,TX,75225,2439000,5,6.0,Preston Homes,5614,8625,2018,169,434,,Active,March-31-2019 01:00 PM,March-31-2019 03:00 PM,http://www.redfin.com/TX/Dallas/4216-Caruth-Blvd-75225/home/32095284,NTREIS,13953298,N,Y,32.8590886,-96.8073646
MLS Listing,,Single Family Residential,5941 Desco Dr,Dallas,TX,75225,3375000,5,7.0,El Parado,7553,15943,2018,170,447,,Active,March-30-2019 02:00 PM,March-30-2019 04:00 PM,http://www.redfin.com/TX/Dallas/5941-Desco-Dr-75225/home/30880000,NTREIS,13952005,N,Y,32.8754322,-96.8046047
MLS Listing,,Single Family Residential,5940 Watson Ave,Dallas,TX,75225,3350000,5,7.5,El Parado,7216,16117,2018,170,464,,Active,,,http://www.redfin.com/TX/Dallas/5940-Watson-Ave-75225/home/145767437,NTREIS,13951985,N,Y,32.8758054,-96.8047274
MLS Listing,,Single Family Residential,11241 Jamestown Rd,Dallas,TX,75230,2395900,5,6.0,Northaven Park 02,6514,16161,2018,171,368,,Active,,,http://www.redfin.com/TX/Dallas/11241-Jamestown-Rd-75230/home/30926223,NTREIS,13951663,N,Y,32.9016999,-96.8077622
MLS Listing,,Single Family Residential,5947 Park Ln,Dallas,TX,75225,2499999,5,6.0,El Parado,6572,15420,2014,172,380,,Active,,,http://www.redfin.com/TX/Dallas/5947-Park-Ln-75225/home/30879973,NTREIS,13932674,N,Y,32.8742705,-96.8043301
MLS Listing,,Single Family Residential,7841 Idlewood Ln,Dallas,TX,75230,2245900,5,6.0,Hill Haven Heights 02,5482,17206,2018,173,410,,Active,,,http://www.redfin.com/TX/Dallas/7841-Idlewood-Ln-75230/home/30989311,NTREIS,13950122,N,Y,32.9050948,-96.7730937
MLS Listing,,Single Family Residential,8903 Devonshire Dr,Dallas,TX,75209,2799000,4,4.5,Northwest Hills,5242,20865,1952,176,534,,Active,March-31-2019 01:00 PM,March-31-2019 03:00 PM,http://www.redfin.com/TX/Dallas/8903-Devonshire-Dr-75209/home/30880848,NTREIS,13948300,N,Y,32.86128,-96.8157944
MLS Listing,,Single Family Residential,5808 Caladium Dr,Dallas,TX,75230,2150000,5,7.0,Inwood Road Estates,6676,16117,2018,176,322,,Active,March-31-2019 01:00 PM,March-31-2019 03:00 PM,http://www.redfin.com/TX/Dallas/5808-Caladium-Dr-75230/home/30925693,NTREIS,13948703,N,Y,32.907167,-96.8088481
MLS Listing,,Vacant Land,3719 Miramar Ave,Highland Park,TX,75205,7995000,0,,Highland Park,,39945,,177,,,Active,,,http://www.redfin.com/TX/Dallas/3719-Miramar-Ave-75205/home/32064390,NTREIS,13947187,N,Y,32.830512,-96.7956169
MLS Listing,,Single Family Residential,3504 Wentwood Dr,University Park,TX,75225,3395000,5,5.5,University Heights 06,6672,10498,2018,178,509,,Active,,,http://www.redfin.com/TX/Dallas/3504-Wentwood-Dr-75225/home/32106655,NTREIS,13946290,N,Y,32.8636154,-96.7890134
MLS Listing,,Single Family Residential,6429 Azalea Ln,Dallas,TX,75230,2859900,5,6.0,Royal Crest,7388,17032,2018,179,387,,Active,,,http://www.redfin.com/TX/Dallas/6429-Azalea-Ln-75230/home/30876593,NTREIS,13940863,N,Y,32.8972664,-96.7953949
MLS Listing,,Single Family Residential,8823 Briarwood Ln,Dallas,TX,75209,5250000,4,4.5,Sunnybrook Estates,9040,60984,1999,180,581,,Active,,,http://www.redfin.com/TX/Dallas/8823-Briarwood-Ln-75209/home/30879161,NTREIS,13945444,N,Y,32.8605134,-96.8266839
MLS Listing,,Condo/Co-op,3505 Turtle Creek Blvd Unit 4C,Dallas,TX,75219,2395000,3,4.0,Vendome On Turtle Creek,4044,90997,2000,183,592,2380,Active,,,http://www.redfin.com/TX/Dallas/3505-Turtle-Creek-Blvd-75219/unit-4C/home/30731941,NTREIS,13943844,N,Y,32.8107585,-96.8037023
MLS Listing,,Single Family Residential,3212 Dartmouth Ave,Highland Park,TX,75205,4250000,2,2.5,Highland Park,4787,14985,1978,184,888,,Active,,,http://www.redfin.com/TX/Dallas/3212-Dartmouth-Ave-75205/home/32065872,NTREIS,13932922,N,Y,32.8304345,-96.7846618
MLS Listing,,Single Family Residential,4707 Wildwood Rd,Dallas,TX,75209,3150000,4,4.5,Greene,5415,37418,1995,187,582,,Active,,,http://www.redfin.com/TX/Dallas/4707-Wildwood-Rd-75209/home/30739935,NTREIS,13939966,N,Y,32.8594996,-96.8340617
MLS Listing,,Single Family Residential,4411 Belfort Ave,Highland Park,TX,75205,4395000,4,6.5,Highland Park West 08 Instl,6437,20255,1937,190,683,,Active,,,http://www.redfin.com/TX/Dallas/4411-Belfort-Pl-75205/home/32067315,NTREIS,13928608,N,Y,32.8255954,-96.8094643
MLS Listing,,Single Family Residential,10121 Waller Dr,Dallas,TX,75229,6750000,5,6.5,Mayflower Estates,10751,43560,2015,190,628,,Active,,,http://www.redfin.com/TX/Dallas/10121-Waller-Dr-75229/home/30877922,NTREIS,13937989,N,Y,32.8828106,-96.8193783
MLS Listing,,Vacant Land,4631 Wildwood Rd,Dallas,TX,75209,2250000,0,,Bluffview Estates,,38595,,190,,,Active,,,http://www.redfin.com/TX/Dallas/4631-Wildwood-Rd-75209/home/30854471,NTREIS,13937897,N,Y,32.8589424,-96.8343776
MLS Listing,,Single Family Residential,7155 W Circle Dr,Dallas,TX,75214,3000000,5,6.5,Merrill,7263,21911,2016,191,413,,Active,,,http://www.redfin.com/TX/Dallas/7155-W-Circle-Dr-75214/home/30845149,NTREIS,13938408,N,Y,32.8420254,-96.7325405
MLS Listing,,Single Family Residential,5400 Edlen Dr,Dallas,TX,75220,6945000,5,8.5,Inwood Add,15530,44431,2018,192,447,,Active,March-31-2019 01:00 PM,March-31-2019 03:00 PM,http://www.redfin.com/TX/Dallas/5400-Edlen-Dr-75220/home/30879908,NTREIS,13937978,N,Y,32.878192,-96.815387
MLS Listing,,Single Family Residential,3528 University Blvd,University Park,TX,75205,2950000,5,6.5,University Park,6075,10498,2014,192,486,,Active,,,http://www.redfin.com/TX/Dallas/3528-University-Blvd-75205/home/32109865,NTREIS,13937820,N,Y,32.8453204,-96.7916078
MLS Listing,,Single Family Residential,3901 Turtle Creek Blvd #2,Dallas,TX,75219,3750000,4,5.0,Place Des Vosges,6163,8756,2006,193,608,1435,Active,,,http://www.redfin.com/TX/Dallas/3901-Turtle-Creek-Blvd-75219/unit-2/home/31125474,NTREIS,13936964,N,Y,32.817007,-96.7998701
MLS Listing,,Single Family Residential,3207 Beverly Dr,Highland Park,TX,75205,2689000,5,5.5,Highland Park 04 Instl,4757,11500,1997,195,565,,Active,,,http://www.redfin.com/TX/Dallas/3207-Beverly-Dr-75205/home/32065730,NTREIS,13935729,N,Y,32.8318698,-96.784076
MLS Listing,,Single Family Residential,6243 Forest Ln,Dallas,TX,75230,2345000,4,5.0,Waterfront at Forest,5748,12850,2018,197,408,,Active,,,http://www.redfin.com/TX/Dallas/6243-Forest-Ln-75230/home/143838285,NTREIS,13935082,N,Y,32.909927,-96.798179
MLS Listing,,Single Family Residential,5350 S Dentwood Dr,Dallas,TX,75220,3999000,5,6.0,Preston Hollow,9510,59547,1951,197,421,,Active,March-31-2019 02:00 PM,March-31-2019 04:00 PM,http://www.redfin.com/TX/Dallas/5350-S-Dentwood-Dr-75220/home/30879536,NTREIS,13928287,N,Y,32.867902,-96.8166268
MLS Listing,,Single Family Residential,501 Carter Dr,Coppell,TX,75019,2200000,5,7.0,Carter Ph 02,6020,298822,2002,197,365,,Active,,,http://www.redfin.com/TX/Coppell/501-Carter-Dr-75019/home/32201947,NTREIS,13934508,N,Y,32.955046,-96.978261
MLS Listing,,Single Family Residential,8414 Swananoah Rd,Dallas,TX,75209,2699000,5,5.5,Bluffview Estates,7137,21475,2008,197,378,,Active,March-30-2019 01:00 PM,March-30-2019 03:00 PM,http://www.redfin.com/TX/Dallas/8414-Swananoah-Rd-75209/home/30854230,NTREIS,13934336,N,Y,32.8549806,-96.838073
MLS Listing,,Single Family Residential,5749 Redwood,Dallas,TX,75209,2695000,6,7.0,Highway Estates,8102,20996,2005,198,333,,Active,,,http://www.redfin.com/TX/Dallas/5749-Redwood-Ln-75209/home/30880598,NTREIS,13934534,N,Y,32.8630441,-96.8140409
MLS Listing,,Single Family Residential,4709 Bluffview Blvd,Dallas,TX,75209,3690000,4,6.0,Bluffview Estates,6654,43821,1999,198,555,,Active,,,http://www.redfin.com/TX/Dallas/4709-Bluffview-Blvd-75209/home/30854483,NTREIS,13933859,N,Y,32.8591457,-96.8324619
MLS Listing,,Condo/Co-op,3401 Lee Pkwy #2204,Dallas,TX,75219,2230000,3,4.5,Mayfair at Turtle Creek,4507,85508,1998,201,495,3110,Active,,,http://www.redfin.com/TX/Dallas/3401-Lee-Pkwy-75219/unit-2204/home/32219890,NTREIS,13931764,N,Y,32.8092977,-96.8046809
MLS Listing,,Single Family Residential,3700 Normandy Ave,Highland Park,TX,75205,2225000,4,5.0,MOUNT VERNON 1 & 3,5845,8625,2005,201,381,,Active,March-31-2019 01:00 PM,March-31-2019 03:00 PM,http://www.redfin.com/TX/Dallas/3700-Normandy-Ave-75205/home/32091612,NTREIS,13931617,N,Y,32.839201,-96.793929
MLS Listing,,Condo/Co-op,2525 N PEARL St #1804,Dallas,TX,75201,2700000,2,2.5,Ritz Carlton Residences 1,2979,148104,2008,204,906,2896,Active,,,http://www.redfin.com/TX/Dallas/2525-N-Pearl-St-75201/unit-1804/home/30783269,NTREIS,13905442,N,Y,32.793039,-96.8042401
MLS Listing,,Condo/Co-op,2525 N PEARL St Ph 1901,Dallas,TX,75201,2950000,2,2.5,Ritz Carlton Residences 1,2928,145708,2008,204,1008,2847,Active,,,http://www.redfin.com/TX/Dallas/2525-N-Pearl-St-75201/unit-1901/home/30783266,NTREIS,13924231,N,Y,32.793039,-96.8042401
MLS Listing,,Single Family Residential,5431 Ursula Ln,Dallas,TX,75229,4995000,5,7.5,Lobello Estates,10040,47916,2006,205,498,,Active,,,http://www.redfin.com/TX/Dallas/5431-Ursula-Ln-75229/home/30877884,NTREIS,13928541,N,Y,32.891526,-96.8142921
MLS Listing,,Single Family Residential,4325 Fairfax Ave,Highland Park,TX,75205,3100000,5,6.0,Highland Park,6644,9409,2005,206,467,,Active,,,http://www.redfin.com/TX/Dallas/4325-Fairfax-Ave-75205/home/32068548,NTREIS,13928765,N,Y,32.8328236,-96.8085156
MLS Listing,,Single Family Residential,5131 Shadywood Ln,Dallas,TX,75209,5999000,5,9.5,Sunnybrook Estates,13305,50704,2007,206,451,,Active,,,http://www.redfin.com/TX/Dallas/5131-Shadywood-Ln-75209/home/30879815,NTREIS,13925051,N,Y,32.8622288,-96.8241718
MLS Listing,,Single Family Residential,3401 Caruth Blvd,University Park,TX,75225,2999000,5,5.5,University Heights,6086,13591,2018,207,493,,Active,,,http://www.redfin.com/TX/Dallas/3401-Caruth-Blvd-75225/home/32104255,NTREIS,13927864,N,Y,32.8589264,-96.7869421
MLS Listing,,Single Family Residential,3650 University Blvd,University Park,TX,75205,4560000,7,9.5,University Park Amd,9137,15682,2006,207,499,,Active,,,http://www.redfin.com/TX/Dallas/3650-University-Blvd-75205/home/32109959,NTREIS,13927488,N,Y,32.8453837,-96.7952903
MLS Listing,,Single Family Residential,5923 Park Ln,Dallas,TX,75225,5495000,5,6.0,El Parado,8582,17119,2018,212,640,,Active,,,http://www.redfin.com/TX/Dallas/5923-Park-Ln-75225/home/30879976,NTREIS,13924769,N,Y,32.8742366,-96.8053555
MLS Listing,,Single Family Residential,4707 Chapel Hill Rd,Dallas,TX,75214,3875000,5,6.5,Cloisters Rev,9449,43255,1991,214,410,42,Active,,,http://www.redfin.com/TX/Dallas/4707-Chapel-Hill-Rd-75214/home/30845531,NTREIS,13917947,N,Y,32.8472677,-96.7312108
MLS Listing,,Single Family Residential,5211 Farquhar Ln,Dallas,TX,75209,4495000,4,6.0,Inwood Terrace Add,6473,24002,2008,215,694,,Active,,,http://www.redfin.com/TX/Dallas/5211-Farquhar-Ln-75209/home/30880839,NTREIS,13921940,N,Y,32.8608066,-96.8229158
MLS Listing,,Single Family Residential,4610 Catina Ln,Dallas,TX,75229,6995000,6,8.5,Wilson Estates,11577,54842,2018,218,604,,Active,,,http://www.redfin.com/TX/Dallas/4610-Catina-Ln-75229/home/30878397,NTREIS,13921380,N,Y,32.89274,-96.829217
MLS Listing,,Single Family Residential,5906 Deloache Ave,Dallas,TX,75225,7750000,4,7.5,JORDAN WAY,11394,110468,1939,218,680,,Active,,,http://www.redfin.com/TX/Dallas/5906-Deloache-Ave-75225/home/40149153,NTREIS,13921255,N,Y,32.8695923,-96.8063077
MLS Listing,,Single Family Residential,3502 Caruth Blvd,University Park,TX,75225,3250000,5,6.0,University Heights,7118,11892,2011,221,457,,Active,April-7-2019 02:00 PM,April-7-2019 04:00 PM,http://www.redfin.com/TX/Dallas/3502-Caruth-Blvd-75225/home/32104161,NTREIS,13918665,N,Y,32.8595678,-96.7892644
MLS Listing,,Single Family Residential,4665 Meadowood Rd,Dallas,TX,75220,3750000,5,6.0,Meadowood Estates,7485,77537,1951,233,501,225,Active,March-31-2019 02:00 PM,March-31-2019 05:00 PM,http://www.redfin.com/TX/Dallas/4665-Meadowood-Rd-75220/home/30879361,NTREIS,13910142,N,Y,32.8783232,-96.8281074
MLS Listing,,Single Family Residential,10739 Bridge Hollow Ct,Dallas,TX,75229,7490000,7,9.0,Creeks Of Preston Hollow,14940,48264,2016,234,501,1700,Active,April-14-2019 03:00 PM,April-14-2019 05:00 PM,http://www.redfin.com/TX/Dallas/10739-Bridge-Hollow-Ct-75229/home/30781100,NTREIS,13905358,N,Y,32.8944992,-96.8216111
MLS Listing,,Single Family Residential,5315 Rock Cliff Pl,Dallas,TX,75209,3900000,4,4.0,Sunnybrook Estates,6147,60113,1952,242,634,,Active,,,http://www.redfin.com/TX/Dallas/5315-Rock-Cliff-Pl-75209/home/30879772,NTREIS,13903587,N,Y,32.8643277,-96.8222669
MLS Listing,,Single Family Residential,3201 Greenbrier Dr,University Park,TX,75225,2199000,4,5.5,University Heights 03 Amd,5809,11674,1992,252,379,,Active,March-31-2019 03:00 PM,March-31-2019 05:00 PM,http://www.redfin.com/TX/Dallas/3201-Greenbrier-Dr-75225/home/32102669,NTREIS,13891239,N,Y,32.8577944,-96.7831555
MLS Listing,,Single Family Residential,5139 Seneca Dr,Dallas,TX,75209,8995000,6,7.5,Carroll & Culwells,16000,101930,2010,253,562,,Active,,,http://www.redfin.com/TX/Dallas/5139-Seneca-Dr-75209/home/30879795,NTREIS,13895333,N,Y,32.8644348,-96.8239206
MLS Listing,,Single Family Residential,3800 Stratford Ave,Highland Park,TX,75205,7595000,6,8.5,Highland Park,8664,14549,2006,260,877,,Active,March-31-2019 02:00 PM,March-31-2019 04:00 PM,http://www.redfin.com/TX/Dallas/3800-Stratford-Ave-75205/home/32064003,NTREIS,13890676,N,Y,32.8342798,-96.7966504
MLS Listing,,Single Family Residential,4346 Park Ln,Dallas,TX,75220,4235000,5,6.0,Turner,8069,48744,2000,260,525,42,Active,,,http://www.redfin.com/TX/Dallas/4346-Park-Ln-75220/home/30879398,NTREIS,13890159,N,Y,32.8736424,-96.8343462
MLS Listing,,Vacant Land,3801 Shenandoah St,Highland Park,TX,75205,3495000,0,,Mount Vernon 03,,18905,,271,,,Active,,,http://www.redfin.com/TX/Dallas/3801-Shenandoah-St-75205/home/32091926,NTREIS,13880861,N,Y,32.83974,-96.795777
MLS Listing,,Single Family Residential,4517 Southern Ave,Highland Park,TX,75205,2200000,5,5.5,Highland Park,5766,6752,2008,274,382,,Active,,,http://www.redfin.com/TX/Dallas/4517-Southern-Ave-75205/home/32070422,NTREIS,13879839,N,Y,32.8354267,-96.8138735
MLS Listing,,Vacant Land,3621 Centenary Ave,University Park,TX,75225,2350000,0,,University Heights,,14244,1951,274,,,Active,,,http://www.redfin.com/TX/Dallas/3621-Centenary-Ave-75225/home/32105657,NTREIS,13875875,N,Y,32.862088,-96.7936749
MLS Listing,,Condo/Co-op,1918 N Olive St #4202,Dallas,TX,75201,6495000,0,,Museum Tower Condo,4499,,2012,281,1444,4070,Active,,,http://www.redfin.com/TX/Dallas/1918-N-Olive-St-75201/unit-4202/home/146089197,NTREIS,13874109,N,Y,32.7891972,-96.8000193
MLS Listing,,Single Family Residential,4101 Hanover St,University Park,TX,75225,2750000,5,5.0,Idlewild,5419,10803,2018,285,507,,Active,,,http://www.redfin.com/TX/Dallas/4101-Hanover-St-75225/home/32071938,NTREIS,13859720,N,Y,32.8547293,-96.8044766
MLS Listing,,Ranch,900 Stark Rd,Seagoville,TX,75159,2177000,0,,,,3793205,,285,,,Active,,,http://www.redfin.com/TX/Seagoville/900-Stark-Rd-75159/home/146074179,NTREIS,13869616,N,Y,32.685153,-96.555826
MLS Listing,,Single Family Residential,3140 Southwestern Blvd,University Park,TX,75225,2695000,5,6.5,Caruth Hills,6100,11195,2018,288,442,,Active,,,http://www.redfin.com/TX/Dallas/3140-Southwestern-Blvd-75225/home/32055135,NTREIS,13868760,N,Y,32.8573555,-96.782758
MLS Listing,,Single Family Residential,6480 Royalton Dr,Dallas,TX,75230,3299000,5,6.0,Royal Crest Add 05,6929,23697,2018,288,476,,Active,March-31-2019 03:00 PM,March-31-2019 05:00 PM,http://www.redfin.com/TX/Dallas/6480-Royalton-Dr-75230/home/30876565,NTREIS,13868332,N,Y,32.8961904,-96.7942232
MLS Listing,,Single Family Residential,3116 Amherst Ave,University Park,TX,75225,2199000,4,5.0,Caruth Hills,5338,9801,2012,295,412,,Active,April-14-2019 02:00 PM,April-14-2019 04:00 PM,http://www.redfin.com/TX/Dallas/3116-Amherst-Ave-75225/home/32056667,NTREIS,13862297,N,Y,32.8523689,-96.7813146
MLS Listing,,Single Family Residential,14208 Hughes Ln,Dallas,TX,75254,2999999,5,7.0,Williamsburg,11804,39596,1984,298,254,21,Active,,,http://www.redfin.com/TX/Dallas/14208-Hughes-Ln-75254/home/31073661,NTREIS,13858061,N,Y,32.942714,-96.798136
MLS Listing,,Single Family Residential,3904 Wentwood Dr,University Park,TX,75225,3925000,5,6.0,University Heights 6th Sec,5623,20996,2000,299,698,,Active,,,http://www.redfin.com/TX/Dallas/3904-Wentwood-Dr-75225/home/32106919,NTREIS,13858278,N,Y,32.8636839,-96.7990567
MLS Listing,,Ranch,234 E Stark Rd,Seagoville,TX,75159,3326400,0,,Wolford,,6969600,,301,,,Active,,,http://www.redfin.com/TX/Seagoville/234-E-Stark-Rd-75159/home/32129909,NTREIS,13857179,N,Y,32.6694305,-96.5836263
MLS Listing,,Single Family Residential,39 Braewood Pl,Dallas,TX,75248,3999000,5,6.5,Glen Abbey,13713,22695,2009,302,292,492,Active,,,http://www.redfin.com/TX/Dallas/39-Braewood-Pl-75248/home/32217924,NTREIS,13855801,N,Y,32.9727082,-96.8120316
MLS Listing,,Single Family Residential,3649 Maplewood Ave,Highland Park,TX,75205,3495000,4,3.5,Highland Park,4958,11326,1921,315,705,,Active,April-14-2019 01:00 PM,April-14-2019 03:00 PM,http://www.redfin.com/TX/Dallas/3649-Maplewood-Ave-75205/home/32064303,NTREIS,13838442,N,Y,32.8348406,-96.7937942
MLS Listing,,Single Family Residential,5531 Ursula Ln,Dallas,TX,75229,4750000,5,7.0,Lobello Estates,7980,47916,2016,319,595,,Active,,,http://www.redfin.com/TX/Dallas/5531-Ursula-Ln-75229/home/30877882,NTREIS,13842086,N,Y,32.8914513,-96.8128479
MLS Listing,,Single Family Residential,9818 hathaway,Dallas,TX,75220,5590000,5,6.5,John Howell Abs 580 City Bl 56,13000,27530,2015,323,430,,Active,,,http://www.redfin.com/TX/Dallas/9818-Hathaway-St-75220/home/30879863,NTREIS,13840472,N,Y,32.8776899,-96.8107759
MLS Listing,,Single Family Residential,4656 Meadowood Rd,Dallas,TX,75220,8795000,4,6.0,Meadowood Estates SEC 1,13220,135297,1987,334,665,,Active,March-31-2019 01:00 PM,March-31-2019 02:30 PM,http://www.redfin.com/TX/Dallas/4656-Meadowood-Rd-75220/home/31136882,NTREIS,13785082,N,Y,32.8775561,-96.8260977
MLS Listing,,Single Family Residential,6930 Turtle Creek Blvd,University Park,TX,75205,6995000,4,6.0,Brookside Estates,9425,41382,2001,344,742,,Active,,,http://www.redfin.com/TX/Dallas/6930-Turtle-Creek-Blvd-75205/home/32055342,NTREIS,13822657,N,Y,32.849587,-96.794422
MLS Listing,,Single Family Residential,3508 Crescent Ave,Highland Park,TX,75205,9950000,4,7.0,Highland Park,12266,23740,2018,345,811,,Active,,,http://www.redfin.com/TX/Dallas/3508-Crescent-Ave-75205/home/32064450,NTREIS,13822443,N,Y,32.8242331,-96.7938675
MLS Listing,,Single Family Residential,25 Braewood Pl,Dallas,TX,75248,7995000,5,7.5,Glen Abbey Brinker Place,13995,38507,2007,347,571,492,Active,,,http://www.redfin.com/TX/Dallas/25-Braewood-Pl-75248/home/32217972,NTREIS,13820486,N,Y,32.9716333,-96.8108596
MLS Listing,,Single Family Residential,10405 Somerton Dr,Dallas,TX,75229,2290000,6,6.5,Northway Hills,7460,15682,2017,351,307,,Active,,,http://www.redfin.com/TX/Dallas/10405-Somerton-Dr-75229/home/30910668,NTREIS,13807430,N,Y,32.8879692,-96.8452973
MLS Listing,,Single Family Residential,3304 Beverly Dr,Highland Park,TX,75205,2499000,5,5.5,Highland Park,5020,12676,1941,366,498,,Active,March-31-2019 03:00 PM,March-31-2019 05:00 PM,http://www.redfin.com/TX/Dallas/3304-Beverly-Dr-75205/home/32065617,NTREIS,13795223,N,Y,32.8326839,-96.785645
MLS Listing,,Single Family Residential,3821 Beverly Dr,Highland Park,TX,75205,9975000,7,7.0,Highland Park,10057,22521,1992,390,992,,Active,,,http://www.redfin.com/TX/Dallas/3821-Beverly-Dr-75205/home/32064198,NTREIS,13788282,N,Y,32.8319238,-96.7976338
MLS Listing,,Single Family Residential,4815 Saint Johns Dr,Highland Park,TX,75205,3500000,6,6.0,Henry E Englishs,6421,24829,1982,400,545,,Active,,,http://www.redfin.com/TX/Dallas/4815-St-Johns-Dr-75205/home/32070005,NTREIS,13782429,N,Y,32.8303212,-96.7944324
MLS Listing,,Single Family Residential,3816 Purdue Ave,University Park,TX,75225,2448000,5,5.5,University Heights Add 01 Sec Rev,5300,7013,2018,420,462,,Active,,,http://www.redfin.com/TX/Dallas/3816-Purdue-Ave-75225/home/32108472,NTREIS,13770087,N,Y,32.854185,-96.797573
MLS Listing,,Single Family Residential,21 Robledo Dr,Dallas,TX,75230,2995000,6,6.5,Estates 3r,10263,48657,1993,424,292,667,Active,,,http://www.redfin.com/TX/Dallas/21-Robledo-Dr-75230/home/31141324,NTREIS,13766461,N,Y,32.9069657,-96.7995532
MLS Listing,,Single Family Residential,3508 Armstrong Ave,Highland Park,TX,75205,4475000,5,8.0,Highland Park 01 Instl,8204,21388,1988,443,545,,Active,,,http://www.redfin.com/TX/Dallas/3508-Armstrong-Ave-75205/home/32064466,NTREIS,13756376,N,Y,32.8233013,-96.7948718
MLS Listing,,Single Family Residential,5635 Yolanda Cir,Dallas,TX,75229,3699500,4,6.0,Meaders Lane,9918,60069,2011,450,373,,Active,,,http://www.redfin.com/TX/Dallas/5635-Yolanda-Cir-75229/home/30877689,NTREIS,13727501,N,Y,32.8883816,-96.8108596
MLS Listing,,Single Family Residential,6009 Pompton Ct,Dallas,TX,75248,2995000,3,5.0,Preston Trails Sec 05,12296,35806,2001,529,244,260,Active,,,http://www.redfin.com/TX/Dallas/6009-Pompton-Ct-75248/home/31087070,NTREIS,13712022,N,Y,32.9794813,-96.8050835
MLS Listing,,Single Family Residential,4211 Windsor,University Park,TX,75205,4175000,6,5.5,Stratford Manor,6671,9148,2018,529,626,,Active,,,http://www.redfin.com/TX/Dallas/4211-Windsor-Pkwy-75205/home/32097021,NTREIS,13713859,N,Y,32.8419336,-96.807532
MLS Listing,,Single Family Residential,9700 Audubon Pl,Dallas,TX,75220,4750000,5,7.5,Sunnybrook Estates,11508,43996,2002,801,413,,Active,April-14-2019 03:00 PM,April-14-2019 05:00 PM,http://www.redfin.com/TX/Dallas/9700-Audubon-Pl-75220/home/30879578,NTREIS,13519902,N,Y,32.8739476,-96.8263489
MLS Listing,,Vacant Land,4311 Rheims Pl,Highland Park,TX,75205,6350000,0,,Highland Park West 08,,54886,,835,,,Active,,,http://www.redfin.com/TX/Dallas/4311-Rheims-Pl-75205/home/32067220,NTREIS,13508821,N,Y,32.8245336,-96.808118
