SALE TYPE,SOLD DATE,PROPERTY TYPE,ADDRESS,CITY,STATE OR PROVINCE,ZIP OR POSTAL CODE,PRICE,BEDS,BATHS,LOCATION,SQUARE FEET,LOT SIZE,YEAR BUILT,DAYS ON MARKET,$/SQUARE FEET,HOA/MONTH,STATUS,NEXT OPEN HOUSE START TIME,NEXT OPEN HOUSE END TIME,URL (SEE http://www.redfin.com/buy-a-home/comparative-market-analysis FOR INFO ON PRICING),SOURCE,MLS#,FAVORITE,INTERESTED,LATITUDE,LONGITUDE
PAST SALE,January-17-2019,Condo/Co-op,3816 Roseland Ave Unit D 200,Dallas,TX,75204,459000,3,2.5,3816 Roseland Condominium,2150,7057,2016,82,213,350,Sold,,,http://www.redfin.com/TX/Dallas/3816-Roseland-Ave-75204/unit-D-200/home/146964877,NTREIS,13922329,N,Y,32.798923,-96.786372
PAST SALE,February-12-2019,Single Family Residential,6443 San Saba,Irving,TX,75039,439990,3,2.5,La Villita Ph 1f,2451,4443,2007,56,180,44,Sold,,,http://www.redfin.com/TX/Irving/6443-San-Saba-75039/home/30778829,NTREIS,13943046,N,Y,32.8978812,-96.931045
PAST SALE,February-22-2019,Condo/Co-op,4611 Travis St Unit 1401B,Dallas,TX,75205,475000,2,2.0,Travis Knox Condos,1552,26920,2000,46,306,893,Sold,,,http://www.redfin.com/TX/Dallas/4611-Travis-St-75205/unit-1401B/home/30765919,NTREIS,13949774,N,Y,32.8243394,-96.7902695
PAST SALE,February-20-2019,Single Family Residential,11022 Yorkspring,Dallas,TX,75218,460000,3,2.5,Lochwood Meadows,2314,8581,1968,48,199,,Sold,,,http://www.redfin.com/TX/Dallas/11022-Yorksprings-Pl-75218/home/148007057,NTREIS,13965918,N,Y,32.8606457,-96.6950973
PAST SALE,March-5-2019,Multi-Family (2-4 Unit),6101 Victor St,Dallas,TX,75214,444500,4,2.0,Hillcrest Add,2416,7884,1926,35,184,,Sold,,,http://www.redfin.com/TX/Dallas/6101-Victor-St-75214/home/30802403,NTREIS,13980545,N,Y,32.8080124,-96.7518401
PAST SALE,January-18-2019,Single Family Residential,2323 Kirby St,Dallas,TX,75204,499999,3,1.5,Milimo Terrace,1887,8276,1930,81,265,,Sold,,,http://www.redfin.com/TX/Dallas/2323-Kirby-St-75204/home/30809512,NTREIS,13897698,N,Y,32.8090226,-96.7835546
PAST SALE,February-5-2019,Townhouse,4075 Buena Vista St,Dallas,TX,75204,435000,2,2.5,Buena Vista Townhouse,1317,2047,1973,63,330,200,Sold,,,http://www.redfin.com/TX/Dallas/4075-Buena-Vista-St-75204/home/30798901,NTREIS,13984847,N,Y,32.8155675,-96.7960334
PAST SALE,February-4-2019,Townhouse,4119 Throckmorton St,Dallas,TX,75219,499000,3,2.5,Oxbridge Add,2070,2091,1997,64,241,,Sold,,,http://www.redfin.com/TX/Dallas/4119-Throckmorton-St-75219/home/31124175,NTREIS,13928234,N,Y,32.8194106,-96.8047257
PAST SALE,January-22-2019,Single Family Residential,6306 Martel Ave,Dallas,TX,75214,425000,3,1.0,Wilshire Heights,1251,8102,1948,77,340,,Sold,,,http://www.redfin.com/TX/Dallas/6306-Martel-Ave-75214/home/30820872,NTREIS,13990802,N,Y,32.8318087,-96.7556058
PAST SALE,March-8-2019,Single Family Residential,8618 Columbia Dr,Rowlett,TX,75089,499000,3,2.5,Spinnaker Cove #2,2118,7275,1986,32,236,,Sold,,,http://www.redfin.com/TX/Rowlett/8618-Columbia-Dr-75089/home/33923846,NTREIS,14001467,N,Y,32.9348222,-96.5164128
PAST SALE,February-14-2019,Single Family Residential,5010 Village Ct,Dallas,TX,75248,425000,2,2.0,Bent Tree Village 01 Rep,2448,5314,1979,54,174,117,Sold,,,http://www.redfin.com/TX/Dallas/5010-Village-Ct-75248/home/31088680,NTREIS,13970576,N,Y,32.9777708,-96.823188
PAST SALE,February-28-2019,Multi-Family (2-4 Unit),9614 Summerhill Ln,Dallas,TX,75238,499000,6,,Royal Highlands Village Rev,1898,11631,1984,40,263,,Sold,,,http://www.redfin.com/TX/Dallas/9614-Summerhill-Ln-75238/home/31064203,NTREIS,14018765,N,Y,32.8931344,-96.7197568
PAST SALE,March-7-2019,Single Family Residential,9010 Lakehurst Ave,Rowlett,TX,75089,485000,5,5.0,Waters Edge Ph 2,3896,11718,2015,33,124,98,Sold,,,http://www.redfin.com/TX/Rowlett/9010-Lakehurst-Ave-75089/home/110136566,NTREIS,13992930,N,Y,32.9439473,-96.5204546
PAST SALE,March-8-2019,Single Family Residential,6514 Loire Valley Dr,Rowlett,TX,75088,420000,5,4.5,The Vineyards,3181,,2018,32,132,48,Sold,,,http://www.redfin.com/TX/Rowlett/6514-Loire-Valley-Dr-75088/home/146176537,NTREIS,13958727,N,Y,32.887034,-96.538817
PAST SALE,January-15-2019,Single Family Residential,7350 Fieldgate Dr,Dallas,TX,75230,499900,3,3.0,Meadows 02,2924,13068,1965,84,171,,Sold,,,http://www.redfin.com/TX/Dallas/7350-Fieldgate-Dr-75230/home/30872828,NTREIS,13968723,N,Y,32.8804247,-96.7765411
PAST SALE,January-11-2019,Single Family Residential,4004 Barnes Bridge Rd,Dallas,TX,75228,489000,3,2.5,Club Manor,2470,15246,1984,88,198,31,Sold,,,http://www.redfin.com/TX/Dallas/4004-Barnes-Bridge-Rd-75228/home/31156055,NTREIS,13958053,N,Y,32.8390004,-96.649134
PAST SALE,March-18-2019,Single Family Residential,4208 Firebrick Ln,Dallas,TX,75287,449000,4,3.0,Country Brook #1,2972,,1981,22,151,55,Sold,,,http://www.redfin.com/TX/Dallas/4208-Firebrick-Ln-75287/home/31854326,NTREIS,13999601,N,Y,32.9986798,-96.8380102
PAST SALE,January-28-2019,Single Family Residential,5710 Over Downs Dr,Dallas,TX,75230,549000,3,2.5,Park Preston 01,2568,7579,1979,71,214,8,Sold,,,http://www.redfin.com/TX/Dallas/5710-Overdowns-Dr-75230/home/30877835,NTREIS,13771037,N,Y,32.8905323,-96.8071047
PAST SALE,February-7-2019,Single Family Residential,10830 Waterbridge Cir,Dallas,TX,75218,419000,3,2.0,Lochwood,1702,7797,1961,61,246,,Sold,,,http://www.redfin.com/TX/Dallas/10830-Waterbridge-Cir-75218/home/30863085,NTREIS,13979125,N,Y,32.8496315,-96.6924468
PAST SALE,February-25-2019,Vacant Land,9310 Peninsula Dr,Dallas,TX,75218,460000,0,,Lake Highlands,,11935,,43,,,Sold,,,http://www.redfin.com/TX/Dallas/9310-Peninsula-Dr-75218/home/30866632,NTREIS,13945448,N,Y,32.8398468,-96.7105408
PAST SALE,February-26-2019,Single Family Residential,9828 Chiswell Rd,Dallas,TX,75238,429000,3,2.0,Lake Ridge Estates,1812,8189,1958,42,237,,Sold,,,http://www.redfin.com/TX/Dallas/9828-Chiswell-Rd-75238/home/31021628,NTREIS,14005466,N,Y,32.8684687,-96.7165593
PAST SALE,March-27-2019,Single Family Residential,2112 Ash Grove Way,Dallas,TX,75228,415000,3,2.5,Enclave At Ash Creek,2317,5358,2001,13,179,92,Sold,,,http://www.redfin.com/TX/Dallas/2112-Ash-Grove-Way-75228/home/32196301,NTREIS,14022277,N,Y,32.8124723,-96.7031856
PAST SALE,March-29-2019,Single Family Residential,6335 Fairchild St,Plano,TX,75093,500000,2,2.5,Air Park Dallas Unrec,2095,12197,1977,11,239,,Sold,,,http://www.redfin.com/TX/Plano/6335-Fairchild-St-75093/home/31841216,NTREIS,14032020,N,Y,33.0194778,-96.8375705
PAST SALE,February-6-2019,Single Family Residential,2412 Richland Chambers Ct,Wylie,TX,75098,414984,5,3.5,Grayhawk Park,3624,9148,2018,62,115,38,Sold,,,http://www.redfin.com/TX/Unknown/2412-Richland-Chambers-Ct-75098/home/148166158,NTREIS,13987000,N,Y,33.009722,-96.497074
PAST SALE,March-28-2019,Single Family Residential,8353 Nunley Ln,Dallas,TX,75231,509990,2,2.5,Merion at Midtown Park,1701,21780,2018,12,300,121,Sold,,,http://www.redfin.com/TX/Dallas/8353-Nunley-Ln-75231/home/143838072,NTREIS,13921672,N,Y,32.8900557,-96.7613905
PAST SALE,March-19-2019,Single Family Residential,10235 Gooding Dr,Dallas,TX,75229,489000,3,2.0,Midway Hills,1505,15725,1953,21,325,,Sold,,,http://www.redfin.com/TX/Dallas/10235-Gooding-Dr-75229/home/30929238,NTREIS,13989222,N,Y,32.8855672,-96.8435409
PAST SALE,January-31-2019,Single Family Residential,9115 Stone Creek Pl,Dallas,TX,75243,450000,4,3.5,Greenville Wood Rev,3578,6665,1983,68,126,,Sold,,,http://www.redfin.com/TX/Dallas/9115-Stone-Creek-Pl-75243/home/31070921,NTREIS,13979603,N,Y,32.9063574,-96.7457086
PAST SALE,January-18-2019,Single Family Residential,3701 Peppertree Dr,Carrollton,TX,75007,475000,4,3.5,Oak Creek Estates Ph II,3587,9714,1993,81,132,21,Sold,,,http://www.redfin.com/TX/Carrollton/3701-Peppertree-Dr-75007/home/32826963,NTREIS,13979879,N,Y,33.0144067,-96.8514117
PAST SALE,March-29-2019,Single Family Residential,604 Woolsey Dr,Dallas,TX,75224,409000,3,2.0,Wynnewood,1916,12589,1953,11,213,,Sold,,,http://www.redfin.com/TX/Dallas/604-Woolsey-Dr-75224/home/30892058,NTREIS,13974564,N,Y,32.7292668,-96.8330691
PAST SALE,January-22-2019,Single Family Residential,9750 Van Dyke Rd,Dallas,TX,75218,499000,3,2.0,Lake Highlands Estates,2549,2047,1956,77,196,,Sold,,,http://www.redfin.com/TX/Dallas/9750-Van-Dyke-Rd-75218/home/30908327,NTREIS,13956292,N,Y,32.8540516,-96.7143232
PAST SALE,February-25-2019,Single Family Residential,9716 Ravensway Dr,Dallas,TX,75238,419900,4,3.0,White Rock North,2430,10498,1967,43,173,,Sold,,,http://www.redfin.com/TX/Dallas/9716-Ravensway-Dr-75238/home/31065887,NTREIS,13997411,N,Y,32.8799282,-96.72076
PAST SALE,March-15-2019,Single Family Residential,7026 Walling Ln,Dallas,TX,75231,430000,3,2.0,Merriman Park,1830,8799,1959,25,235,,Sold,,,http://www.redfin.com/TX/Dallas/7026-Walling-Ln-75231/home/30870744,NTREIS,14007427,N,Y,32.8623578,-96.7376494
PAST SALE,March-27-2019,Single Family Residential,7041 Town North Dr,Dallas,TX,75231,425000,3,2.0,Merriman Park,1773,8712,1960,13,240,,Sold,,,http://www.redfin.com/TX/Dallas/7041-N-Town-Dr-75231/home/30870682,NTREIS,14018901,N,Y,32.860073,-96.737733
PAST SALE,January-11-2019,Townhouse,4711 Live Oak St #4,Dallas,TX,75204,499000,2,2.5,Holmes Sub,1747,305,2018,88,286,,Sold,,,http://www.redfin.com/TX/Dallas/4711-Live-Oak-St-75204/unit-4/home/147610953,NTREIS,13953722,N,Y,32.8020127,-96.7736376
PAST SALE,February-4-2019,Single Family Residential,1123 Valencia St,Dallas,TX,75223,459900,3,2.0,Hollywood,1830,14375,1953,64,251,,Sold,,,http://www.redfin.com/TX/Dallas/1123-Valencia-St-75223/home/30812968,NTREIS,13992217,N,Y,32.800401,-96.740316
PAST SALE,January-31-2019,Single Family Residential,902 N Edgefield Ave,Dallas,TX,75208,417000,3,2.0,Oak Cliff Annex,1374,7841,1925,68,303,,Sold,,,http://www.redfin.com/TX/Dallas/902-N-Edgefield-Ave-75208/home/30830915,NTREIS,13983434,N,Y,32.7540872,-96.8424513
PAST SALE,January-31-2019,Single Family Residential,305 S Windomere Ave,Dallas,TX,75208,450000,3,2.0,Winnetka Heights,1864,7405,1911,68,241,,Sold,,,http://www.redfin.com/TX/Dallas/305-S-Windomere-Ave-75208/home/30828486,NTREIS,13947706,N,Y,32.742888,-96.8456703
PAST SALE,February-14-2019,Single Family Residential,1311 Cedar Hill Ave,Dallas,TX,75208,399000,3,1.0,East Kessler Park 1st Inst,1763,9757,1938,54,226,,Sold,,,http://www.redfin.com/TX/Dallas/1311-Cedar-Hill-Ave-75208/home/30848136,NTREIS,13990671,N,Y,32.7591345,-96.8311435
PAST SALE,January-14-2019,Single Family Residential,3923 Whitman Dr,Rockwall,TX,75087,410990,4,3.0,Castle Ridge Estates Ph 3,3336,11195,2019,85,123,43,Sold,,,http://www.redfin.com/TX/Dallas/3923-Whitman-Dr-75087/home/147383616,NTREIS,13989584,N,Y,32.9745,-96.4732
PAST SALE,March-25-2019,Single Family Residential,2401 Richland Chambers Ct,Wylie,TX,75098,425873,5,3.5,Grayhawk Park,3997,9148,2018,15,107,38,Sold,,,http://www.redfin.com/TX/Unknown/2401-Richland-Chambers-Ct-75098/home/148029975,NTREIS,13975045,N,Y,33.009722,-96.497074
PAST SALE,January-18-2019,Single Family Residential,10231 Echo Ridge Ct,Dallas,TX,75243,417500,4,2.5,Cimmaron Ridge 01,2942,8015,1978,81,142,,Sold,,,http://www.redfin.com/TX/Dallas/10231-Echo-Ridge-Ct-75243/home/31100915,NTREIS,13970118,N,Y,32.9286926,-96.7073019
PAST SALE,January-28-2019,Single Family Residential,4308 Laren Ln,Dallas,TX,75244,475000,3,3.0,Carriage Square,2840,12197,1971,71,167,,Sold,,,http://www.redfin.com/TX/Dallas/4308-Laren-Ln-75244/home/31098057,NTREIS,13910431,N,Y,32.9209374,-96.8358955
PAST SALE,February-27-2019,Single Family Residential,9735 Parkford Dr,Dallas,TX,75238,409900,3,2.0,White Rock North 03 Ball0on,1813,8015,1960,41,226,,Sold,,,http://www.redfin.com/TX/Dallas/9735-Parkford-Dr-75238/home/30881869,NTREIS,13971249,N,Y,32.8727616,-96.7199031
PAST SALE,February-28-2019,Single Family Residential,7704 Lemmonwood Dr,Dallas,TX,75231,425000,3,2.5,Highlands West,2126,9322,1977,40,200,,Sold,,,http://www.redfin.com/TX/Dallas/7704-Lemmonwood-Dr-75231/home/31068718,NTREIS,13888538,N,Y,32.8869334,-96.7335729
PAST SALE,February-28-2019,Single Family Residential,8916 Gunnison Dr,Dallas,TX,75231,499900,4,2.5,Fountainhead,2876,8146,1978,40,174,,Sold,,,http://www.redfin.com/TX/Dallas/8916-Gunnison-Dr-75231/home/31068367,NTREIS,13999277,N,Y,32.8827606,-96.7398236
PAST SALE,February-27-2019,Single Family Residential,8215 Folcroft Ln,Dallas,TX,75231,479900,3,2.5,Merion Midtown Park,2164,1655,2018,41,222,121,Sold,,,http://www.redfin.com/TX/Dallas/8215-Folcroft-Ln-75231/home/145297862,NTREIS,13917455,N,Y,32.889772,-96.761744
PAST SALE,March-15-2019,Single Family Residential,9601 MILLTRAIL Dr,Dallas,TX,75238,525000,5,4.0,ROYAL HIGHLANDS,3981,10367,1987,25,132,,Sold,,,http://www.redfin.com/TX/Dallas/9601-Milltrail-Dr-75238/home/31064441,NTREIS,14014195,N,Y,32.8915316,-96.7218468
PAST SALE,March-25-2019,Single Family Residential,9133 Lynbrook Dr,Dallas,TX,75238,410000,3,2.0,Lake Highlands Estates 14,1847,9845,1955,15,222,,Sold,,,http://www.redfin.com/TX/Dallas/9133-Lynbrook-Dr-75238/home/31006715,NTREIS,14026052,N,Y,32.8726048,-96.7023916
PAST SALE,March-25-2019,Single Family Residential,9114 Summer Glen Ln,Dallas,TX,75243,425000,4,3.0,Moss Farm,2119,7187,1976,15,201,,Sold,,,http://www.redfin.com/TX/Dallas/9114-Summer-Glen-Ln-75243/home/31068476,NTREIS,14018007,N,Y,32.8951346,-96.7460945
PAST SALE,January-29-2019,Townhouse,5136 Artemesia Ln,Dallas,TX,75209,492320,3,3.5,Oak Park Gardens,1948,,2018,70,253,100,Sold,,,http://www.redfin.com/TX/Dallas/5136-Artemesia-Ln-75209/home/146282388,NTREIS,13918370,N,Y,32.827858,-96.821362
PAST SALE,February-6-2019,Condo/Co-op,2828 Hood St #408,Dallas,TX,75219,449900,1,1.5,Plaza At Turtle Creek Residence Ph,1609,136473,2000,62,280,1230,Sold,,,http://www.redfin.com/TX/Dallas/2828-Hood-St-75219/unit-408/home/32253544,NTREIS,13976001,N,Y,32.8055056,-96.8089307
PAST SALE,February-20-2019,Condo/Co-op,4310 Buena Vista St #21,Dallas,TX,75205,419000,2,2.5,Morrison Condos,1707,56628,2000,48,245,373,Sold,,,http://www.redfin.com/TX/Dallas/4310-Buena-Vista-St-75205/unit-21/home/147390118,NTREIS,13982427,N,Y,32.8196939,-96.793449
PAST SALE,February-22-2019,Condo/Co-op,2900 Mckinnon St #2606,Dallas,TX,75201,469000,1,1.5,Azure Condo,952,,2005,46,493,711,Sold,,,http://www.redfin.com/TX/Dallas/2900-McKinnon-St-75201/unit-2606/home/30775348,NTREIS,13867239,N,Y,32.7955142,-96.808434
PAST SALE,February-25-2019,Condo/Co-op,2828 Hood St #1201,Dallas,TX,75219,499000,1,1.5,Plaza at Turtle Creek Residences Ph 2,1546,136473,2000,43,323,1182,Sold,,,http://www.redfin.com/TX/Dallas/2828-Hood-St-75219/unit-1201/home/32253533,NTREIS,13980117,N,Y,32.8055056,-96.8089307
PAST SALE,March-4-2019,Condo/Co-op,3320 Douglas Ave Unit E,Dallas,TX,75219,419000,3,3.5,3320 Douglas Ave,2537,15594,2006,36,165,279,Sold,,,http://www.redfin.com/TX/Dallas/3320-Douglas-Ave-75219/unit-E/home/108457008,NTREIS,13911166,N,Y,32.8143201,-96.8112154
PAST SALE,March-8-2019,Townhouse,2111 Clark St Unit E,Dallas,TX,75204,499500,2,2.5,Block 593 Add,2100,1133,2003,32,238,200,Sold,,,http://www.redfin.com/TX/Dallas/2111-Clark-St-75204/unit-E/home/145550321,NTREIS,13995384,N,Y,32.7957737,-96.7948077
PAST SALE,March-28-2019,Single Family Residential,3903 Whitman Dr,Rockwall,TX,75087,435990,4,4.0,Castle Ridge Estates Ph 3,3302,11238,2019,12,132,43,Sold,,,http://www.redfin.com/TX/Dallas/3903-Whitman-Dr-75087/home/147596846,NTREIS,13969760,N,Y,32.97136,-96.47472
PAST SALE,January-11-2019,Single Family Residential,2619 Lakeforest Ct,Dallas,TX,75214,450000,3,2.5,Lakewood Park Estates,2168,4574,1995,88,208,58,Sold,,,http://www.redfin.com/TX/Dallas/2619-Lakeforest-Ct-75214/home/31127428,NTREIS,13975025,N,Y,32.8156218,-96.7319843
PAST SALE,January-31-2019,Single Family Residential,9714 Galway Dr,Dallas,TX,75218,399000,2,2.5,Lake Park Estates,3047,14462,1947,68,131,,Sold,,,http://www.redfin.com/TX/Dallas/9714-Galway-Dr-75218/home/30864188,NTREIS,13998731,N,Y,32.8362202,-96.6996337
PAST SALE,February-7-2019,Single Family Residential,10606 Maplegrove Ln,Dallas,TX,75218,399900,3,2.0,Lochwood Rev,1601,14767,1964,61,250,,Sold,,,http://www.redfin.com/TX/Dallas/10606-Maplegrove-Ln-75218/home/30863507,NTREIS,13970719,N,Y,32.8476741,-96.6937839
PAST SALE,February-28-2019,Single Family Residential,12016 Loch Ness Dr,Dallas,TX,75218,460000,4,3.0,Lochwood Meadows,2334,10149,1972,40,197,,Sold,,,http://www.redfin.com/TX/Dallas/12016-Loch-Ness-Dr-75218/home/31045596,NTREIS,14011719,N,Y,32.8598118,-96.6890626
PAST SALE,March-13-2019,Single Family Residential,1728 Mapleton Dr,Dallas,TX,75228,442000,4,2.0,Crestview East 01,2142,8059,1961,27,206,,Sold,,,http://www.redfin.com/TX/Dallas/1728-Mapleton-Dr-75228/home/31013277,NTREIS,14023148,N,Y,32.8196605,-96.6852608
PAST SALE,March-15-2019,Single Family Residential,11016 Fernald Ave,Dallas,TX,75218,459000,4,2.5,Lochwood Meadows,2077,8407,1965,25,221,,Sold,,,http://www.redfin.com/TX/Dallas/11016-Fernald-Ave-75218/home/31045632,NTREIS,13984731,N,Y,32.857397,-96.6940346
PAST SALE,March-15-2019,Single Family Residential,6200 Reiger Ave,Dallas,TX,75214,495000,2,2.0,Hillcrest,1907,11282,1937,25,260,,Sold,,,http://www.redfin.com/TX/Dallas/6200-Reiger-Ave-75214/home/30813494,NTREIS,14005775,N,Y,32.8078588,-96.7492004
PAST SALE,March-22-2019,Single Family Residential,11041 Shortmeadow Dr,Dallas,TX,75218,469000,3,2.0,Lochwood Meadows,2032,9235,1969,18,231,,Sold,,,http://www.redfin.com/TX/Dallas/11041-Shortmeadow-Dr-75218/home/31047277,NTREIS,14004969,N,Y,32.862726,-96.6911516
PAST SALE,March-14-2019,Single Family Residential,728 Skillman St,Dallas,TX,75214,475000,3,2.0,Munger Place,1959,6621,1924,26,242,,Sold,,,http://www.redfin.com/TX/Dallas/728-Skillman-St-75214/home/30806178,NTREIS,14003040,N,Y,32.8086551,-96.7579067
PAST SALE,April-5-2019,Single Family Residential,7914 Glade Creek Ct,Dallas,TX,75218,479950,4,3.0,Enclave At White Rock Ph 02,2441,6011,1999,4,197,81,Sold,,,http://www.redfin.com/TX/Dallas/7914-Glade-Creek-Ct-75218/home/32195159,NTREIS,14032240,N,Y,32.8069663,-96.7207809
PAST SALE,April-8-2019,Single Family Residential,10431 Estate Ln,Dallas,TX,75238,415000,3,2.0,Lake Highlands North,1840,8320,1960,1,226,,Sold,,,http://www.redfin.com/TX/Dallas/10431-Estate-Ln-75238/home/31062647,NTREIS,14033589,N,Y,32.8830878,-96.7047736
PAST SALE,February-15-2019,Townhouse,5231 Weiss Ln,Irving,TX,75039,475000,3,3.5,Amli Las Colinas Urban Center,2193,1307,2015,53,217,138,Sold,,,http://www.redfin.com/TX/Irving/5231-Weiss-Ln-75039/home/147942324,NTREIS,14006808,N,Y,32.862931,-96.926985
PAST SALE,February-22-2019,Townhouse,751 Will Rice Ave,Irving,TX,75039,459900,3,3.5,Amli Las Colinas Urban Center,2257,1307,2014,46,204,138,Sold,,,http://www.redfin.com/TX/Irving/751-Will-Rice-Ave-75039/home/52060250,NTREIS,13969120,N,Y,32.8632557,-96.9273027
PAST SALE,February-28-2019,Single Family Residential,12601 Coventry Ct,Farmers Branch,TX,75230,474000,3,2.0,Mercer Crossing,2700,5663,2018,40,176,79,Sold,,,http://www.redfin.com/TX/Dallas/12601-Coventry-Way-75230/home/147933090,NTREIS,13961398,N,Y,32.9190729,-96.7907098
PAST SALE,March-5-2019,Condo/Co-op,4611 Travis St Unit 1406A,Dallas,TX,75205,490000,2,2.0,Travis Knox Condos,1685,26920,2000,35,291,959,Sold,,,http://www.redfin.com/TX/Dallas/4611-Travis-St-75205/unit-1406A/home/30765940,NTREIS,14005058,N,Y,32.8243394,-96.7902695
PAST SALE,February-26-2019,Single Family Residential,4307 Cedar Springs Rd,Dallas,TX,75219,500000,2,2.0,Clifton Place,1200,6970,1930,42,417,,Sold,,,http://www.redfin.com/TX/Dallas/4307-Cedar-Springs-Rd-75219/home/30801588,NTREIS,13888449,N,Y,32.8139657,-96.8153172
PAST SALE,February-27-2019,Condo/Co-op,1200 Main St #2309,Dallas,TX,75202,435000,2,2.0,Metropolitan 1200 Main St Condo,1379,44997,1974,41,315,663,Sold,,,http://www.redfin.com/TX/Dallas/1200-Main-St-75202/unit-2309/home/30776355,NTREIS,13982424,N,Y,32.7800768,-96.8011677
PAST SALE,February-27-2019,Single Family Residential,12139 Midlake Dr,Dallas,TX,75218,430000,4,2.5,Lochwood Meadows,2409,10977,1970,41,178,,Sold,,,http://www.redfin.com/TX/Dallas/12139-Midlake-Dr-75218/home/31047286,NTREIS,14009021,N,Y,32.8611949,-96.6906712
PAST SALE,February-11-2019,Single Family Residential,6293 Mccommas Blvd,Dallas,TX,75214,524900,2,2.0,Green Acres,1655,6926,1945,57,317,,Sold,,,http://www.redfin.com/TX/Dallas/6293-McCommas-Blvd-75214/home/30820566,NTREIS,13937627,N,Y,32.8295861,-96.7561475
PAST SALE,January-24-2019,Single Family Residential,6423 Dunstan Ln,Dallas,TX,75214,419000,3,2.0,Ridgewood Park,1534,11238,1953,75,273,,Sold,,,http://www.redfin.com/TX/Dallas/6423-Dunstan-Ln-75214/home/30869206,NTREIS,13942847,N,Y,32.8485849,-96.7510858
PAST SALE,March-5-2019,Single Family Residential,7030 Town North Dr,Dallas,TX,75231,450000,3,2.5,Merriman Park,2094,8756,1961,35,215,4,Sold,,,http://www.redfin.com/TX/Dallas/7030-N-Town-Dr-75231/home/30870641,NTREIS,14014816,N,Y,32.8593955,-96.7376744
PAST SALE,March-11-2019,Single Family Residential,6564 Kingsbury Dr,Dallas,TX,75231,410000,3,2.0,Merriman Park Add,1748,11021,1960,29,235,,Sold,,,http://www.redfin.com/TX/Dallas/6564-Kingsbury-Dr-75231/home/30870823,NTREIS,13946758,N,Y,32.8567466,-96.7436918
PAST SALE,February-15-2019,Single Family Residential,6169 Monticello Ave,Dallas,TX,75214,499000,2,2.0,Lakeview Heights,1762,9060,1954,53,283,,Sold,,,http://www.redfin.com/TX/Dallas/6169-Monticello-Ave-75214/home/30820365,NTREIS,13986973,N,Y,32.8268627,-96.758656
PAST SALE,February-15-2019,Single Family Residential,6436 Dunstan Ln,Dallas,TX,75214,449000,2,1.5,Ridgewood Park,1546,16074,1953,53,290,,Sold,,,http://www.redfin.com/TX/Dallas/6436-Dunstan-Ln-75214/home/30869362,NTREIS,13945383,N,Y,32.848107,-96.7510029
PAST SALE,February-11-2019,Single Family Residential,2200 Royal Oaks Dr,Dallas,TX,75253,489000,3,3.0,Rowden,3141,348480,1995,57,156,,Sold,,,http://www.redfin.com/TX/Dallas/2200-Royal-Oaks-Dr-75253/home/31158881,NTREIS,13928150,N,Y,32.6658475,-96.5982986
PAST SALE,January-10-2019,Single Family Residential,4404 Deere St,Dallas,TX,75204,475000,2,2.5,Deere Park,1746,3790,2015,89,272,,Sold,,,http://www.redfin.com/TX/Dallas/4404-Deere-St-75204/home/30792916,NTREIS,13965380,N,Y,32.8060519,-96.7855053
PAST SALE,February-8-2019,Condo/Co-op,3421 Normandy #3,University Park,TX,75205,495000,3,3.5,,1704,4356,2006,60,290,225,Sold,,,http://www.redfin.com/TX/Dallas/3421-Normandy-Ave-75205/unit-3/home/30787131,NTREIS,13982213,N,Y,32.8385828,-96.7876591
PAST SALE,February-20-2019,Condo/Co-op,5714 Mccommas Blvd #204,Dallas,TX,75206,419000,2,2.0,Greenwood Flats Condos Bldg 1,1736,42427,2016,48,241,274,Sold,,,http://www.redfin.com/TX/Dallas/5714-McCommas-Blvd-75206/unit-204/home/30821880,NTREIS,13948174,N,Y,32.8297878,-96.7696302
PAST SALE,February-27-2019,Multi-Family (2-4 Unit),5829 Oram St,Dallas,TX,75206,459000,3,2.5,Ross Ave Annex,2286,7187,2005,41,201,,Sold,,,http://www.redfin.com/TX/Dallas/5829-Oram-St-75206/home/30806732,NTREIS,13993772,N,Y,32.814127,-96.766778
PAST SALE,February-28-2019,Condo/Co-op,4312 Mckinney Ave #6,Dallas,TX,75205,424900,2,2.5,Brighton Lofts South Condo,2409,35022,2001,40,176,324,Sold,,,http://www.redfin.com/TX/Dallas/4312-McKinney-Ave-75205/unit-6/home/30729154,NTREIS,13951737,N,Y,32.8178929,-96.7898888
PAST SALE,February-28-2019,Condo/Co-op,4962 Zuma Ct,Dallas,TX,75206,399000,2,2.5,Bennett Place Add,1432,1394,2015,40,279,100,Sold,,,http://www.redfin.com/TX/Dallas/4962-Zuma-Ct-75206/home/110137263,NTREIS,14009952,N,Y,32.8108288,-96.7800241
PAST SALE,February-28-2019,Condo/Co-op,4343 Mckinney Ave Unit B202,Dallas,TX,75205,449000,2,2.0,4343 Mckinney Place Add Condos,1635,13983,2007,40,275,365,Sold,,,http://www.redfin.com/TX/Dallas/4343-McKinney-Ave-75205/unit-B202/home/30788719,NTREIS,14001064,N,Y,32.8185197,-96.7899062
PAST SALE,March-14-2019,Condo/Co-op,4310 Buena Vista St #25,Dallas,TX,75205,429000,2,2.5,Morrison Condos,1707,56628,2000,26,251,373,Sold,,,http://www.redfin.com/TX/Dallas/4310-Buena-Vista-St-75205/unit-25/home/32253487,NTREIS,14009476,N,Y,32.8191268,-96.7937377
PAST SALE,March-15-2019,Condo/Co-op,3251 Cambrick St #14,Dallas,TX,75204,499950,3,3.0,Cambrick Square South Condos,2182,26964,1999,25,229,478,Sold,,,http://www.redfin.com/TX/Dallas/3251-Cambrick-St-75204/unit-14/home/32218316,NTREIS,13936215,N,Y,32.8125516,-96.7953408
PAST SALE,March-19-2019,Condo/Co-op,1861 Summit Ave #2,Dallas,TX,75206,475000,2,3.0,Summit Townhomes,1942,7492,2014,21,245,225,Sold,,,http://www.redfin.com/TX/Dallas/1861-Summit-Ave-75206/unit-2/home/110137220,NTREIS,13978088,N,Y,32.812916,-96.7724706
PAST SALE,March-21-2019,Condo/Co-op,2314 N Carroll Ave #101,Dallas,TX,75204,450000,3,3.5,Elk Hill,1801,7492,2019,19,250,175,Sold,,,http://www.redfin.com/TX/Dallas/2314-N-Carroll-Ave-75204/unit-101/home/160724674,NTREIS,14049148,N,Y,32.8072234,-96.7851505
PAST SALE,March-28-2019,Single Family Residential,2631 Madera St,Dallas,TX,75206,479000,3,2.5,Henderson Ave,1900,7231,1929,12,252,,Sold,,,http://www.redfin.com/TX/Dallas/2631-Madera-St-75206/home/30808299,NTREIS,13859431,N,Y,32.817779,-96.7806242
PAST SALE,January-22-2019,Condo/Co-op,3621 Turtle Creek Blvd Unit 4B,Dallas,TX,75219,407500,2,2.0,Beverly On Turtle Creek,1623,40946,1981,77,251,1100,Sold,,,http://www.redfin.com/TX/Dallas/3621-Turtle-Creek-Blvd-75219/unit-4B/home/31124013,NTREIS,13999802,N,Y,32.8122142,-96.8019037
PAST SALE,February-15-2019,Single Family Residential,6435 Vanderbilt Ave,Dallas,TX,75214,499500,3,2.0,Lakewood Estates Add,1391,6882,1950,53,359,,Sold,,,http://www.redfin.com/TX/Dallas/6435-Vanderbilt-Ave-75214/home/30852081,NTREIS,13990218,N,Y,32.8255701,-96.7517155
PAST SALE,January-22-2019,Single Family Residential,8636 Breakers Pt,Dallas,TX,75243,425000,3,2.0,Royal Lane Village,2209,6490,1993,77,192,67,Sold,,,http://www.redfin.com/TX/Dallas/8636-Breakers-Pt-75243/home/31151661,NTREIS,13980965,N,Y,32.8992517,-96.7579894
PAST SALE,February-25-2019,Single Family Residential,6723 Santa Fe Ave,Dallas,TX,75223,475000,3,2.0,Hollywood,1514,9322,1950,43,314,,Sold,,,http://www.redfin.com/TX/Dallas/6723-Santa-Fe-Ave-75223/home/30819353,NTREIS,13974971,N,Y,32.8075072,-96.745027
PAST SALE,February-28-2019,Single Family Residential,8222 Club Meadows Dr,Dallas,TX,75243,449000,4,3.0,Moss Farm,2540,8146,1977,40,177,,Sold,,,http://www.redfin.com/TX/Dallas/8222-Club-Meadows-Dr-75243/home/31068511,NTREIS,13972200,N,Y,32.8937447,-96.7503339
PAST SALE,March-6-2019,Single Family Residential,3342 Norcross Ln,Dallas,TX,75229,465000,3,2.5,Sparkman Club Estates,2197,10062,1959,34,212,,Sold,,,http://www.redfin.com/TX/Dallas/3342-Norcross-Ln-75229/home/30930699,NTREIS,14003660,N,Y,32.8895679,-96.8661312
PAST SALE,March-11-2019,Single Family Residential,3623 Midpines Dr,Dallas,TX,75229,459000,4,2.5,Park Forest 02 Inst,2283,14418,1959,29,201,,Sold,,,http://www.redfin.com/TX/Dallas/3623-Midpines-Dr-75229/home/30932071,NTREIS,14016363,N,Y,32.9068749,-96.8586549
PAST SALE,February-15-2019,Single Family Residential,3707 Waldorf Dr,Dallas,TX,75229,515000,4,2.5,Royal North Estates,2128,18034,1963,53,242,,Sold,,,http://www.redfin.com/TX/Dallas/3707-Waldorf-Dr-75229/home/30931427,NTREIS,13922216,N,Y,32.8973886,-96.8557642
PAST SALE,February-12-2019,Vacant Land,9908 Gooding Dr,Dallas,TX,75220,424000,0,,Glenridge Estates 3,,10019,,56,,,Sold,,,http://www.redfin.com/TX/Dallas/9908-Gooding-Dr-75220/home/30914298,NTREIS,13989521,N,Y,32.8783321,-96.8435881
PAST SALE,February-22-2019,Single Family Residential,5026 Forest Bend Rd,Dallas,TX,75244,449900,5,2.5,Inwood North Estates,3492,10672,1964,46,129,,Sold,,,http://www.redfin.com/TX/Dallas/5026-Forest-Bend-Rd-75244/home/31099388,NTREIS,13923659,N,Y,32.9218235,-96.8216808
PAST SALE,March-4-2019,Single Family Residential,12209 Cox Ln,Dallas,TX,75244,435000,4,3.0,Meadow Park Inst 02,2179,10498,1965,36,200,,Sold,,,http://www.redfin.com/TX/Dallas/12209-Cox-Ln-75244/home/30927641,NTREIS,13933238,N,Y,32.9149045,-96.8516421
PAST SALE,February-28-2019,Condo/Co-op,6144 Averill Way Unit 203E,Dallas,TX,75225,475000,2,2.5,Imperial House Condo,2260,100711,1962,40,210,1106,Sold,,,http://www.redfin.com/TX/Dallas/6144-Averill-Way-75225/unit-203E/home/30873784,NTREIS,13992129,N,Y,32.8659463,-96.80116
PAST SALE,March-8-2019,Single Family Residential,4348 RICKOVER Dr,Dallas,TX,75244,460000,4,3.0,Forest Glen Sec 05,2691,,1970,32,171,,Sold,,,http://www.redfin.com/TX/Dallas/4348-Rickover-Dr-75244/home/31098008,NTREIS,13980221,N,Y,32.9179478,-96.8344718
PAST SALE,April-1-2019,Single Family Residential,17542 Sequoia Dr,Dallas,TX,75252,409990,3,2.5,University Place,2138,4400,2018,8,192,54,Sold,,,http://www.redfin.com/TX/Dallas/17542-Sequoia-Dr-75252/home/148126085,NTREIS,13972770,N,Y,32.991617,-96.766435
PAST SALE,February-22-2019,Single Family Residential,9817 Mixon Dr,Dallas,TX,75220,434900,3,2.0,Marsh Lane Add Sec 01,1989,15377,1951,46,219,,Sold,,,http://www.redfin.com/TX/Dallas/9817-Mixon-Dr-75220/home/30912452,NTREIS,14003408,N,Y,32.8734679,-96.852726
PAST SALE,April-1-2019,Single Family Residential,4155 Echo Glen Dr,Dallas,TX,75244,499900,4,3.0,Glen Cove East Sec 01,2407,13112,1963,8,208,,Sold,,,http://www.redfin.com/TX/Dallas/4155-Echo-Glen-Dr-75244/home/31095758,NTREIS,14028067,N,Y,32.9157722,-96.8385965
PAST SALE,April-2-2019,Single Family Residential,7429 La Manga Dr,Dallas,TX,75248,484900,4,2.5,Prestonwood Humble,2192,8930,1972,7,221,,Sold,,,http://www.redfin.com/TX/Dallas/7429-La-Manga-Dr-75248/home/31080038,NTREIS,13967828,N,Y,32.9706483,-96.7794527
PAST SALE,March-29-2019,Single Family Residential,3334 Saint Cloud Cir,Dallas,TX,75229,410000,3,2.0,Park Forest Instl Add 04,1865,10759,1960,11,220,,Sold,,,http://www.redfin.com/TX/Dallas/3334-St-Cloud-Cir-75229/home/30931944,NTREIS,14017549,N,Y,32.9074795,-96.8653685
PAST SALE,January-14-2019,Townhouse,2708 Floyd St,Dallas,TX,75204,449000,3,2.5,Benavides Mdws,1900,1220,2002,85,236,83,Sold,,,http://www.redfin.com/TX/Dallas/2708-Floyd-St-75204/home/32251733,NTREIS,13982108,N,Y,32.7867176,-96.7866063
PAST SALE,January-30-2019,Condo/Co-op,1902 Caddo St #8,Dallas,TX,75204,415000,2,2.5,Mayo's 2nd Addition,1706,12197,2018,69,243,250,Sold,,,http://www.redfin.com/TX/Dallas/1902-Caddo-St-75204/unit-8/home/147609753,NTREIS,13985334,N,Y,32.8004588,-96.7869421
PAST SALE,February-27-2019,Condo/Co-op,1625 Hickory St #105,Dallas,TX,75204,439000,2,2.5,Middleton,2046,,2018,41,215,185,Sold,,,http://www.redfin.com/TX/Dallas/1625-Hickory-St-75215/unit-105/home/145134496,NTREIS,14018496,N,Y,32.7691349,-96.787052
PAST SALE,March-14-2019,Townhouse,710 High Garden Pl,Dallas,TX,75208,499000,3,3.5,High Grove,2319,3615,2018,26,215,125,Sold,,,http://www.redfin.com/TX/Dallas/710-High-Garden-Pl-75208/home/146401292,NTREIS,14005085,N,Y,32.751554,-96.848527
PAST SALE,March-25-2019,Townhouse,1801 Annex Ave #502,Dallas,TX,75204,449000,2,2.5,Cityscape Plaza Twnhms,1920,79715,2016,15,234,144,Sold,,,http://www.redfin.com/TX/Dallas/1801-Annex-Ave-75204/unit-502/home/113384626,NTREIS,13995061,N,Y,32.8044781,-96.7797069
PAST SALE,February-8-2019,Single Family Residential,828 Melba St,Dallas,TX,75208,455000,3,2.5,George J Bryans Rev,1990,5706,1930,60,229,,Sold,,,http://www.redfin.com/TX/Dallas/828-Melba-St-75208/home/30827100,NTREIS,13998222,N,Y,32.7470936,-96.837094
PAST SALE,April-5-2019,Condo/Co-op,2200 Victory Ave #2003,Dallas,TX,75219,475000,1,1.5,The House,1056,53709,2007,4,450,795,Sold,,,http://www.redfin.com/TX/Dallas/2200-Victory-Ave-75219/unit-2003/home/30782328,NTREIS,13932665,N,Y,32.7847939,-96.80978
PAST SALE,March-14-2019,Single Family Residential,1115 N Winnetka Ave,Dallas,TX,75208,475000,3,1.0,Kessler Square Add,1844,7754,1926,26,258,,Sold,,,http://www.redfin.com/TX/Dallas/1115-N-Winnetka-Ave-75208/home/30836126,NTREIS,14019739,N,Y,32.7578761,-96.8404851
PAST SALE,February-26-2019,Single Family Residential,1321 Chesterton Dr,Richardson,TX,75080,410000,3,2.5,J J Pearce Sec 02,2534,9017,1979,42,162,,Sold,,,http://www.redfin.com/TX/Richardson/1321-Chesterton-Dr-75080/home/31947443,NTREIS,13997482,N,Y,32.9744817,-96.7661079
PAST SALE,January-28-2019,Single Family Residential,5924 Pebblestone Ln,Plano,TX,75093,449900,4,4.0,Stone Lake Estates - Sec 1,4226,7841,1994,71,106,43,Sold,,,http://www.redfin.com/TX/Plano/5924-Pebblestone-Ln-75093/home/32081842,NTREIS,13943150,N,Y,33.0170592,-96.8241718
PAST SALE,January-29-2019,Single Family Residential,18731 Lloyd Cir,Dallas,TX,75252,429500,4,2.5,Preston Parkside Estates,2405,11326,1995,70,179,38,Sold,,,http://www.redfin.com/TX/Dallas/18731-Lloyd-Cir-75252/home/32077512,NTREIS,13989682,N,Y,33.0048915,-96.7980314
PAST SALE,March-1-2019,Single Family Residential,7147 Pecan Creek Ln,Dallas,TX,75252,409000,3,2.5,Highland Creek Manor,2434,7405,1995,39,168,175,Sold,,,http://www.redfin.com/TX/Dallas/7147-Pecan-Creek-Ln-75252/home/32099367,NTREIS,13992128,N,Y,33.0014851,-96.7809589
PAST SALE,January-17-2019,Single Family Residential,6419 Westlake Ave,Dallas,TX,75214,450000,4,2.0,Cord Rev,1885,8973,1973,82,239,,Sold,,,http://www.redfin.com/TX/Dallas/6419-Westlake-Ave-75214/home/30824372,NTREIS,13980928,N,Y,32.8222663,-96.7520133
PAST SALE,January-11-2019,Condo/Co-op,1200 Main St #606,Dallas,TX,75202,429000,2,2.0,Metropolitan 1200 Main St Condo,1379,44997,1974,88,311,671,Sold,,,http://www.redfin.com/TX/Dallas/1200-Main-St-75202/unit-606/home/30776181,NTREIS,13938410,N,Y,32.7800768,-96.8011677
PAST SALE,March-7-2019,Vacant Land,1114 Prairie Creek Rd,Dallas,TX,75217,475000,0,,No subdivision noted,,1245816,,33,,,Sold,,,http://www.redfin.com/TX/Dallas/1114-N-Prairie-Creek-Rd-75217/home/31050941,NTREIS,13983289,N,Y,32.6938996,-96.6663884
PAST SALE,February-11-2019,Multi-Family (2-4 Unit),2714 Throckmorton St S Unit B,Dallas,TX,75219,464000,2,2.0,J D Cullums Oak Lawn,1688,3659,2002,57,275,,Sold,,,http://www.redfin.com/TX/Dallas/2714-Throckmorton-St-75219/unit-B/home/30739025,NTREIS,14000250,N,Y,32.8085179,-96.8138492
PAST SALE,March-22-2019,Single Family Residential,1613 S Alamo Rd,Rockwall,TX,75087,415000,4,3.0,Lake Ray Hubbard Estate,3125,10237,1975,18,133,,Sold,,,http://www.redfin.com/TX/Rockwall/1613-S-Alamo-Rd-75087/unit-5/home/33911105,NTREIS,14015158,N,Y,32.912113,-96.4640596
PAST SALE,February-18-2019,Condo/Co-op,6335 W Northwest Hwy #1511,Dallas,TX,75225,475000,3,2.5,Athena Condo,2126,97095,1966,50,223,1246,Sold,,,http://www.redfin.com/TX/Dallas/6335-West-Northwest-Hwy-75225/unit-1511/home/146427633,NTREIS,13900766,N,Y,32.866138,-96.7974664
PAST SALE,January-25-2019,Townhouse,5207 Weiss,Irving,TX,75039,484995,3,3.5,Verona At Lake Carolyn,2193,,2015,74,221,125,Sold,,,http://www.redfin.com/TX/Irving/5207-Weiss-Ln-75039/home/52060221,NTREIS,13896255,N,Y,32.8626022,-96.9267963
PAST SALE,February-8-2019,Single Family Residential,5710 Forest Ln,Dallas,TX,75230,479000,3,2.5,Inwood Road Estates,2109,16291,1957,60,227,,Sold,,,http://www.redfin.com/TX/Dallas/5710-Forest-Ln-75230/home/30925508,NTREIS,13994487,N,Y,32.909155,-96.810242
PAST SALE,March-27-2019,Single Family Residential,5210 Denton Dr,Dallas,TX,75235,469000,3,2.0,Oak Lawn Heights,1657,7632,1940,13,283,,Sold,,,http://www.redfin.com/TX/Dallas/5210-Denton-Dr-75235/home/30814381,NTREIS,14009885,N,Y,32.8193417,-96.828547
PAST SALE,February-28-2019,Single Family Residential,4303 Bluffview Blvd,Dallas,TX,75209,479000,3,2.0,Bluffview Estates,1946,14854,1941,40,246,,Sold,,,http://www.redfin.com/TX/Dallas/4303-Bluffview-Blvd-75209/home/30854262,NTREIS,13864319,N,Y,32.853461,-96.8373831
PAST SALE,March-29-2019,Single Family Residential,3605 Weeburn Dr,Dallas,TX,75229,487500,3,2.0,Park Forest 02 Inst,2110,12894,1959,11,231,,Sold,,,http://www.redfin.com/TX/Dallas/3605-Weeburn-Dr-75229/home/30932054,NTREIS,14006157,N,Y,32.9067683,-96.8597444
PAST SALE,March-4-2019,Townhouse,4136 N Hall St,Dallas,TX,75219,449000,2,3.5,G A Knights Oak Lawn Ph 02,2099,2004,1999,36,214,75,Sold,,,http://www.redfin.com/TX/Dallas/4136-N-Hall-St-75219/home/32194954,NTREIS,13992766,N,Y,32.813787,-96.811651
PAST SALE,March-1-2019,Single Family Residential,5538 Goodwin Ave,Dallas,TX,75206,479000,2,2.0,Vickery Place Add,1309,8015,1921,39,366,,Sold,,,http://www.redfin.com/TX/Dallas/5538-Goodwin-Ave-75206/home/30807232,NTREIS,14008337,N,Y,32.823286,-96.7729713
PAST SALE,February-22-2019,Single Family Residential,5550 Martel Ave,Dallas,TX,75206,450000,2,2.0,Greenland Hills Annex,1334,7100,1946,46,337,,Sold,,,http://www.redfin.com/TX/Dallas/5550-Martel-Ave-75206/home/30821661,NTREIS,13993378,N,Y,32.8315324,-96.7729262
PAST SALE,March-26-2019,Single Family Residential,5455 Vickery Blvd,Dallas,TX,75206,499000,3,2.5,Vickery Place,1920,8494,1922,14,260,,Sold,,,http://www.redfin.com/TX/Dallas/5455-Vickery-Blvd-75206/home/30807442,NTREIS,13998590,N,Y,32.8226457,-96.7751092
PAST SALE,February-13-2019,Multi-Family (2-4 Unit),2619 Abrams Rd,Dallas,TX,75214,499000,2,1.0,Lakewood Heights,2168,7492,1938,55,230,,Sold,,,http://www.redfin.com/TX/Dallas/2619-Abrams-Rd-75214/home/30810089,NTREIS,14000090,N,Y,32.8217419,-96.7531404
PAST SALE,March-20-2019,Condo/Co-op,5906 Lindell Ave #101,Dallas,TX,75206,415000,2,2.5,ALTA VISTA,1662,6534,2019,20,250,150,Sold,,,http://www.redfin.com/TX/Dallas/5906-Lindell-Ave-75206/unit-101/home/146895761,NTREIS,13924213,N,Y,32.8087126,-96.766568
PAST SALE,March-15-2019,Single Family Residential,6447 Kenwood Ave,Dallas,TX,75214,475000,2,1.0,North Ridge Park,1459,7667,1942,25,326,,Sold,,,http://www.redfin.com/TX/Dallas/6447-Kenwood-Ave-75214/home/30850750,NTREIS,13999332,N,Y,32.8329358,-96.7509677
PAST SALE,April-1-2019,Single Family Residential,5204 Rexton Ln,Dallas,TX,75214,440000,3,2.0,Ridgewood Park,1653,8712,1954,8,266,,Sold,,,http://www.redfin.com/TX/Dallas/5204-Rexton-Ln-75214/home/30869613,NTREIS,14019780,N,Y,32.8509194,-96.7492938
PAST SALE,April-4-2019,Multi-Family (2-4 Unit),5709 Live Oak St,Dallas,TX,75206,450000,4,2.0,Munger Place Add,2616,6534,1930,5,172,,Sold,,,http://www.redfin.com/TX/Dallas/5709-Live-Oak-St-75206/home/30805887,NTREIS,14033029,N,Y,32.810777,-96.763433
PAST SALE,March-28-2019,Single Family Residential,7860 Minglewood,Dallas,TX,75231,449999,3,2.5,Merion at Midtown Park,1701,17424,2017,12,265,127,Sold,,,http://www.redfin.com/TX/Dallas/7860-Minglewood-Ln-75231/home/143838058,NTREIS,13875072,N,Y,32.8882545,-96.7618976
PAST SALE,February-28-2019,Single Family Residential,6547 Ridgeview Cir,Dallas,TX,75240,475000,4,3.0,Northwood Homes,2610,16117,1959,40,182,,Sold,,,http://www.redfin.com/TX/Dallas/6547-Ridgeview-Cir-75240/home/31016201,NTREIS,14003816,N,Y,32.9273589,-96.7932607
PAST SALE,April-8-2019,Single Family Residential,901 Agape Cir,Rockwall,TX,75087,449900,4,3.5,Royal Park Place,3193,12981,1987,1,141,,Sold,,,http://www.redfin.com/TX/Rockwall/901-Agape-Cir-75087/home/33920368,NTREIS,13977874,N,Y,32.9208691,-96.4681189
PAST SALE,January-11-2019,Single Family Residential,2614 Chesterfield Rd,Garland,TX,75043,465000,4,4.0,Emerald Lake 02,4656,11631,2010,88,100,25,Sold,,,http://www.redfin.com/TX/Garland/2614-Chesterfield-Rd-75043/home/30766572,NTREIS,13953918,N,Y,32.876026,-96.59121
PAST SALE,April-8-2019,Townhouse,2810 N Hall St,Dallas,TX,75204,499988,3,2.5,Hall Howell Tr,2420,1699,2004,1,207,104,Sold,,,http://www.redfin.com/TX/Dallas/2810-N-Hall-St-75204/home/161386510,NTREIS,14009648,N,Y,32.8029459,-96.7976374
PAST SALE,March-27-2019,Multi-Family (2-4 Unit),2365 N Carroll Ave,Dallas,TX,75204,499900,2,2.5,Golf Park,1758,6665,2018,13,284,,Sold,,,http://www.redfin.com/TX/Dallas/2365-N-Carroll-Ave-75204/home/147264268,NTREIS,14018679,N,Y,32.8076762,-96.7860249
PAST SALE,February-27-2019,Townhouse,4111 Newton Ave #3,Dallas,TX,75219,440000,2,2.5,Fortyone 11 Twnhms,2024,73399,2007,41,217,344,Sold,,,http://www.redfin.com/TX/Dallas/4111-Newton-Ave-75219/unit-3/home/30782568,NTREIS,14016938,N,Y,32.8187208,-96.8067393
PAST SALE,March-20-2019,Condo/Co-op,4240 Prescott Ave Unit 7E,Dallas,TX,75219,550000,2,2.5,Drexel Highlander Condos,2153,28662,2004,20,255,1377,Sold,,,http://www.redfin.com/TX/Dallas/4240-Prescott-Ave-75219/unit-7E/home/30775547,NTREIS,13882390,N,Y,32.8213411,-96.8026978
PAST SALE,March-15-2019,Single Family Residential,7235 Haverford Rd,Dallas,TX,75214,445000,3,2.0,University Terrace Rev,1715,7623,1956,25,259,,Sold,,,http://www.redfin.com/TX/Dallas/7235-Haverford-Rd-75214/home/30869895,NTREIS,14013170,N,Y,32.8510734,-96.7376789
PAST SALE,April-1-2019,Single Family Residential,7236 Syracuse Dr,Dallas,TX,75214,439500,4,2.0,University Terrace,1913,8451,1960,8,230,,Sold,,,http://www.redfin.com/TX/Dallas/7236-Syracuse-Dr-75214/home/30869828,NTREIS,14004206,N,Y,32.8533898,-96.734725
PAST SALE,March-14-2019,Single Family Residential,7118 Claren Ct,Dallas,TX,75252,465000,4,3.0,Highlands Of Mckamy Ph IV,3048,12197,1984,26,153,20,Sold,,,http://www.redfin.com/TX/Dallas/7118-Claren-Ct-75252/home/31864171,NTREIS,13987887,N,Y,32.9921733,-96.7798711
PAST SALE,March-13-2019,Single Family Residential,18807 Fortson Ave,Dallas,TX,75252,455000,4,3.0,Preston Highlands North,2781,10019,1986,27,164,,Sold,,,http://www.redfin.com/TX/Dallas/18807-Fortson-Ave-75252/home/32045466,NTREIS,14008594,N,Y,33.0059979,-96.7913776
PAST SALE,March-18-2019,Single Family Residential,5710 Buffridge Trl,Dallas,TX,75252,449000,5,3.0,Bent Trail Add Ph Two,3402,8712,1983,22,132,,Sold,,,http://www.redfin.com/TX/Dallas/5710-Buffridge-Trl-75252/home/31847809,NTREIS,14001078,N,Y,33.0070142,-96.8112991
PAST SALE,March-22-2019,Single Family Residential,4211 Shadow Glen Dr,Dallas,TX,75287,460000,4,3.0,Bent Tree West 4,2911,8712,1986,18,158,15,Sold,,,http://www.redfin.com/TX/Dallas/4211-Shadow-Glen-Dr-75287/home/32028945,NTREIS,13926962,N,Y,32.9946717,-96.8360421
PAST SALE,March-25-2019,Single Family Residential,5701 Buffridge Trl,Dallas,TX,75252,435000,4,3.5,Bent Trail Addition Ph Two,2866,8712,1983,15,152,,Sold,,,http://www.redfin.com/TX/Dallas/5701-Buffridge-Trl-75252/home/31848141,NTREIS,13950329,N,Y,33.0074914,-96.8117805
PAST SALE,April-5-2019,Single Family Residential,7329 La Manga Dr,Dallas,TX,75248,450000,4,3.0,Prestonwood Humble,2341,8973,1972,4,192,,Sold,,,http://www.redfin.com/TX/Dallas/7329-La-Manga-Dr-75248/home/31080043,NTREIS,14034581,N,Y,32.9707349,-96.7810844
PAST SALE,March-29-2019,Single Family Residential,317 Scenic Dr,Heath,TX,75032,439000,3,2.5,Antigua Bay,2475,10019,1995,11,177,,Sold,,,http://www.redfin.com/TX/Heath/317-Scenic-Dr-75032/home/33898215,NTREIS,14038148,N,Y,32.8217689,-96.4946875
PAST SALE,January-18-2019,Single Family Residential,9954 Windledge Dr,Dallas,TX,75238,485500,5,3.0,Lake North Estates,3295,14026,1962,81,147,,Sold,,,http://www.redfin.com/TX/Dallas/9954-Windledge-Dr-75238/home/31061998,NTREIS,13933894,N,Y,32.8838037,-96.7139052
PAST SALE,January-25-2019,Single Family Residential,1030 Erin Dr,Dallas,TX,75218,459000,2,2.0,Lake Park Estates,1752,8799,1951,74,262,,Sold,,,http://www.redfin.com/TX/Dallas/1030-Erin-Dr-75218/home/30864209,NTREIS,13999084,N,Y,32.8389935,-96.7027259
PAST SALE,March-4-2019,Single Family Residential,1115 Tranquilla Dr,Dallas,TX,75218,500000,3,2.5,Lake Park Estates,3124,20691,1947,36,160,,Sold,,,http://www.redfin.com/TX/Dallas/1115-Tranquilla-Dr-75218/home/30864029,NTREIS,13933547,N,Y,32.8391099,-96.700553
PAST SALE,March-4-2019,Single Family Residential,927 Easton Pl,Dallas,TX,75218,499000,4,2.5,Easton Place Rev,2347,5924,1979,36,213,25,Sold,,,http://www.redfin.com/TX/Dallas/927-Easton-Pl-75218/home/30866689,NTREIS,14008725,N,Y,32.847626,-96.6979622
PAST SALE,March-12-2019,Single Family Residential,9411 Buxhill Dr,Dallas,TX,75238,485000,3,2.0,White Rock North 01,1960,10062,1959,28,247,,Sold,,,http://www.redfin.com/TX/Dallas/9411-Buxhill-Dr-75238/home/31021752,NTREIS,14000727,N,Y,32.8666016,-96.7211153
PAST SALE,March-15-2019,Single Family Residential,9926 Lakedale Dr,Dallas,TX,75218,390000,4,3.0,Lake Highlands Estates 8,2355,11674,1964,25,166,,Sold,,,http://www.redfin.com/TX/Dallas/9926-Lakedale-Dr-75218/home/30999862,NTREIS,14023387,N,Y,32.8615826,-96.7141351
PAST SALE,March-21-2019,Single Family Residential,10421 Solta Dr,Dallas,TX,75218,425000,3,2.0,Lake Highland Estates 7,1602,6926,1953,19,265,,Sold,,,http://www.redfin.com/TX/Dallas/10421-Solta-Dr-75218/home/30969722,NTREIS,14015314,N,Y,32.8598609,-96.7069884
PAST SALE,March-27-2019,Single Family Residential,8664 Grenadier Ct,Dallas,TX,75238,435000,3,2.0,Barkley Square,1811,8886,1973,13,240,3,Sold,,,http://www.redfin.com/TX/Dallas/8664-Grenadier-Ct-75238/home/31044666,NTREIS,14026498,N,Y,32.8675886,-96.6896058
PAST SALE,March-21-2019,Single Family Residential,6911 Blackwood Dr,Dallas,TX,75231,465000,3,2.5,Merriman Park Estates,2143,,1958,19,217,,Sold,,,http://www.redfin.com/TX/Dallas/6911-Blackwood-Dr-75231/home/31043334,NTREIS,13964181,N,Y,32.8709157,-96.7362905
PAST SALE,March-8-2019,Single Family Residential,2601 South Blvd,Dallas,TX,75215,375000,4,2.5,Edgewood,4296,13634,1931,32,87,,Sold,,,http://www.redfin.com/TX/Dallas/2601-South-Blvd-75215/home/30796996,NTREIS,14017421,N,Y,32.7683162,-96.7719275
PAST SALE,February-15-2019,Single Family Residential,2385 Rockyglen Dr,Dallas,TX,75228,419000,3,2.5,Claremont Park 01,2201,10542,1961,53,190,,Sold,,,http://www.redfin.com/TX/Dallas/2385-Rockyglen-Dr-75228/home/30969465,NTREIS,14002625,N,Y,32.8075058,-96.7008873
PAST SALE,February-28-2019,Single Family Residential,9730 Twin Creek Dr,Dallas,TX,75228,449000,3,2.0,Woodcrest,1602,10977,1958,40,280,,Sold,,,http://www.redfin.com/TX/Dallas/9730-Twin-Creek-Dr-75228/home/31014883,NTREIS,13982570,N,Y,32.8242045,-96.6888955
PAST SALE,February-1-2019,Single Family Residential,9910 Coppedge Ln,Dallas,TX,75220,464900,3,2.0,Valley Ridge,1806,7667,1951,67,257,,Sold,,,http://www.redfin.com/TX/Dallas/9910-Coppedge-Ln-75220/home/30914498,NTREIS,13956020,N,Y,32.8775237,-96.851116
PAST SALE,January-11-2019,Single Family Residential,9865 Shoreview Rd,Dallas,TX,75238,479000,3,2.0,Lake Ridge Estates,2125,11935,1957,88,225,,Sold,,,http://www.redfin.com/TX/Dallas/9865-Shoreview-Rd-75238/home/31021863,NTREIS,13977996,N,Y,32.8654873,-96.7153263
PAST SALE,February-21-2019,Single Family Residential,9016 Clearhurst Dr,Dallas,TX,75238,410000,3,2.0,White Rock Villas,1762,4008,1999,47,233,71,Sold,,,http://www.redfin.com/TX/Dallas/9016-Clearhurst-Dr-75238/home/31152464,NTREIS,13983202,N,Y,32.869343,-96.7304792
PAST SALE,March-1-2019,Single Family Residential,9925 Wood Forest Dr,Dallas,TX,75243,410000,5,3.0,Woodbridge Add 01 Rep,3055,13286,1979,39,134,13,Sold,,,http://www.redfin.com/TX/Dallas/9925-Wood-Forest-Dr-75243/home/31102009,NTREIS,13976625,N,Y,32.9112833,-96.7160577
PAST SALE,March-15-2019,Single Family Residential,9435 Hunters Creek Dr,Dallas,TX,75243,415000,4,2.5,Forest Mdws Sec 01,2445,7754,1969,25,170,,Sold,,,http://www.redfin.com/TX/Dallas/9435-Hunters-Creek-Dr-75243/home/31070399,NTREIS,13995044,N,Y,32.9049253,-96.7340328
PAST SALE,February-20-2019,Single Family Residential,9038 Maple Glen Dr,Dallas,TX,75231,515000,4,3.0,High Meadows,2762,9148,1977,48,186,,Sold,,,http://www.redfin.com/TX/Dallas/9038-Maple-Glen-Dr-75231/home/31068401,NTREIS,13951609,N,Y,32.8845629,-96.7386712
PAST SALE,March-15-2019,Single Family Residential,9108 Dusti Dr,Dallas,TX,75243,519999,4,3.0,Bill Brownes Farm,3141,9583,1979,25,166,,Sold,,,http://www.redfin.com/TX/Dallas/9108-Dusti-Dr-75243/home/31070902,NTREIS,13989934,N,Y,32.904279,-96.7440059
PAST SALE,February-27-2019,Single Family Residential,9419 Estate Ln,Dallas,TX,75238,475000,3,2.5,White Rock North,2579,8886,1965,41,184,,Sold,,,http://www.redfin.com/TX/Dallas/9419-Estate-Ln-75238/home/31066606,NTREIS,14008261,N,Y,32.8839016,-96.728057
PAST SALE,January-11-2019,Single Family Residential,18724 EVERWOOD Ct,Dallas,TX,75252,439000,4,3.0,Preston Parkside Estates,3317,9583,1994,88,132,38,Sold,,,http://www.redfin.com/TX/Dallas/18724-Everwood-Ct-75252/home/32077531,NTREIS,13889277,N,Y,33.0060336,-96.800375
PAST SALE,February-19-2019,Single Family Residential,15720 Wing Point Dr,Dallas,TX,75248,450000,3,3.0,Prestonwood,3070,5968,1980,49,147,175,Sold,,,http://www.redfin.com/TX/Dallas/15720-Wing-Point-Dr-75248/home/31111520,NTREIS,14001655,N,Y,32.9618456,-96.8039953
PAST SALE,March-1-2019,Single Family Residential,7359 Briarnoll Dr E,Dallas,TX,75252,475000,4,3.0,Highlands Sec 1,2792,10019,1982,39,170,,Sold,,,http://www.redfin.com/TX/Dallas/7359-Briarnoll-Dr-75252/home/31870363,NTREIS,13909558,N,Y,32.994973,-96.7762941
PAST SALE,January-10-2019,Single Family Residential,8544 Breakers Pt,Dallas,TX,75243,500000,3,2.5,Royal Lane Village,2630,6534,1992,89,190,67,Sold,,,http://www.redfin.com/TX/Dallas/8544-Breakers-Pt-75243/home/31151666,NTREIS,13993408,N,Y,32.8980305,-96.7578248
PAST SALE,February-28-2019,Single Family Residential,5828 Prospect Ave,Dallas,TX,75206,460000,3,2.0,Ross Ave Annex,2042,7187,1926,40,225,,Sold,,,http://www.redfin.com/TX/Dallas/5828-Prospect-Ave-75206/home/30806707,NTREIS,13942426,N,Y,32.8146216,-96.766819
PAST SALE,February-28-2019,Single Family Residential,9710 Bluff Dale Dr,Dallas,TX,75218,429900,3,2.0,Lake Terrace,1494,11892,1954,40,288,,Sold,,,http://www.redfin.com/TX/Dallas/9710-Bluffdale-Dr-75218/home/30908082,NTREIS,13960802,N,Y,32.8468955,-96.7083258
PAST SALE,February-21-2019,Single Family Residential,3103 Bryan St,Dallas,TX,75204,425000,2,2.5,Bryan Place Rev 02,2460,4530,1980,47,173,4,Sold,,,http://www.redfin.com/TX/Dallas/3103-Bryan-St-75204/home/30792216,NTREIS,13937018,N,Y,32.7923583,-96.7874817
PAST SALE,March-7-2019,Single Family Residential,5354 Goodwin Ave,Dallas,TX,75206,485000,3,1.0,Vickery Place Add,1570,8799,1920,33,309,,Sold,,,http://www.redfin.com/TX/Dallas/5354-Goodwin-Ave-75206/home/30807469,NTREIS,14013829,N,Y,32.8232528,-96.7776193
PAST SALE,January-30-2019,Multi-Family (2-4 Unit),5509 Winton St,Dallas,TX,75206,435000,4,2.0,Inge,1812,8407,1948,69,240,,Sold,,,http://www.redfin.com/TX/Dallas/5509-Winton-St-75206/home/30821939,NTREIS,14003804,N,Y,32.8358028,-96.773391
PAST SALE,January-18-2019,Single Family Residential,1007 N Windomere Ave,Dallas,TX,75208,419900,3,2.0,Kessler Square,1675,8015,1930,81,251,,Sold,,,http://www.redfin.com/TX/Dallas/1007-N-Windomere-Ave-75208/home/30835614,NTREIS,13970000,N,Y,32.7556541,-96.8442479
PAST SALE,February-28-2019,Single Family Residential,4165 Beechwood Ln,Dallas,TX,75220,495000,3,2.0,Glenridge Estates,1980,8276,1952,40,250,,Sold,,,http://www.redfin.com/TX/Dallas/4165-Beechwood-Ln-75220/home/30910334,NTREIS,14011457,N,Y,32.8763047,-96.8398614
PAST SALE,January-17-2019,Single Family Residential,6419 Malaga,Irving,TX,75039,472500,4,3.5,La Villita Ph 1f,2842,6229,2007,82,166,48,Sold,,,http://www.redfin.com/TX/Irving/6419-Malaga-75039/home/30773413,NTREIS,13986905,N,Y,32.8969468,-96.9313302
PAST SALE,January-30-2019,Single Family Residential,12115 Snow White Dr,Dallas,TX,75244,468000,4,2.5,Forest Glen Sec 01,2925,13286,1968,69,160,,Sold,,,http://www.redfin.com/TX/Dallas/12115-Snow-White-Dr-75244/home/30927611,NTREIS,13981282,N,Y,32.9133948,-96.8435354
PAST SALE,February-13-2019,Single Family Residential,9078 Fairglen Dr,Dallas,TX,75231,470000,3,2.5,High Mdws,2355,14505,1976,55,200,2,Sold,,,http://www.redfin.com/TX/Dallas/9078-Fairglen-Dr-75231/home/31067375,NTREIS,13988254,N,Y,32.8835739,-96.7366232
PAST SALE,February-22-2019,Single Family Residential,17328 Marianne Cir,Dallas,TX,75252,449900,4,3.0,Preston Gateway Estates,3222,18513,1970,46,140,,Sold,,,http://www.redfin.com/TX/Dallas/17328-Marianne-Cir-75252/home/31084923,NTREIS,13978246,N,Y,32.9864235,-96.797027
PAST SALE,March-29-2019,Single Family Residential,6711 Southpoint Dr,Dallas,TX,75248,400000,4,2.5,Tioga East Ph 01,2662,9496,1974,11,150,6,Sold,,,http://www.redfin.com/TX/Dallas/6711-Southpoint-Dr-75248/home/31083877,NTREIS,14010434,N,Y,32.9785395,-96.7922145
PAST SALE,March-6-2019,Single Family Residential,911 Cedar Hill Ave,Dallas,TX,75208,484900,4,3.0,Bishop Heights 1 Add,1996,3790,2016,34,243,125,Sold,,,http://www.redfin.com/TX/Dallas/911-Cedar-Hill-Ave-75208/home/89024438,NTREIS,14019546,N,Y,32.7540954,-96.8317711
PAST SALE,March-22-2019,Single Family Residential,4139 Bretton Bay Ln,Dallas,TX,75287,439000,4,3.0,Bent Tree West Ph 2,2806,9583,1981,18,156,,Sold,,,http://www.redfin.com/TX/Dallas/4139-Bretton-Bay-Ln-75287/home/31847721,NTREIS,14001174,N,Y,32.9912504,-96.8397481
PAST SALE,March-25-2019,Townhouse,6012 Tremont St,Dallas,TX,75214,475000,3,2.5,Tremont-Abrams,1780,3223,2001,15,267,175,Sold,,,http://www.redfin.com/TX/Dallas/6012-Tremont-St-75214/home/32194886,NTREIS,14024945,N,Y,32.808283,-96.75236
PAST SALE,February-15-2019,Single Family Residential,9204 Bottlebrush Ln,Irving,TX,75063,419900,4,2.5,Valley Ranch 37,2899,6578,2001,53,145,57,Sold,,,http://www.redfin.com/TX/Irving/9204-Bottlebrush-Ln-75063/home/32230203,NTREIS,14005673,N,Y,32.9318094,-96.9647225
PAST SALE,February-26-2019,Single Family Residential,4320 N Cresthaven Rd,Dallas,TX,75209,525000,2,2.0,Bluffview Estates,1670,13460,1940,42,314,,Sold,,,http://www.redfin.com/TX/Dallas/4320-N-Cresthaven-Rd-75209/home/30853954,NTREIS,13983576,N,Y,32.8519117,-96.8369262
PAST SALE,January-31-2019,Condo/Co-op,5200 Keller Springs Rd Unit 422-24,Dallas,TX,75248,560000,4,4.0,Bonaventure Condos,3691,331012,1981,68,152,1702,Sold,,,http://www.redfin.com/TX/Dallas/5200-Keller-Springs-Rd-75248/unit-422-24/home/114107753,NTREIS,13612890,N,Y,32.9677598,-96.8184364
PAST SALE,February-7-2019,Single Family Residential,6146 La Cosa Dr,Dallas,TX,75248,449000,3,2.5,Prestonwood,2509,8189,1980,61,179,,Sold,,,http://www.redfin.com/TX/Dallas/6146-La-Cosa-Dr-75248/home/31110502,NTREIS,13988893,N,Y,32.9594407,-96.7998937
PAST SALE,February-15-2019,Single Family Residential,7359 La Bolsa Dr,Dallas,TX,75248,464999,4,2.5,Prestonwood,2465,8581,1970,53,189,,Sold,,,http://www.redfin.com/TX/Dallas/7359-La-Bolsa-Dr-75248/home/31078852,NTREIS,14006479,N,Y,32.9646922,-96.7806451
PAST SALE,March-21-2019,Single Family Residential,6847 Leameadow Dr,Dallas,TX,75248,484000,4,3.0,Prestonwood,2503,12807,1969,19,193,,Sold,,,http://www.redfin.com/TX/Dallas/6847-Leameadow-Dr-75248/home/31076395,NTREIS,14018249,N,Y,32.9543058,-96.7895992
PAST SALE,February-22-2019,Townhouse,3921 Wycliff Ave,Dallas,TX,75219,474900,3,2.5,Parklawn,2029,2222,1998,46,234,367,Sold,,,http://www.redfin.com/TX/Dallas/3921-Wycliff-Ave-75219/home/31124238,NTREIS,13951667,N,Y,32.819979,-96.8087079
PAST SALE,March-8-2019,Condo/Co-op,4212 Lomo Alto Dr #203,Highland Park,TX,75219,499900,2,2.0,Savoy Condo Westpark Add,1794,27922,1983,32,279,897,Sold,,,http://www.redfin.com/TX/Dallas/4212-Lomo-Alto-Dr-75219/unit-203/home/148441872,NTREIS,13985029,N,Y,32.821805,-96.8135799
PAST SALE,March-29-2019,Townhouse,500 1st Ave,Dallas,TX,75226,500000,3,2.5,East Side Lofts,2325,1350,2006,11,215,,Sold,,,http://www.redfin.com/TX/Dallas/500-1st-Ave-75226/home/30773789,NTREIS,13989334,N,Y,32.7831695,-96.7718786
PAST SALE,February-28-2019,Single Family Residential,4417 Zion Rd,Garland,TX,75043,475000,4,3.5,O T Stanfield,3835,31363,1970,40,124,,Sold,,,http://www.redfin.com/TX/Garland/4417-Zion-Rd-75043/home/31487806,NTREIS,13981094,N,Y,32.8617599,-96.5573634
PAST SALE,January-15-2019,Single Family Residential,5712 Still Forest Dr,Dallas,TX,75252,450000,4,3.0,Prestonwood West Sec One Ph Two,2740,8712,1981,84,164,8,Sold,,,http://www.redfin.com/TX/Dallas/5712-Still-Forest-Dr-75252/home/32167102,NTREIS,13983905,N,Y,32.9920964,-96.8102527
PAST SALE,March-14-2019,Single Family Residential,7251 Crooked Oak Dr,Dallas,TX,75248,450000,4,3.0,Hillcrest Manor 1st Sec,2782,9583,1978,26,162,,Sold,,,http://www.redfin.com/TX/Dallas/7251-Crooked-Oak-Dr-75248/home/31084550,NTREIS,14005264,N,Y,32.9772179,-96.7790553
PAST SALE,March-18-2019,Single Family Residential,7777 La Sobrina Dr,Dallas,TX,75248,490000,5,3.0,Richardson Heights Estates West 3r,2582,9801,1968,22,190,25,Sold,,,http://www.redfin.com/TX/Dallas/7777-La-Sobrina-Dr-75248/home/31082429,NTREIS,14019245,N,Y,32.9688995,-96.772529
PAST SALE,April-5-2019,Single Family Residential,18723 Everwood Ct,Dallas,TX,75252,499999,5,3.5,Preston Parkside Estates,3265,7841,1992,4,153,38,Sold,,,http://www.redfin.com/TX/Dallas/18723-Everwood-Ct-75252/home/32077542,NTREIS,14028109,N,Y,33.0058956,-96.8008982
PAST SALE,March-15-2019,Condo/Co-op,5907 Lindell Ave Unit C,Dallas,TX,75206,469900,2,3.0,Alta Vista,2150,7187,2018,25,219,275,Sold,,,http://www.redfin.com/TX/Dallas/5907-Lindell-Ave-75206/unit-C/home/145398652,NTREIS,14014383,N,Y,32.8091513,-96.766568
PAST SALE,March-18-2019,Single Family Residential,6149 Kenwood Ave,Dallas,TX,75214,415000,2,1.0,Hal Moseleys,1441,6839,1941,22,288,,Sold,,,http://www.redfin.com/TX/Dallas/6149-Kenwood-Ave-75214/home/30820688,NTREIS,14007287,N,Y,32.8334845,-96.7594937
PAST SALE,February-15-2019,Multi-Family (2-4 Unit),4406 Capitol Ave,Dallas,TX,75204,509900,2,2.5,Golf Park Add 3rd Instl,2192,6665,2018,53,233,,Sold,,,http://www.redfin.com/TX/Dallas/4406-Capitol-Ave-75204/home/30792883,NTREIS,14010151,N,Y,32.8072807,-96.7867291
PAST SALE,February-22-2019,Single Family Residential,6536 Kingsbury Dr,Dallas,TX,75231,425000,3,2.5,Merriman Park,1912,11631,1958,46,222,,Sold,,,http://www.redfin.com/TX/Dallas/6536-Kingsbury-Dr-75231/home/30870822,NTREIS,13960628,N,Y,32.8564707,-96.7431067
PAST SALE,February-27-2019,Single Family Residential,9028 Clearhurst Dr,Dallas,TX,75238,415000,3,2.0,White Rock Villas,1861,4008,1999,41,223,71,Sold,,,http://www.redfin.com/TX/Dallas/9028-Clearhurst-Dr-75238/home/31152459,NTREIS,13985207,N,Y,32.8695452,-96.729938
PAST SALE,February-21-2019,Single Family Residential,4122 Crossing Ln,Dallas,TX,75220,495000,2,2.5,Chapel Valley,2094,3659,1980,47,236,,Sold,,,http://www.redfin.com/TX/Dallas/4122-Crossing-Ln-75220/home/30855974,NTREIS,13974122,N,Y,32.8631735,-96.841823
PAST SALE,February-7-2019,Single Family Residential,6732 Regalbluff Dr,Dallas,TX,75248,599900,3,3.5,Prestonwood Estates,3982,15943,1974,61,151,,Sold,,,http://www.redfin.com/TX/Dallas/6732-Regalbluff-Dr-75248/home/31077697,NTREIS,13939599,N,Y,32.9522658,-96.7932816
PAST SALE,March-15-2019,Single Family Residential,8018 Copper Way,Dallas,TX,75252,466000,3,3.5,University Place,2447,3485,2019,25,190,179,Sold,,,http://www.redfin.com/TX/Dallas/8018-Copper-Way-75252/home/147614727,NTREIS,13989208,N,Y,32.984419,-96.764985
PAST SALE,March-26-2019,Single Family Residential,6748 Winterwood Ln,Dallas,TX,75248,419950,3,3.0,Preston Meadows,2137,9845,1969,14,197,,Sold,,,http://www.redfin.com/TX/Dallas/6748-Winterwood-Ln-75248/home/31077395,NTREIS,14016140,N,Y,32.9588686,-96.7926958
PAST SALE,April-2-2019,Condo/Co-op,7404 W Northwest Hwy #3,Dallas,TX,75225,439000,2,2.5,Northpark Garden Twnhms,1522,,1964,7,288,678,Sold,,,http://www.redfin.com/TX/Dallas/7404-W-Northwest-Hwy-75225/unit-3/home/30871940,NTREIS,13929151,N,Y,32.8654328,-96.7802689
PAST SALE,March-15-2019,Single Family Residential,623 Rosemary Dr,Heath,TX,75032,474900,3,2.5,Darr Estate,3368,41818,1980,25,141,2,Sold,,,http://www.redfin.com/TX/Heath/623-Rosemary-Dr-75032/home/33903679,NTREIS,13951942,N,Y,32.8451441,-96.4953331
PAST SALE,March-28-2019,Single Family Residential,7866 Minglewood,Dallas,TX,75231,439999,2,2.5,Merion at Midtown Park,1701,17424,2017,12,259,121,Sold,,,http://www.redfin.com/TX/Dallas/7866-Minglewood-Ln-75231/home/143838059,NTREIS,13850563,N,Y,32.889414,-96.761286
PAST SALE,March-8-2019,Condo/Co-op,4111 Newton Ave #37,Dallas,TX,75219,450000,2,2.5,Twnhms 4111,2024,73399,2007,32,222,344,Sold,,,http://www.redfin.com/TX/Dallas/4111-Newton-Ave-75219/unit-37/home/30782572,NTREIS,13995189,N,Y,32.8187208,-96.8067393
PAST SALE,February-28-2019,Townhouse,2328 Throckmorton St,Dallas,TX,75219,435000,3,2.5,Throckmorton Twnhm Add,2132,7492,2005,40,204,,Sold,,,http://www.redfin.com/TX/Dallas/2328-Throckmorton-St-75219/home/30761040,NTREIS,13967896,N,Y,32.8045031,-96.8190373
PAST SALE,March-29-2019,Condo/Co-op,3702 Holland Ave #10,Dallas,TX,75219,478000,2,2.5,Holland Condos 3702,2151,16074,1994,11,222,509,Sold,,,http://www.redfin.com/TX/Dallas/3702-Holland-Ave-75219/unit-10/home/146679897,NTREIS,13755861,N,Y,32.8122539,-96.8028234
PAST SALE,March-20-2019,Single Family Residential,4105 Clover Ln,Dallas,TX,75220,430000,2,2.0,Northway Estates,1307,10890,1951,20,329,,Sold,,,http://www.redfin.com/TX/Dallas/4105-Clover-Ln-75220/home/30910418,NTREIS,13972049,N,Y,32.87125,-96.8416175
PAST SALE,April-1-2019,Townhouse,3605 Bowser Ct,Dallas,TX,75219,460000,3,3.5,Bowser Avenue Townhomes,2195,1742,2006,8,210,83,Sold,,,http://www.redfin.com/TX/Dallas/3605-Bowser-Ct-75219/home/30773613,NTREIS,14006791,N,Y,32.8177753,-96.809911
PAST SALE,January-28-2019,Condo/Co-op,3170 Carmel #104,Dallas,TX,75204,499000,2,2.5,Building Assn Ground,2414,,2018,71,207,250,Sold,,,http://www.redfin.com/TX/Dallas/3170-Carmel-St-75204/unit-104/home/144908957,NTREIS,13998525,N,Y,32.7919829,-96.786418
PAST SALE,April-3-2019,Condo/Co-op,1504 Burlew St #2,Dallas,TX,75204,425000,2,2.5,Aj Porters,1505,8538,2018,6,282,197,Sold,,,http://www.redfin.com/TX/Dallas/1504-Burlew-St-75204/unit-2/home/144837914,NTREIS,14010845,N,Y,32.80041,-96.7794124
PAST SALE,April-5-2019,Condo/Co-op,1717 Annex Ave #101,Dallas,TX,75204,474999,3,3.5,Cityscape Plaza Townhomes,2154,79715,2014,4,221,178,Sold,,,http://www.redfin.com/TX/Dallas/1717-Annex-Ave-75204/unit-101/home/58771153,NTREIS,14020690,N,Y,32.8038848,-96.7792206
PAST SALE,February-27-2019,Single Family Residential,4734 Purdue Ave,Dallas,TX,75209,500000,4,1.0,Linwood Place,1082,7536,1949,41,462,,Sold,,,http://www.redfin.com/TX/Dallas/4734-Purdue-Ave-75209/home/30880783,NTREIS,14009456,N,Y,32.8539626,-96.8282168
PAST SALE,January-23-2019,Single Family Residential,6828 Dalhart Ln,Dallas,TX,75214,479000,2,2.0,Williams-Caruth Terrace,1913,8756,1962,76,250,,Sold,,,http://www.redfin.com/TX/Dallas/6828-Dalhart-Ln-75214/home/30825118,NTREIS,13923976,N,Y,32.8390119,-96.7407194
PAST SALE,March-29-2019,Townhouse,4603 W University Blvd,Dallas,TX,75209,439000,3,2.5,Churchill Downs,2837,4443,2007,11,155,,Sold,,,http://www.redfin.com/TX/Dallas/4603-W-University-Blvd-75209/home/32451336,NTREIS,14009914,N,Y,32.845228,-96.831
PAST SALE,March-22-2019,Single Family Residential,3860 Goodfellow Dr,Dallas,TX,75229,549000,4,2.5,Midway Hills 06 01 Inst,2495,15987,1962,18,220,,Sold,,,http://www.redfin.com/TX/Dallas/3860-Goodfellow-Dr-75229/home/30928153,NTREIS,13989125,N,Y,32.908746,-96.8491466
PAST SALE,March-8-2019,Single Family Residential,3320 Lockmoor Ln,Dallas,TX,75220,485000,5,4.0,Bradford Estates,1810,10019,2017,32,268,,Sold,,,http://www.redfin.com/TX/Dallas/3320-Lockmoor-Ln-75220/home/30932770,NTREIS,13999510,N,Y,32.878791,-96.867204
PAST SALE,April-2-2019,Single Family Residential,3136 Merrell Rd,Dallas,TX,75229,440000,4,2.5,Royal Chapel Estates,2378,10585,1967,7,185,,Sold,,,http://www.redfin.com/TX/Dallas/3136-Merrell-Rd-75229/home/30930402,NTREIS,14021789,N,Y,32.8875765,-96.8724329
PAST SALE,March-20-2019,Single Family Residential,3206 Waldrop Dr,Dallas,TX,75229,463000,4,3.0,Royal Chapel Estates,2344,11674,1967,20,198,,Sold,,,http://www.redfin.com/TX/Dallas/3206-Waldrop-St-75229/home/30930408,NTREIS,14011963,N,Y,32.8901874,-96.8728089
PAST SALE,March-29-2019,Single Family Residential,3221 Princess Ln,Dallas,TX,75229,425000,3,2.0,Sparkman Club Estates,1988,10193,1956,11,214,,Sold,,,http://www.redfin.com/TX/Dallas/3221-Princess-Ln-75229/home/30930328,NTREIS,14029749,N,Y,32.8923771,-96.8688729
PAST SALE,April-8-2019,Single Family Residential,9135 Valley Chapel Ln,Dallas,TX,75220,498500,3,2.5,Chapel Valley Add,2733,4443,1990,1,182,,Sold,,,http://www.redfin.com/TX/Dallas/9135-Valley-Chapel-Ln-75220/home/30855984,NTREIS,14008838,N,Y,32.8634084,-96.8439154
PAST SALE,March-1-2019,Single Family Residential,4318 Echo Glen Dr,Dallas,TX,75244,499500,4,3.5,Midway Forest,2687,12720,1971,39,186,,Sold,,,http://www.redfin.com/TX/Dallas/4318-Echo-Glen-Dr-75244/home/31097222,NTREIS,13969892,N,Y,32.9153244,-96.8375705
PAST SALE,March-21-2019,Single Family Residential,4953 Mill Run Rd,Dallas,TX,75244,485000,5,2.5,Inwood North Estates,2517,10672,1964,19,193,,Sold,,,http://www.redfin.com/TX/Dallas/4953-Mill-Run-Rd-75244/home/31099502,NTREIS,14013416,N,Y,32.9235283,-96.82256
PAST SALE,March-19-2019,Single Family Residential,10565 Countess Dr,Dallas,TX,75229,469000,3,2.5,Sparkman Club Estates,2231,11108,1957,21,210,50,Sold,,,http://www.redfin.com/TX/Dallas/10565-Countess-Dr-75229/home/30930310,NTREIS,14017012,N,Y,32.8922438,-96.8640976
PAST SALE,January-14-2019,Single Family Residential,5827 Marquita Ave,Dallas,TX,75206,510000,3,2.0,Greenville Crest,1611,6926,1926,85,317,,Sold,,,http://www.redfin.com/TX/Dallas/5827-Marquita-Ave-75206/home/30811627,NTREIS,13991439,N,Y,32.826312,-96.766755
PAST SALE,February-6-2019,Townhouse,4508 Rusk Ave,Dallas,TX,75204,465900,2,2.5,Elk Hill Addition,1788,8102,2018,62,261,150,Sold,,,http://www.redfin.com/TX/Dallas/4508-Rusk-Ave-75204/home/146077917,NTREIS,13871246,N,Y,32.8073069,-96.7851587
PAST SALE,February-7-2019,Townhouse,3606 Bowser Ct,Dallas,TX,75219,465000,3,3.5,Bowser Avenue Townhomes,2195,1786,2006,61,212,83,Sold,,,http://www.redfin.com/TX/Dallas/3606-Bowser-Ct-75219/home/30773617,NTREIS,13956291,N,Y,32.8176793,-96.8097989
PAST SALE,February-14-2019,Condo/Co-op,3525 Turtle Creek Blvd Unit 3D,Dallas,TX,75219,480000,2,2.0,Condo 3525,2085,123013,1957,54,230,2113,Sold,,,http://www.redfin.com/TX/Dallas/3525-Turtle-Creek-Blvd-75219/unit-3D/home/147410519,NTREIS,13994660,N,Y,32.8114877,-96.8032
PAST SALE,March-18-2019,Condo/Co-op,1833 Euclid Ave #6,Dallas,TX,75206,415000,2,2.5,Euclid Townhomes,1476,14767,2016,22,281,300,Sold,,,http://www.redfin.com/TX/Dallas/1833-Euclid-Ave-75206/unit-6/home/113253045,NTREIS,13993368,N,Y,32.8123552,-96.7738467
PAST SALE,March-18-2019,Single Family Residential,6133 Highgate Ln,Dallas,TX,75214,520000,4,3.5,Lovers Lane East,3256,8451,1969,22,160,,Sold,,,http://www.redfin.com/TX/Dallas/6133-Highgate-Ln-75214/home/30868843,NTREIS,13994665,N,Y,32.8496098,-96.7589555
PAST SALE,March-29-2019,Townhouse,4955 Camdale Ct,Dallas,TX,75206,494000,3,3.5,Fitzhugh Glen,2113,1350,2017,11,234,,Sold,,,http://www.redfin.com/TX/Dallas/4955-Camdale-Ct-75206/home/148160987,NTREIS,14015180,N,Y,32.8093462,-96.7793213
PAST SALE,April-8-2019,Single Family Residential,4706 Belmont Ave,Dallas,TX,75204,500000,4,3.5,Rick & Hurts North Fitzhugh Ave,2754,2265,2007,1,182,,Sold,,,http://www.redfin.com/TX/Dallas/4706-Belmont-Ave-75204/home/32395979,NTREIS,14028429,N,Y,32.810594,-96.784736
PAST SALE,March-15-2019,Condo/Co-op,5909 Luther Ln #703,Dallas,TX,75225,419000,2,2.0,Shelton Condo,1428,,1983,25,293,868,Sold,,,http://www.redfin.com/TX/Dallas/5909-Luther-Ln-75225/unit-703/home/31186225,NTREIS,13935379,N,Y,32.8637187,-96.8111691
PAST SALE,March-18-2019,Single Family Residential,9112 Summer Glen Ln,Dallas,TX,75243,459000,3,2.5,Moss Farm Ph I,2427,7362,1976,22,189,,Sold,,,http://www.redfin.com/TX/Dallas/9112-Summer-Glen-Ln-75243/home/31068477,NTREIS,14023487,N,Y,32.8951205,-96.746345
PAST SALE,February-26-2019,Single Family Residential,6414 Dunstan Ln,Dallas,TX,75214,445000,3,2.0,Ridgewood Park,1706,13373,1953,42,261,,Sold,,,http://www.redfin.com/TX/Dallas/6414-Dunstan-Ln-75214/home/30869365,NTREIS,13993926,N,Y,32.8484961,-96.7519219
PAST SALE,March-29-2019,Single Family Residential,3515 Ainsworth Dr,Dallas,TX,75229,459000,4,3.0,Walnut Hill North,2570,10803,1959,11,179,50,Sold,,,http://www.redfin.com/TX/Dallas/3515-Ainsworth-Dr-75229/home/30929529,NTREIS,13948111,N,Y,32.8917076,-96.8618781
PAST SALE,February-15-2019,Single Family Residential,2308 Watermark Pl,McKinney,TX,75071,449990,3,3.0,Timber Creek,2486,,2018,53,181,42,Sold,,,http://www.redfin.com/TX/McKinney/2308-Watermark-Pl-75071/home/146058212,NTREIS,13889985,N,Y,32.974046,-96.50726
PAST SALE,February-1-2019,Townhouse,15762 Seabolt #78,Addison,TX,75001,449900,3,3.5,Townhomes Of District A Ph 01-11,2339,,2005,67,192,281,Sold,,,http://www.redfin.com/TX/Addison/15762-Seabolt-Pl-75001/unit-78/home/30776900,NTREIS,13947087,N,Y,32.9635871,-96.8244244
PAST SALE,February-15-2019,Townhouse,1324 Fitts Pl,Dallas,TX,75215,435000,2,3.5,Southside Place,1605,,2019,53,271,125,Sold,,,http://www.redfin.com/TX/Dallas/1324-Fitts-Pl-75215/home/147240524,NTREIS,13904015,N,Y,32.768936,-96.795786
PAST SALE,March-27-2019,Single Family Residential,6839 Clayton Ave,Dallas,TX,75214,400000,4,2.0,Gastonwood,1952,9017,1928,13,205,,Sold,,,http://www.redfin.com/TX/Dallas/6839-Clayton-Ave-75214/home/30819017,NTREIS,14047540,N,Y,32.8145964,-96.7413121
PAST SALE,March-28-2019,Single Family Residential,7107 Bucknell Dr,Dallas,TX,75214,439900,3,2.0,University Terrace,1816,7492,1959,12,242,,Sold,,,http://www.redfin.com/TX/Dallas/7107-Bucknell-Dr-75214/home/30869990,NTREIS,14016531,N,Y,32.8513096,-96.7420183
PAST SALE,January-31-2019,Single Family Residential,3172 Whirlaway Rd,Dallas,TX,75229,439000,4,2.5,Chapel Downs,2281,12589,1962,68,192,,Sold,,,http://www.redfin.com/TX/Dallas/3172-Whirlaway-Rd-75229/home/30930188,NTREIS,13995306,N,Y,32.8817639,-96.8689119
PAST SALE,March-12-2019,Single Family Residential,5732 Llano Ave,Dallas,TX,75206,474000,2,2.0,Belmont Sub,1604,7492,1923,28,296,,Sold,,,http://www.redfin.com/TX/Dallas/5732-Llano-Ave-75206/home/30806318,NTREIS,13955549,N,Y,32.8218493,-96.7687038
PAST SALE,February-14-2019,Single Family Residential,6122 Revere Pl,Dallas,TX,75214,439000,2,2.0,Wilshire Heights,1466,7449,1938,54,299,,Sold,,,http://www.redfin.com/TX/Dallas/6122-Revere-Pl-75214/home/30821529,NTREIS,13997696,N,Y,32.8305825,-96.7604528
PAST SALE,February-20-2019,Single Family Residential,11817 Quincy Ln,Dallas,TX,75230,449000,4,3.0,Melshire Estates,2832,20212,1963,48,159,,Sold,,,http://www.redfin.com/TX/Dallas/11817-Quincy-Ln-75230/home/30925863,NTREIS,13963957,N,Y,32.9101643,-96.8137287
PAST SALE,March-4-2019,Single Family Residential,378 Kyra Ct,Coppell,TX,75019,475000,4,2.5,Kyra Court,2600,5750,2018,36,183,50,Sold,,,http://www.redfin.com/TX/Coppell/378-Kyra-Ct-75019/home/110137942,NTREIS,14049898,N,Y,32.9531027,-96.9826527
PAST SALE,March-13-2019,Single Family Residential,1022 N Winnetka Ave,Dallas,TX,75208,450000,3,1.5,Kessler Square,1628,7057,1925,27,276,4,Sold,,,http://www.redfin.com/TX/Dallas/1022-N-Winnetka-Ave-75208/home/30836102,NTREIS,14002832,N,Y,32.7561927,-96.8399773
PAST SALE,February-15-2019,Single Family Residential,1111 Cordova St,Dallas,TX,75223,449000,3,1.5,Hollywood,1612,8102,1939,53,279,3,Sold,,,http://www.redfin.com/TX/Dallas/1111-Cordova-St-75223/home/30813015,NTREIS,13965143,N,Y,32.8016013,-96.7398466
PAST SALE,February-28-2019,Condo/Co-op,3699 Mckinney Ave #586,Dallas,TX,75204,459000,1,1.5,West Village Urban Homes Condo,1649,282530,2000,40,278,394,Sold,,,http://www.redfin.com/TX/Dallas/3699-McKinney-Ave-75204/unit-586/home/30746596,NTREIS,13929408,N,Y,32.8080096,-96.7969891
PAST SALE,February-5-2019,Single Family Residential,5922 Brushy Creek Trl,Dallas,TX,75252,450000,4,3.0,Bent Trail Add Ph Two,2379,9148,1984,63,189,,Sold,,,http://www.redfin.com/TX/Dallas/5922-Brushy-Creek-Trl-75252/home/31847843,NTREIS,13990454,N,Y,33.0080065,-96.8051462
PAST SALE,March-28-2019,Single Family Residential,16503 Loch Maree Ln,Dallas,TX,75248,489900,4,4.0,Highlands North Sec 02,3010,13504,1977,12,163,,Sold,,,http://www.redfin.com/TX/Dallas/16503-Loch-Maree-Ln-75248/home/31112576,NTREIS,13929064,N,Y,32.9804182,-96.7745579
PAST SALE,February-20-2019,Single Family Residential,10101 Dove Trail Cir,Dallas,TX,75238,415000,4,3.0,Lake Highlands Square,2307,11369,1976,48,180,,Sold,,,http://www.redfin.com/TX/Dallas/10101-Dove-Trail-Cir-75238/home/31064802,NTREIS,14001783,N,Y,32.8865512,-96.7211153
PAST SALE,March-14-2019,Single Family Residential,9314 Dove Meadow Dr,Dallas,TX,75243,424000,3,2.5,Forest Mdws Add #5,2737,9627,1977,26,155,,Sold,,,http://www.redfin.com/TX/Dallas/9314-Dove-Meadow-Dr-75243/home/31071209,NTREIS,13967663,N,Y,32.9040996,-96.7412466
PAST SALE,April-1-2019,Single Family Residential,11009 Ferndale Rd,Dallas,TX,75238,415000,4,2.5,White Rock North 14th Instl,2612,9583,1968,8,159,,Sold,,,http://www.redfin.com/TX/Dallas/11009-Ferndale-Rd-75238/home/31061359,NTREIS,14013658,N,Y,32.8922804,-96.7164757
PAST SALE,February-14-2019,Single Family Residential,6912 Barolo Dr,Rowlett,TX,75088,435000,4,3.5,Vineyards,3889,8059,2016,54,112,48,Sold,,,http://www.redfin.com/TX/Rowlett/6912-Barolo-Dr-75088/home/52061081,NTREIS,13930512,N,Y,32.8885639,-96.5349988
PAST SALE,March-27-2019,Townhouse,730 High Garden Pl,Dallas,TX,75208,519000,3,3.5,High Grove,2319,3615,2018,13,224,125,Sold,,,http://www.redfin.com/TX/Dallas/730-High-Garden-Pl-75208/home/146401291,NTREIS,14005099,N,Y,32.751554,-96.848527
PAST SALE,February-28-2019,Single Family Residential,8231 Barbaree Blvd,Dallas,TX,75228,390000,3,3.0,Forest Meade,3080,26005,1953,40,127,,Sold,,,http://www.redfin.com/TX/Dallas/8231-Barbaree-Blvd-75228/home/30966232,NTREIS,14023897,N,Y,32.8091447,-96.7128101
PAST SALE,March-11-2019,Single Family Residential,7946 Glade Creek Ct,Dallas,TX,75218,479950,3,2.0,Enclave At White Rock Ph 02,2256,6665,1999,29,213,81,Sold,,,http://www.redfin.com/TX/Dallas/7946-Glade-Creek-Ct-75218/home/32195263,NTREIS,14004962,N,Y,32.806215,-96.7217005
PAST SALE,March-15-2019,Single Family Residential,1222 N Selva Dr,Dallas,TX,75218,399950,3,2.0,Casa Linda Estates,2300,20800,1949,25,174,,Sold,,,http://www.redfin.com/TX/Dallas/1222-N-Selva-Dr-75218/home/30861678,NTREIS,14023088,N,Y,32.8374169,-96.6961237
PAST SALE,January-18-2019,Single Family Residential,2202 Kessler Pkwy,Dallas,TX,75208,575000,3,2.0,Kessler Park,2658,12327,1937,81,216,,Sold,,,http://www.redfin.com/TX/Dallas/2202-Kessler-Pkwy-75208/home/30836781,NTREIS,13971663,N,Y,32.7616347,-96.8456274
PAST SALE,March-14-2019,Single Family Residential,10105 Edgeway Cir,Rowlett,TX,75089,439000,4,4.0,Waters Edge Ph 1,3437,10019,2016,26,128,100,Sold,,,http://www.redfin.com/TX/Rowlett/10105-Edgeway-Cir-75089/home/59421619,NTREIS,14020851,N,Y,32.9474575,-96.5195379
PAST SALE,February-22-2019,Condo/Co-op,2307 N Carroll Ave #4,Dallas,TX,75204,510000,3,2.5,Deere Park,2318,7492,2017,46,220,16,Sold,,,http://www.redfin.com/TX/Dallas/2307-N-Carroll-Ave-75204/unit-4/home/144717016,NTREIS,13759419,N,Y,32.806734,-96.7853275
PAST SALE,March-1-2019,Single Family Residential,9501 Faircrest Dr,Dallas,TX,75238,443000,4,3.0,Royal Hlnds Add #3,3014,12240,1973,39,147,21,Sold,,,http://www.redfin.com/TX/Dallas/9501-Faircrest-Dr-75238/home/31064568,NTREIS,14014609,N,Y,32.8899534,-96.7218468
