SALE TYPE,SOLD DATE,PROPERTY TYPE,ADDRESS,CITY,STATE OR PROVINCE,ZIP OR POSTAL CODE,PRICE,BEDS,BATHS,LOCATION,SQUARE FEET,LOT SIZE,YEAR BUILT,DAYS ON MARKET,$/SQUARE FEET,HOA/MONTH,STATUS,NEXT OPEN HOUSE START TIME,NEXT OPEN HOUSE END TIME,URL (SEE http://www.redfin.com/buy-a-home/comparative-market-analysis FOR INFO ON PRICING),SOURCE,MLS#,FAVORITE,INTERESTED,LATITUDE,LONGITUDE
PAST SALE,March-11-2019,Single Family Residential,4726 W University Blvd,Dallas,TX,75209,240000,2,1.0,Greenway Terrace,758,5663,1943,29,317,,Sold,,,http://www.redfin.com/TX/Dallas/4726-W-University-Blvd-75209/home/30850617,NTREIS,14027956,N,Y,32.8447127,-96.828975
PAST SALE,January-15-2019,Single Family Residential,8405 Romanway Dr,Dallas,TX,75249,230000,3,2.0,Summit Parc Ph 02,1920,2919,2006,84,120,28,Sold,,,http://www.redfin.com/TX/Dallas/8405-Romanway-Dr-75249/home/30728984,NTREIS,13978575,N,Y,32.6604972,-96.9460084
PAST SALE,March-1-2019,Single Family Residential,1700 Straus Rd,Cedar Hill,TX,75104,265000,4,2.5,Braeglen Highpointe Patio Garden Home,3340,4095,1992,39,79,,Sold,,,http://www.redfin.com/TX/Cedar-Hill/1700-Straus-Rd-75104/home/31233364,NTREIS,13991721,N,Y,32.6271746,-96.9573385
PAST SALE,February-27-2019,Condo/Co-op,4023 Wycliff Ave #103,Dallas,TX,75219,240000,3,2.0,La Espada Condos,1470,11456,1965,41,163,225,Sold,,,http://www.redfin.com/TX/Dallas/4023-Wycliff-Ave-75219/unit-103/home/31174099,NTREIS,14009216,N,Y,32.8199769,-96.80744
PAST SALE,February-27-2019,Single Family Residential,322 Beckleywood Blvd,Dallas,TX,75224,249000,2,2.0,Beckleywood,1100,21780,1929,41,226,,Sold,,,http://www.redfin.com/TX/Dallas/322-Beckleywood-Blvd-75224/home/30838595,NTREIS,14012146,N,Y,32.7257552,-96.8274166
PAST SALE,March-8-2019,Condo/Co-op,3102 Kings Rd #1104,Dallas,TX,75219,239900,2,2.0,Piazza Siena Condo,966,87033,2001,32,248,375,Sold,,,http://www.redfin.com/TX/Dallas/3102-Kings-Rd-75219/unit-1104/home/30780963,NTREIS,14010274,N,Y,32.8183615,-96.8199868
PAST SALE,January-16-2019,Single Family Residential,8206 Paul Pl,Rowlett,TX,75088,235000,4,3.5,Lakecrest 03 & 04 Rep,3024,11631,1991,83,78,,Sold,,,http://www.redfin.com/TX/Rowlett/8206-Paul-Pl-75088/home/32003123,NTREIS,13993277,N,Y,32.8817461,-96.5206838
PAST SALE,January-18-2019,Single Family Residential,4102 Simmons Dr,Rowlett,TX,75088,259000,3,2.0,Toler Ridge 03,1565,7797,1984,81,165,,Sold,,,http://www.redfin.com/TX/Rowlett/4102-Simmons-Dr-75088/home/32026666,NTREIS,13972633,N,Y,32.8836026,-96.5635969
PAST SALE,January-31-2019,Single Family Residential,1009 Claude St,Dallas,TX,75203,259900,3,2.5,Belvedere,2037,6621,2018,68,128,,Sold,,,http://www.redfin.com/TX/Dallas/1009-Claude-St-75203/home/30829102,NTREIS,13751016,N,Y,32.740213,-96.808948
PAST SALE,April-2-2019,Townhouse,379 Tonga,Dallas,TX,75203,250000,3,2.5,Sphinx at Fiji Ph 2,1468,2265,2016,7,170,68,Sold,,,http://www.redfin.com/TX/Dallas/379-Tonga-St-75203/home/59420395,NTREIS,13995035,N,Y,32.743908,-96.801807
PAST SALE,January-11-2019,Single Family Residential,1210 Holly Glen Dr,Dallas,TX,75232,240000,3,2.0,Highland Oaks 02 01 Inst,1881,8015,1962,88,128,,Sold,,,http://www.redfin.com/TX/Dallas/1210-Holly-Glen-Dr-75232/home/30902029,NTREIS,13977792,N,Y,32.687121,-96.8425748
PAST SALE,February-22-2019,Single Family Residential,223 S Waverly Dr,Dallas,TX,75208,275000,4,2.0,Sunset Hill,1188,7218,1987,46,231,,Sold,,,http://www.redfin.com/TX/Dallas/223-S-Waverly-Dr-75208/home/30830189,NTREIS,14006204,N,Y,32.7434789,-96.8493594
PAST SALE,March-11-2019,Single Family Residential,3964 Lost Creek Dr,Dallas,TX,75224,275000,4,2.0,Oak Park Estates,2172,9845,1965,29,127,,Sold,,,http://www.redfin.com/TX/Dallas/3964-Lost-Creek-Dr-75224/home/30900066,NTREIS,14002766,N,Y,32.6948115,-96.8465115
PAST SALE,March-20-2019,Single Family Residential,1646 Hansboro Ave,Dallas,TX,75224,239000,3,2.0,Edgefield Heights,1256,7492,1948,20,190,,Sold,,,http://www.redfin.com/TX/Dallas/1646-Hansboro-Ave-75224/home/30850329,NTREIS,14014126,N,Y,32.7155387,-96.848103
PAST SALE,February-12-2019,Single Family Residential,4131 Hollow Oak Dr,Dallas,TX,75287,255000,2,2.0,Bent Tree Gables,1271,3049,1984,56,201,110,Sold,,,http://www.redfin.com/TX/Dallas/4131-Hollow-Oak-Dr-75287/home/32185888,NTREIS,13964970,N,Y,32.997138,-96.839384
PAST SALE,February-27-2019,Single Family Residential,17107 Upper Bay Rd,Addison,TX,75001,275000,3,3.0,Addison Place Rev,1992,2439,1983,41,138,100,Sold,,,http://www.redfin.com/TX/Addison/17107-Upper-Bay-Rd-75001/home/31193610,NTREIS,14001581,N,Y,32.9849324,-96.8369738
PAST SALE,January-15-2019,Single Family Residential,8507 Arroyo Verda Dr,Dallas,TX,75249,265000,4,2.5,Summit Parc 04,2642,6229,2005,84,100,22,Sold,,,http://www.redfin.com/TX/Dallas/8507-Arroyo-Verda-Dr-75249/home/30764030,NTREIS,13972012,N,Y,32.6556203,-96.945006
PAST SALE,March-4-2019,Single Family Residential,5740 Mountain Hollow Dr,Dallas,TX,75249,265000,3,2.0,Mountain Hollow 01,1879,13721,2015,36,141,23,Sold,,,http://www.redfin.com/TX/Dallas/5740-Mountain-Hollow-Dr-75249/home/30782048,NTREIS,14014491,N,Y,32.6585661,-96.9635933
PAST SALE,March-12-2019,Single Family Residential,6351 Knoll Ridge Dr,Dallas,TX,75249,240000,3,2.5,Mountain Creek Meadows 1 PH 1 BLK L8,2038,6882,1989,28,118,,Sold,,,http://www.redfin.com/TX/Dallas/6351-Knoll-Ridge-Dr-75249/home/31156713,NTREIS,14012789,N,Y,32.6427398,-96.968205
PAST SALE,March-20-2019,Single Family Residential,822 Granada Dr,Duncanville,TX,75116,225000,4,2.0,Forest Hills 11,2193,8102,1972,20,103,,Sold,,,http://www.redfin.com/TX/Duncanville/822-Granada-Dr-75116/home/31313718,NTREIS,14013683,N,Y,32.6547292,-96.8918843
PAST SALE,March-28-2019,Multi-Family (2-4 Unit),4973 Thunder Rd,Dallas,TX,75244,230000,2,3.0,Silvertree Square,1862,4095,1978,12,124,,Sold,,,http://www.redfin.com/TX/Dallas/4973-Thunder-Rd-75244/home/31098307,NTREIS,14018568,N,Y,32.9244431,-96.8222674
PAST SALE,March-14-2019,Single Family Residential,4702 Cowan Ave,Dallas,TX,75209,313000,3,2.0,Greenway Terrace,1717,7492,1942,26,182,,Sold,,,http://www.redfin.com/TX/Dallas/4702-Cowan-Ave-75209/home/30850642,NTREIS,13975921,N,Y,32.8457572,-96.8299798
PAST SALE,January-18-2019,Multi-Family (2-4 Unit),2749 Meadow Gate Ln,Dallas,TX,75237,273000,6,,RED BIRD MEADOWS,2694,8276,1971,81,101,,Sold,,,http://www.redfin.com/TX/Dallas/2749-Meadow-Gate-Ln-75237/home/30956726,NTREIS,13970902,N,Y,32.65844,-96.863606
PAST SALE,March-12-2019,Single Family Residential,3421 S Ravinia Dr,Dallas,TX,75233,269000,2,1.0,Herbert D Coburn,1412,54014,1954,28,191,,Sold,,,http://www.redfin.com/TX/Dallas/3421-S-Ravinia-Dr-75233/home/30961708,NTREIS,14015932,N,Y,32.7012141,-96.8707651
PAST SALE,April-1-2019,Single Family Residential,2327 Klondike Dr,Dallas,TX,75228,254900,3,2.0,Cloverdale 01,1331,7536,1955,8,192,,Sold,,,http://www.redfin.com/TX/Dallas/2327-Klondike-Dr-75228/home/31001321,NTREIS,14014929,N,Y,32.8194772,-96.676363
PAST SALE,March-13-2019,Single Family Residential,17001 Vinland Dr,Addison,TX,75001,240000,2,2.0,Addison Place Rev,1539,3311,1983,27,156,100,Sold,,,http://www.redfin.com/TX/Addison/17001-Vinland-Dr-75001/home/31193711,NTREIS,13991612,N,Y,32.9835874,-96.8363457
PAST SALE,January-24-2019,Single Family Residential,4662 RALPH,Dallas,TX,75227,237000,3,2.5,CHARIOT VILLAGE,2016,6229,2018,75,118,,Sold,,,http://www.redfin.com/TX/Dallas/4662-Ralph-Ln-75227/home/145607230,NTREIS,13993672,N,Y,32.7843274,-96.6882815
PAST SALE,January-28-2019,Single Family Residential,5810 Smoke Glass Trl,Dallas,TX,75252,269000,3,2.5,Bent Trail Add Ph Two,1563,7841,1981,71,172,,Sold,,,http://www.redfin.com/TX/Dallas/5810-Smoke-Glass-Trl-75252/home/31848061,NTREIS,13977630,N,Y,33.0101189,-96.8081598
PAST SALE,February-1-2019,Single Family Residential,1135 Bayshore Dr,Rockwall,TX,75087,269900,3,2.5,Northshore #1a,2452,9583,1984,67,110,,Sold,,,http://www.redfin.com/TX/Rockwall/1135-Bayshore-Dr-75087/home/33916642,NTREIS,13957632,N,Y,32.9327473,-96.4757802
PAST SALE,January-31-2019,Condo/Co-op,4221 Cole Ave #305,Dallas,TX,75205,275000,2,2.0,Cole Ave Condo 4221,1030,17990,1983,68,267,329,Sold,,,http://www.redfin.com/TX/Dallas/4221-Cole-Ave-75205/unit-305/home/31166709,NTREIS,13968258,N,Y,32.8169521,-96.7924407
PAST SALE,March-29-2019,Condo/Co-op,3701 Turtle Creek Blvd Unit 12D,Dallas,TX,75219,259000,1,1.0,Turtle Creek North Condos,975,,1962,11,266,626,Sold,,,http://www.redfin.com/TX/Dallas/3701-Turtle-Creek-Blvd-75219/unit-12D/home/30795150,NTREIS,14033646,N,Y,32.8130094,-96.8018222
PAST SALE,February-21-2019,Single Family Residential,3643 Morningstar Cir,Farmers Branch,TX,75234,242900,4,2.0,Town North Estates,1978,15333,1959,47,123,,Sold,,,http://www.redfin.com/TX/Farmers-Branch/3643-Morningstar-Cir-75234/home/31342953,NTREIS,13969169,N,Y,32.9186469,-96.8589094
PAST SALE,March-18-2019,Single Family Residential,11850 High Valley Dr,Dallas,TX,75234,275000,3,2.0,Highland Meadows,1728,7579,1961,22,159,,Sold,,,http://www.redfin.com/TX/Dallas/11850-High-Valley-Dr-75234/home/30935666,NTREIS,13956399,N,Y,32.9112065,-96.8646923
PAST SALE,April-1-2019,Single Family Residential,2958 N Bend Dr,Dallas,TX,75229,269900,3,2.5,NORTHTOWN SQUARE,1660,1655,1994,8,163,30,Sold,,,http://www.redfin.com/TX/Dallas/2958-N-Bend-Dr-75229/home/31141725,NTREIS,14012212,N,Y,32.9077166,-96.879152
PAST SALE,April-4-2019,Single Family Residential,2904 Harbinger Ln,Dallas,TX,75287,242500,2,2.0,Old Mill Court Ph 2-B,1298,3093,1983,5,187,45,Sold,,,http://www.redfin.com/TX/Dallas/2904-Harbinger-Ln-75287/home/33152871,NTREIS,14002924,N,Y,32.9923394,-96.8649836
PAST SALE,April-8-2019,Single Family Residential,2222 S Tyler St,Dallas,TX,75224,269000,3,2.0,Elmdale,1852,7449,1953,1,145,,Sold,,,http://www.redfin.com/TX/Dallas/2222-S-Tyler-St-75224/home/30892641,NTREIS,14013801,N,Y,32.7237496,-96.8376333
PAST SALE,January-18-2019,Single Family Residential,3815 Pictureline Dr,Dallas,TX,75233,239000,4,2.0,Kimball Estates,1897,9932,1964,81,126,,Sold,,,http://www.redfin.com/TX/Dallas/3815-Pictureline-Dr-75233/home/30958285,NTREIS,13950091,N,Y,32.6953545,-96.8823295
PAST SALE,January-31-2019,Single Family Residential,4910 Lynnacre Dr,Dallas,TX,75211,235000,3,2.0,Kenwood,1646,34848,2018,68,143,,Sold,,,http://www.redfin.com/TX/Dallas/4910-Lynnacre-Dr-75211/home/31056621,NTREIS,13924568,N,Y,32.709367,-96.904602
PAST SALE,February-11-2019,Single Family Residential,1618 Champagne Dr,Dallas,TX,75224,224900,3,2.0,Oak Park Estates,1648,8843,1955,57,136,,Sold,,,http://www.redfin.com/TX/Dallas/1618-Champagne-Dr-75224/home/30899678,NTREIS,13942169,N,Y,32.7041723,-96.8467837
PAST SALE,March-1-2019,Single Family Residential,3911 Holliday Rd,Dallas,TX,75224,255000,3,2.0,Druid Hills,1682,21867,1958,39,152,,Sold,,,http://www.redfin.com/TX/Dallas/3911-Holliday-Rd-75224/home/30900118,NTREIS,13994240,N,Y,32.6955936,-96.8563124
PAST SALE,February-7-2019,Single Family Residential,408 Lansing St,Dallas,TX,75203,249900,2,2.0,Oak Cliff Original,1700,5314,1954,61,147,,Sold,,,http://www.redfin.com/TX/Dallas/408-Lansing-St-75203/home/30825933,NTREIS,13962196,N,Y,32.752364,-96.816417
PAST SALE,February-6-2019,Single Family Residential,422 Winding Brook Ln,Richardson,TX,75081,260000,3,2.0,Richland Oaks 03 Inst,1745,5009,1978,62,149,,Sold,,,http://www.redfin.com/TX/Richardson/422-Winding-Brook-Ln-75081/home/31973216,NTREIS,13991690,N,Y,32.9279242,-96.7313781
PAST SALE,February-6-2019,Single Family Residential,10420 Solta Dr,Dallas,TX,75218,259000,2,2.0,Lake Highland Estates 7,1430,8973,1954,62,181,,Sold,,,http://www.redfin.com/TX/Dallas/10420-Solta-Dr-75218/home/30969511,NTREIS,13977516,N,Y,32.8597563,-96.706487
PAST SALE,January-10-2019,Multi-Family (2-4 Unit),7406 Amherst Dr,Rowlett,TX,75088,318000,5,4.0,College Park,2258,6403,1984,89,141,,Sold,,,http://www.redfin.com/TX/Rowlett/7406-Amherst-Dr-75088/home/31991473,NTREIS,13976895,N,Y,32.885244,-96.531183
PAST SALE,January-15-2019,Single Family Residential,2044 Williams Way Ln,Dallas,TX,75228,229900,3,2.5,Ash Creek Add,1787,5009,1990,84,129,,Sold,,,http://www.redfin.com/TX/Dallas/2044-Williams-Way-Ln-75228/home/31149386,NTREIS,13979625,N,Y,32.8145539,-96.6798301
PAST SALE,February-8-2019,Single Family Residential,4920 Saint James Ct,Mesquite,TX,75150,255000,3,2.0,St James Estates,2302,9453,1988,60,111,,Sold,,,http://www.redfin.com/TX/Mesquite/4920-James-Ct-75150/home/31887024,NTREIS,14000355,N,Y,32.8375237,-96.6443117
PAST SALE,February-15-2019,Single Family Residential,10709 Cassandra Way,Dallas,TX,75228,242900,4,2.0,Country Club Park 01,2089,7667,1954,53,116,,Sold,,,http://www.redfin.com/TX/Dallas/10709-Cassandra-Way-75228/home/31004338,NTREIS,13955413,N,Y,32.8408984,-96.6645846
PAST SALE,February-20-2019,Single Family Residential,11481 Dumbarton Dr,Dallas,TX,75228,239900,3,2.5,Braeburn Glen Rev,1676,9453,1970,48,143,,Sold,,,http://www.redfin.com/TX/Dallas/11481-Dumbarton-Dr-75228/home/31105299,NTREIS,13993750,N,Y,32.8516709,-96.6517228
PAST SALE,March-29-2019,Single Family Residential,10040 Casa Oaks Dr,Dallas,TX,75228,249000,3,2.0,Casa View Oaks 08,1782,8015,1957,11,140,,Sold,,,http://www.redfin.com/TX/Dallas/10040-Casa-Oaks-Dr-75228/home/31002825,NTREIS,14001676,N,Y,32.8297507,-96.6721025
PAST SALE,March-27-2019,Single Family Residential,5040 Hollow Ridge Rd,Dallas,TX,75227,233000,4,2.0,Everglade Park 04,2200,7841,1985,13,106,,Sold,,,http://www.redfin.com/TX/Dallas/5040-Hollow-Ridge-Rd-75227/home/31140270,NTREIS,13981390,N,Y,32.7817336,-96.701138
PAST SALE,February-19-2019,Single Family Residential,11351 Lippitt Ave,Dallas,TX,75218,240000,3,2.0,Lochwood,1126,7797,1958,49,213,,Sold,,,http://www.redfin.com/TX/Dallas/11351-Lippitt-Ave-75218/home/30863977,NTREIS,13991423,N,Y,32.8560947,-96.6847595
PAST SALE,February-27-2019,Single Family Residential,2637 San Paula Ave,Dallas,TX,75228,232000,3,2.0,Casa View Oaks 04 Rev,1459,7362,1953,41,159,,Sold,,,http://www.redfin.com/TX/Dallas/2637-San-Paula-Ave-75228/home/30969102,NTREIS,13963343,N,Y,32.8322598,-96.6694711
PAST SALE,March-15-2019,Single Family Residential,14244 Greenhaw Ln,Dallas,TX,75253,236900,5,2.5,Shady Oaks,2571,5489,2018,25,92,25,Sold,,,http://www.redfin.com/TX/Dallas/14244-Greenhaw-Ln-75253/home/147420504,NTREIS,14017560,N,Y,32.676017,-96.586711
PAST SALE,February-4-2019,Single Family Residential,5406 Blue Cove Dr,Garland,TX,75043,225000,3,2.5,Anchor Point,1758,7492,1987,64,128,,Sold,,,http://www.redfin.com/TX/Garland/5406-Blue-Cove-Dr-75043/home/31349082,NTREIS,14015981,N,Y,32.8490549,-96.5541323
PAST SALE,March-1-2019,Single Family Residential,106 Gregory Dr,Heath,TX,75032,240000,3,2.0,Candlelite Park #1,1538,12502,2005,39,156,,Sold,,,http://www.redfin.com/TX/Heath/106-Gregory-Dr-75032/home/33941469,NTREIS,14007825,N,Y,32.8371965,-96.501373
PAST SALE,January-25-2019,Multi-Family (2-4 Unit),2423 ANSON Rd,Dallas,TX,75235,285000,4,3.0,MILES BENNETT,2349,14244,1940,74,121,,Sold,,,http://www.redfin.com/TX/Dallas/2423-Anson-Rd-75235/home/30814576,NTREIS,13876492,N,Y,32.8349292,-96.8530849
PAST SALE,February-1-2019,Single Family Residential,912 S Rosemont Ave,Dallas,TX,75208,275000,3,2.0,Terrace Home,1402,7797,1924,67,196,,Sold,,,http://www.redfin.com/TX/Dallas/912-S-Rosemont-Ave-75208/home/30832336,NTREIS,13934112,N,Y,32.7368983,-96.8477205
PAST SALE,March-6-2019,Single Family Residential,1204 S Waverly Dr,Dallas,TX,75208,259900,3,2.0,Sunset Annex,1484,7841,1948,34,175,,Sold,,,http://www.redfin.com/TX/Dallas/1204-S-Waverly-Dr-75208/home/30842057,NTREIS,13945246,N,Y,32.7329626,-96.8490189
PAST SALE,,Single Family Residential,4915 W University Blvd,Dallas,TX,75209,,1,1.0,,800,6752,1944,,,,Sold,,,http://www.redfin.com/TX/Dallas/4915-W-University-Blvd-75209/home/30851454,HARMLS,,N,Y,32.8451995,-96.8266799
PAST SALE,February-15-2019,Single Family Residential,3606 Highpoint Dr,Rockwall,TX,75087,240000,3,2.5,Lakeside Village #4,1444,6621,1986,53,166,124,Sold,,,http://www.redfin.com/TX/Rockwall/3606-Highpoint-Dr-75087/home/33912848,NTREIS,13971952,N,Y,32.9002837,-96.478019
PAST SALE,January-10-2019,Single Family Residential,8427 Creekbluff Dr,Dallas,TX,75249,229000,3,2.0,Mountain Creek Meadows 01 Ph 01,1992,6708,2002,89,115,,Sold,,,http://www.redfin.com/TX/Dallas/8427-Creekbluff-Dr-75249/home/31156535,NTREIS,13937947,N,Y,32.6412002,-96.9674497
PAST SALE,February-15-2019,Single Family Residential,5533 Bandit Dr,Dallas,TX,75249,245000,4,2.0,Mountain Terrace,2205,6490,2011,53,111,25,Sold,,,http://www.redfin.com/TX/Dallas/5533-Bandit-Dr-75249/home/30744542,NTREIS,13997604,N,Y,32.658518,-96.9704288
PAST SALE,March-15-2019,Single Family Residential,9008 Beckleycrest Ave,Dallas,TX,75232,239500,3,2.0,Beckley View,2380,10019,2019,25,101,,Sold,,,http://www.redfin.com/TX/Dallas/9008-Beckleycrest-Ave-75232/home/31036057,NTREIS,14021320,N,Y,32.638594,-96.833534
PAST SALE,January-28-2019,Single Family Residential,18023 Firecrest Ct,Dallas,TX,75252,274900,3,2.5,Preston Village Add Ph III,1887,3049,1993,71,146,50,Sold,,,http://www.redfin.com/TX/Dallas/18023-Firecrest-Ct-75252/home/32089163,NTREIS,13911219,N,Y,32.9975172,-96.8023839
PAST SALE,February-22-2019,Single Family Residential,1205 Dearborn Dr,Richardson,TX,75080,252500,4,2.0,Richardson Heights 07 4th Sec,1450,7536,1958,46,174,,Sold,,,http://www.redfin.com/TX/Richardson/1205-Dearborn-Dr-75080/home/31958486,NTREIS,13984206,N,Y,32.9423423,-96.7581399
PAST SALE,February-26-2019,Single Family Residential,13620 Spring Grove Ave,Dallas,TX,75240,269900,3,2.5,Spring Valley Park 03,1792,7797,1968,42,151,,Sold,,,http://www.redfin.com/TX/Dallas/13620-Spring-Grove-Ave-75240/home/31025233,NTREIS,13978197,N,Y,32.9340372,-96.7735539
PAST SALE,January-30-2019,Single Family Residential,13407 Baythorne Dr,Dallas,TX,75243,280000,4,3.0,Cimmaron Ridge 01,2278,8581,1978,69,123,,Sold,,,http://www.redfin.com/TX/Dallas/13407-Baythorne-Dr-75243/home/31101126,NTREIS,13992396,N,Y,32.9304595,-96.7074481
PAST SALE,February-1-2019,Townhouse,8534 Coppertowne Ln,Dallas,TX,75243,225000,2,2.5,Copperfield Add,1620,2091,1982,67,139,388,Sold,,,http://www.redfin.com/TX/Dallas/8534-Coppertowne-Ln-75243/home/31152587,NTREIS,13944803,N,Y,32.896657,-96.726504
PAST SALE,March-4-2019,Single Family Residential,11067 Wallbrook Dr,Dallas,TX,75238,280000,3,2.0,Kingsley Meadows,1542,8233,1974,36,182,,Sold,,,http://www.redfin.com/TX/Dallas/11067-Wallbrook-Dr-75238/home/31022096,NTREIS,13910799,N,Y,32.875601,-96.691274
PAST SALE,March-18-2019,Single Family Residential,1103 Oakmont Dr,Richardson,TX,75081,265000,3,2.0,College Park Sec 02,2544,17860,1976,22,104,,Sold,,,http://www.redfin.com/TX/Richardson/1103-Oakmont-Dr-75081/home/31925762,NTREIS,14002536,N,Y,32.933641,-96.7065496
PAST SALE,February-6-2019,Single Family Residential,9006 Clearlake Dr,Rowlett,TX,75088,279000,3,2.5,Lakeshore Park Estates,2355,7797,1992,62,118,,Sold,,,http://www.redfin.com/TX/Rowlett/9006-Clearlake-Dr-75088/home/33931332,NTREIS,13973601,N,Y,32.9034278,-96.5139962
PAST SALE,March-6-2019,Condo/Co-op,3225 Turtle Creek Blvd #1106,Dallas,TX,75219,275000,2,2.0,Renaissance On Turtle Creek Condo,1152,154028,1998,34,239,667,Sold,,,http://www.redfin.com/TX/Dallas/3225-Turtle-Creek-Blvd-75219/unit-1106/home/30731849,NTREIS,13908310,N,Y,32.8066148,-96.8038366
PAST SALE,February-22-2019,Single Family Residential,10343 Marsh Ln,Dallas,TX,75229,325000,3,2.0,Highland North 01 Rev,1745,15333,1956,46,186,,Sold,,,http://www.redfin.com/TX/Dallas/10343-Marsh-Ln-75229/home/30929002,NTREIS,14006129,N,Y,32.8875316,-96.856473
PAST SALE,March-4-2019,Single Family Residential,1870 Avonlea Dr,Rockwall,TX,75087,280000,4,2.0,Promenade Harbour,2370,10019,2003,36,118,,Sold,,,http://www.redfin.com/TX/Rockwall/1870-Avonlea-Dr-75087/home/33945204,NTREIS,13942444,N,Y,32.964999,-96.479278
PAST SALE,January-22-2019,Single Family Residential,8212 Hunnicut Rd,Dallas,TX,75228,285000,4,2.0,Buckner Terrace 03 Sec 03 Inst,2086,10062,1963,77,137,,Sold,,,http://www.redfin.com/TX/Dallas/8212-Hunnicut-Rd-75228/home/31102376,NTREIS,13994358,N,Y,32.7991211,-96.7026005
PAST SALE,February-5-2019,Single Family Residential,7136 Teresita Trl,Dallas,TX,75227,230000,4,2.0,Buckner Terrace,1986,8930,1978,63,116,,Sold,,,http://www.redfin.com/TX/Dallas/7136-Teresita-Trl-75227/home/30906902,NTREIS,13969786,N,Y,32.7916448,-96.6897729
PAST SALE,February-8-2019,Single Family Residential,2706 San Medina Ave,Dallas,TX,75228,250000,3,2.0,Andover Hill 01,1310,9757,1953,60,191,,Sold,,,http://www.redfin.com/TX/Dallas/2706-San-Medina-Ave-75228/home/30999507,NTREIS,13997419,N,Y,32.8327413,-96.6678423
PAST SALE,February-28-2019,Single Family Residential,8642 Santa Clara Dr,Dallas,TX,75218,280000,0,,Lake Crest,826,7492,1946,40,339,,Sold,,,http://www.redfin.com/TX/Dallas/8642-Santa-Clara-Dr-75218/home/30859572,NTREIS,14006769,N,Y,32.8205929,-96.7090467
PAST SALE,March-12-2019,Single Family Residential,1802 Crest Ridge Dr,Dallas,TX,75228,265000,3,2.0,Castridge Park,1356,8843,1953,28,195,,Sold,,,http://www.redfin.com/TX/Dallas/1802-Crest-Ridge-Dr-75228/home/30862837,NTREIS,14018828,N,Y,32.8355723,-96.684676
PAST SALE,March-21-2019,Single Family Residential,10824 Palace Way,Dallas,TX,75218,275000,3,1.5,Lochwood Rev,1266,9453,1959,19,217,,Sold,,,http://www.redfin.com/TX/Dallas/10824-Palace-Way-75218/home/30863454,NTREIS,13805272,N,Y,32.8484557,-96.6906503
PAST SALE,March-29-2019,Single Family Residential,10171 Baronne Cir,Dallas,TX,75218,255000,3,1.5,Lake Highland 7,1206,9583,1953,11,211,,Sold,,,http://www.redfin.com/TX/Dallas/10171-Baronne-Cir-75218/home/30969755,NTREIS,14002243,N,Y,32.8617345,-96.7080332
PAST SALE,April-8-2019,Single Family Residential,13312 Pandora Cir,Dallas,TX,75238,267500,3,2.5,Pebblebrook,1589,3485,1985,1,168,,Sold,,,http://www.redfin.com/TX/Dallas/13312-Pandora-Cir-75238/home/31151599,NTREIS,14012156,N,Y,32.8734748,-96.6902325
PAST SALE,January-31-2019,Single Family Residential,3325 S Edelweiss Dr,Grand Prairie,TX,75052,269900,4,2.0,Park Valley 03,2045,11500,2016,68,132,,Sold,,,http://www.redfin.com/TX/Grand-Prairie/3325-S-Edelweiss-Dr-75052/home/31587476,NTREIS,13887555,N,Y,32.6931213,-96.9941406
PAST SALE,February-22-2019,Single Family Residential,3605 Pisa Mews,Dallas,TX,75236,274450,3,2.0,Capella Park,1745,6360,2018,46,157,93,Sold,,,http://www.redfin.com/TX/Dallas/3605-Pisa-Mews-75236/home/148696843,NTREIS,14000841,N,Y,32.700232,-96.944735
PAST SALE,March-1-2019,Townhouse,12344 Halima St,Dallas,TX,75243,270000,3,2.5,CAYENNE Northeast,1932,4095,2017,39,140,,Sold,,,http://www.redfin.com/TX/Dallas/12344-Hallum-St-75243/home/143838320,NTREIS,13991673,N,Y,32.9163739,-96.755169
PAST SALE,January-11-2019,Single Family Residential,3027 Dothan Ln,Dallas,TX,75229,259000,3,2.0,Royalhaven Rev,1656,8407,1959,88,156,,Sold,,,http://www.redfin.com/TX/Dallas/3027-Dothan-Ln-75229/home/30935157,NTREIS,13955746,N,Y,32.8980657,-96.876961
PAST SALE,February-28-2019,Condo/Co-op,3701 Turtle Creek Blvd Unit 9A,Dallas,TX,75219,259000,1,1.0,Turtle Creek North Condo,793,58414,1962,40,327,642,Sold,,,http://www.redfin.com/TX/Dallas/3701-Turtle-Creek-Blvd-75219/unit-9A/home/30795192,NTREIS,14006073,N,Y,32.8130094,-96.8018222
PAST SALE,February-28-2019,Single Family Residential,4605 Southampton Blvd,Garland,TX,75043,249000,3,2.0,Shores Wellington 02,2164,8799,2003,40,115,42,Sold,,,http://www.redfin.com/TX/Garland/4605-Southampton-Blvd-75043/home/32225795,NTREIS,13999846,N,Y,32.859463,-96.5660362
PAST SALE,January-18-2019,Single Family Residential,2712 Catherine St,Dallas,TX,75211,254600,2,1.0,Crawpord Park Add,1489,6665,1935,81,171,,Sold,,,http://www.redfin.com/TX/Dallas/2712-Catherine-St-75211/home/30837982,NTREIS,13970002,N,Y,32.738098,-96.8642714
PAST SALE,January-31-2019,Single Family Residential,2625 Southwood Dr,Dallas,TX,75233,274900,3,2.0,Southwood Estates,1630,12632,1955,68,169,,Sold,,,http://www.redfin.com/TX/Dallas/2625-Southwood-Dr-75233/home/30900543,NTREIS,13973441,N,Y,32.7002146,-96.8625539
PAST SALE,February-13-2019,Single Family Residential,1300 Mountain Lake Rd,Dallas,TX,75224,265000,3,2.0,William M Leonard Surv Abs 775,1527,7013,1938,55,174,,Sold,,,http://www.redfin.com/TX/Dallas/1300-Mountain-Lake-Rd-75224/home/30849196,NTREIS,13980142,N,Y,32.7211374,-96.8434647
PAST SALE,March-5-2019,Single Family Residential,2432 Five Mile Cir,Dallas,TX,75233,275000,3,2.5,Kiestwood Estate,2027,14593,1959,35,136,,Sold,,,http://www.redfin.com/TX/Dallas/2432-5-Mile-Cir-75233/home/30901484,NTREIS,13900051,N,Y,32.7041671,-96.8585324
PAST SALE,March-5-2019,Single Family Residential,2466 Five Mile Cir,Dallas,TX,75233,279900,3,2.0,Kiestwood Estate,1623,10542,1956,35,172,,Sold,,,http://www.redfin.com/TX/Dallas/2466-5-Mile-Cir-75233/home/30901505,NTREIS,13985110,N,Y,32.7040934,-96.859077
PAST SALE,February-6-2019,Single Family Residential,1730 S Belt Line Rd,Dallas,TX,75253,255000,4,1.5,,1308,63685,1935,62,195,,Sold,,,http://www.redfin.com/TX/Dallas/1730-S-Beltline-Rd-75253/home/31121649,NTREIS,13987334,N,Y,32.678553,-96.5990079
PAST SALE,February-15-2019,Single Family Residential,3026 Highgate Dr,Seagoville,TX,75159,249500,5,2.5,Highland Meadows Ph 01,2567,6621,2014,53,97,28,Sold,,,http://www.redfin.com/TX/Seagoville/3026-Highgate-Dr-Unknown/home/148750057,NTREIS,13990692,N,Y,32.689562,-96.553514
PAST SALE,February-28-2019,Single Family Residential,1434 Barrel Dr,Dallas,TX,75253,226900,4,2.5,Shady Oaks,2072,5489,2019,40,110,25,Sold,,,http://www.redfin.com/TX/Dallas/1434-Barrel-Dr-75253/home/148571500,NTREIS,13996348,N,Y,32.674284,-96.584327
PAST SALE,March-28-2019,Single Family Residential,5097 Cathy Dr,Forney,TX,75126,272500,4,2.5,Clements Ranch Ph 1,2476,6273,2017,12,110,50,Sold,,,http://www.redfin.com/TX/Forney/5097-Cathy-Dr-75126/home/113968200,NTREIS,14016217,N,Y,32.790641,-96.490273
PAST SALE,March-11-2019,Single Family Residential,10939 Limestone Dr,Balch Springs,TX,75180,229500,3,2.0,Berry & Galloway 02,1444,14070,2018,29,159,,Sold,,,http://www.redfin.com/TX/Balch-Springs/10939-Limestone-Dr-75180/home/32055419,NTREIS,13979919,N,Y,32.74503,-96.637916
PAST SALE,February-4-2019,Condo/Co-op,2727 Shelby Ave Unit H,Dallas,TX,75219,235000,2,1.5,Shelly Condo 2727,962,38420,1979,64,244,150,Sold,,,http://www.redfin.com/TX/Dallas/2727-Shelby-Ave-75219/unit-H/home/30797062,NTREIS,13956356,N,Y,32.8074316,-96.8125636
PAST SALE,March-7-2019,Condo/Co-op,3609 Hawthorne Ave,Dallas,TX,75219,239900,2,1.5,Concord House Condo,931,30579,1962,33,258,285,Sold,,,http://www.redfin.com/TX/Dallas/3609-Hawthorne-Ave-75219/home/30809728,NTREIS,13990314,N,Y,32.8208771,-96.8136528
PAST SALE,March-1-2019,Condo/Co-op,5910 Sandhurst Ln #239,Dallas,TX,75206,239900,2,2.0,Tuscany Condos,1140,203643,1967,39,210,295,Sold,,,http://www.redfin.com/TX/Dallas/5910-Sandhurst-Ln-75206/unit-239/home/30746263,NTREIS,13891252,N,Y,32.8438228,-96.7650379
PAST SALE,February-28-2019,Condo/Co-op,5808 Mccommas Blvd Unit A207,Dallas,TX,75206,289000,3,2.0,Mstreets 5800 Condo,1499,21039,2008,40,193,450,Sold,,,http://www.redfin.com/TX/Dallas/5808-McCommas-Blvd-75206/unit-A207/home/32398841,NTREIS,14005057,N,Y,32.8296312,-96.767112
PAST SALE,February-28-2019,Single Family Residential,7505 Westhaven Dr,Rowlett,TX,75089,269900,3,2.0,Bayview Estates,2076,10542,1993,40,130,,Sold,,,http://www.redfin.com/TX/Rowlett/7505-Westhaven-Dr-75089/home/33929649,NTREIS,13992774,N,Y,32.9259036,-96.5151212
PAST SALE,February-28-2019,Single Family Residential,10420 Royal Chapel Dr,Dallas,TX,75229,309000,4,2.5,Royal Chapel Estates,2230,10019,1968,40,139,,Sold,,,http://www.redfin.com/TX/Dallas/10420-Royal-Chapel-Dr-75229/home/30930129,NTREIS,13903810,N,Y,32.8904511,-96.8708221
PAST SALE,February-14-2019,Single Family Residential,3021 Timberview Rd,Dallas,TX,75229,289000,3,2.5,Chapel Downs Sec 04,1988,10977,1963,54,145,,Sold,,,http://www.redfin.com/TX/Dallas/3021-Timberview-Rd-75229/home/30929893,NTREIS,14005872,N,Y,32.8835679,-96.8731647
PAST SALE,February-15-2019,Single Family Residential,3457 Ridgeoak Way,Farmers Branch,TX,75234,247000,4,2.0,Town North Estates,1980,8930,1959,53,125,,Sold,,,http://www.redfin.com/TX/Farmers-Branch/3457-Ridgeoak-Way-75234/home/31343114,NTREIS,13991881,N,Y,32.9196298,-96.8617579
PAST SALE,March-14-2019,Condo/Co-op,6130 Bandera Ave Unit 6130A,Dallas,TX,75225,249900,2,2.0,Villa Serena,1643,59982,1958,26,152,599,Sold,,,http://www.redfin.com/TX/Dallas/6130-Bandera-Ave-75225/unit-6130A/home/160491478,NTREIS,14021206,N,Y,32.8672872,-96.802068
PAST SALE,March-19-2019,Townhouse,10724 Pagewood Dr #44,Dallas,TX,75230,275000,3,2.0,Crest Meadow Estates,1500,4182,1972,21,183,356,Sold,,,http://www.redfin.com/TX/Dallas/10724-Pagewood-Dr-75230/unit-44/home/150580475,NTREIS,14008360,N,Y,32.8931309,-96.7775389
PAST SALE,March-22-2019,Single Family Residential,18515 Shadow Ridge Dr,Dallas,TX,75287,259900,3,2.5,Timber Glen Three,2457,6708,1991,18,106,,Sold,,,http://www.redfin.com/TX/Dallas/18515-Shadow-Ridge-Dr-75287/home/32814271,NTREIS,13931917,N,Y,33.0035134,-96.8632241
PAST SALE,April-1-2019,Single Family Residential,2708 Winding Creek Dr,Carrollton,TX,75007,241000,3,2.0,Oak Tree North Estates Add,1903,7144,1983,8,127,,Sold,,,http://www.redfin.com/TX/Carrollton/2708-Winding-Creek-Dr-75007/home/32968640,NTREIS,14026603,N,Y,32.9890298,-96.8606688
PAST SALE,February-1-2019,Single Family Residential,1706 Hill Creek Dr,Garland,TX,75043,255000,4,3.0,Shores Of Eastern Hills 01,2673,10062,1996,67,95,45,Sold,,,http://www.redfin.com/TX/Garland/1706-Hill-Creek-Dr-75043/home/31475320,NTREIS,13955406,N,Y,32.8638862,-96.5816128
PAST SALE,February-12-2019,Single Family Residential,11417 Glen Cross Dr,Dallas,TX,75228,239900,4,2.0,Braeburn Glen,1882,8712,1972,56,127,,Sold,,,http://www.redfin.com/TX/Dallas/11417-Glen-Cross-Dr-75228/home/31105298,NTREIS,13999871,N,Y,32.8496461,-96.6526832
PAST SALE,February-19-2019,Single Family Residential,1310 Coastal Dr,Garland,TX,75043,274000,3,2.0,Shores Of Eastern Hills 03,2703,11805,2002,49,101,56,Sold,,,http://www.redfin.com/TX/Garland/1310-Coastal-Dr-75043/home/32226040,NTREIS,13965660,N,Y,32.8683573,-96.5866598
PAST SALE,March-15-2019,Single Family Residential,4001 Watersedge Dr,Rowlett,TX,75088,262000,4,2.0,Lakeside Village Estates Ph 2,2211,9975,1999,25,118,17,Sold,,,http://www.redfin.com/TX/Rowlett/4001-Watersedge-Dr-75088/home/33934901,NTREIS,13993763,N,Y,32.8980507,-96.5153712
PAST SALE,March-15-2019,Single Family Residential,3305 Sunlight Dr,Rowlett,TX,75088,264000,3,2.0,Cambridge Meadow Estates,1852,19341,1997,25,143,,Sold,,,http://www.redfin.com/TX/Rowlett/3305-Sunlight-Dr-75088/home/31991287,NTREIS,14023079,N,Y,32.8919105,-96.5191837
PAST SALE,February-22-2019,Single Family Residential,5631 Everglade Rd,Dallas,TX,75227,279000,4,2.0,Buckner Terrace,1998,8581,1968,46,140,,Sold,,,http://www.redfin.com/TX/Dallas/5631-Everglade-Rd-75227/home/30906843,NTREIS,13909593,N,Y,32.7860133,-96.7048153
PAST SALE,February-28-2019,Single Family Residential,3731 Humphrey Dr,Dallas,TX,75216,228000,5,3.0,Bonnie View Gardens,2238,16161,2019,40,102,,Sold,,,http://www.redfin.com/TX/Dallas/3731-Humphrey-Dr-75216/home/30905634,NTREIS,14007559,N,Y,32.716835,-96.767616
PAST SALE,March-8-2019,Single Family Residential,4709 Chilton Dr,Dallas,TX,75227,264900,4,2.5,Buckner Terrace,2519,8407,1974,32,105,,Sold,,,http://www.redfin.com/TX/Dallas/4709-Chilton-Dr-75227/home/30907565,NTREIS,13936527,N,Y,32.7823934,-96.7125887
PAST SALE,April-2-2019,Single Family Residential,1622 Five Mile Ct,Dallas,TX,75224,289000,4,2.0,Oak Park Estates,1908,4574,1963,7,151,,Sold,,,http://www.redfin.com/TX/Dallas/1622-5-Mile-Ct-75224/home/30900845,NTREIS,13974334,N,Y,32.6979972,-96.8476842
PAST SALE,April-3-2019,Condo/Co-op,1122 Jackson St #312,Dallas,TX,75202,249900,1,1.0,Soco Urban Loft Condo,1097,42863,1925,6,228,437,Sold,,,http://www.redfin.com/TX/Dallas/1122-Jackson-St-75202/unit-312/home/30765013,NTREIS,14028827,N,Y,32.7782672,-96.8024429
PAST SALE,January-11-2019,Single Family Residential,6132 Jereme Trl,Dallas,TX,75252,269900,3,2.5,Stellar Court,1723,5227,1989,88,157,94,Sold,,,http://www.redfin.com/TX/Dallas/6132-Jereme-Trl-75252/home/32071325,NTREIS,13948989,N,Y,33.0022954,-96.7998728
PAST SALE,January-31-2019,Single Family Residential,2419 Old Mill Rd,Dallas,TX,75287,254900,3,2.0,Morningside 2,1524,7841,1982,68,167,,Sold,,,http://www.redfin.com/TX/Dallas/2419-Old-Mill-Rd-75287/home/32970998,NTREIS,13996116,N,Y,32.9899587,-96.8716449
PAST SALE,March-1-2019,Single Family Residential,2211 Versailles Dr,Carrollton,TX,75007,234999,3,2.0,Rollingwood Estates,1600,5009,1978,39,147,,Sold,,,http://www.redfin.com/TX/Carrollton/2211-Versailles-Dr-75007/home/31224972,NTREIS,13968823,N,Y,32.9878335,-96.8784326
PAST SALE,March-5-2019,Single Family Residential,2240 Roundrock Dr,Carrollton,TX,75007,280000,4,2.0,Morningside 1,1833,7536,1980,35,153,,Sold,,,http://www.redfin.com/TX/Carrollton/2240-Roundrock-Dr-75007/home/32958295,NTREIS,13992476,N,Y,32.988742,-96.8694872
PAST SALE,January-10-2019,Single Family Residential,122 N Hampton Rd,Dallas,TX,75208,239000,2,1.0,Dean & Becker Add,1674,5663,1941,89,143,,Sold,,,http://www.redfin.com/TX/Dallas/122-N-Hampton-Rd-75208/home/30847339,NTREIS,13964905,N,Y,32.7460717,-96.8565162
PAST SALE,January-22-2019,Single Family Residential,1617 Meadow Valley Ln,Dallas,TX,75232,259900,4,3.0,Glen Hills,1988,21780,1963,77,131,,Sold,,,http://www.redfin.com/TX/Dallas/1617-Meadow-Valley-Ln-75232/home/30954650,NTREIS,13984291,N,Y,32.6744283,-96.847391
PAST SALE,January-28-2019,Condo/Co-op,1122 Jackson St #418,Dallas,TX,75202,245000,1,1.0,Soco Urban Loft Condo,1156,42863,1925,71,212,450,Sold,,,http://www.redfin.com/TX/Dallas/1122-Jackson-St-75202/unit-418/home/30765025,NTREIS,13986787,N,Y,32.7782672,-96.8024429
PAST SALE,February-5-2019,Single Family Residential,3116 Sharpview Ln,Dallas,TX,75228,239749,3,2.5,Buckner Terrace 03 Instl Sec 08,2048,9496,1965,63,117,,Sold,,,http://www.redfin.com/TX/Dallas/3116-Sharpview-Ln-75228/home/31102524,NTREIS,13915364,N,Y,32.7958401,-96.6991322
PAST SALE,February-8-2019,Single Family Residential,303 S Saint Mary Ave,Dallas,TX,75214,239000,3,1.5,Freemans Columbia Ave Add,1492,6795,2003,60,160,,Sold,,,http://www.redfin.com/TX/Dallas/303-S-Saint-Mary-Ave-75214/home/30797663,NTREIS,13998020,N,Y,32.7961761,-96.759115
PAST SALE,February-7-2019,Single Family Residential,431 W Brooklyn Ave,Dallas,TX,75208,250000,2,2.0,Dallas Land & Loan 02,1268,6708,1925,61,197,,Sold,,,http://www.redfin.com/TX/Dallas/431-W-Brooklyn-Ave-75208/home/30826696,NTREIS,13981468,N,Y,32.739468,-96.8295961
PAST SALE,March-25-2019,Single Family Residential,3082 Coombs Creek Dr,Dallas,TX,75233,225000,3,3.0,Parkway Estates 2,1690,8189,1961,15,133,,Sold,,,http://www.redfin.com/TX/Dallas/3082-Coombs-Creek-Dr-75233/home/30961917,NTREIS,14023961,N,Y,32.7088752,-96.8809991
PAST SALE,March-26-2019,Single Family Residential,104 N Hampton Rd,Dallas,TX,75208,279000,3,2.0,Dean & Becker Add,1852,5358,1941,14,151,,Sold,,,http://www.redfin.com/TX/Dallas/104-N-Hampton-Rd-75208/home/30847343,NTREIS,14001769,N,Y,32.7455123,-96.856527
PAST SALE,January-11-2019,Single Family Residential,748 Turtle Cove Blvd,Rockwall,TX,75087,249000,3,2.0,Turtle Cove,2084,9932,1996,88,119,92,Sold,,,http://www.redfin.com/TX/Rockwall/748-Turtle-Cove-Blvd-75087/home/33928976,NTREIS,13983882,N,Y,32.9067082,-96.4689516
PAST SALE,February-26-2019,Single Family Residential,307 Lakeshore S,Rockwall,TX,75087,249000,3,2.0,Stonebridge Meadows #5,1999,10803,1983,42,125,,Sold,,,http://www.redfin.com/TX/Rockwall/307-S-Lakeshore-Dr-75087/home/33925498,NTREIS,14008625,N,Y,32.9266359,-96.4689308
PAST SALE,March-8-2019,Single Family Residential,2806 Saratoga Dr,Rockwall,TX,75087,275000,3,2.0,Lakeside Village Ph V-A,1997,5489,1998,32,138,125,Sold,,,http://www.redfin.com/TX/Rockwall/2806-Saratoga-Dr-75087/home/33936519,NTREIS,14020592,N,Y,32.8980186,-96.4788408
PAST SALE,March-27-2019,Single Family Residential,4742 Crownpoint Cir,Dallas,TX,75232,249900,3,2.0,Glen Oaks,1594,16117,1970,13,157,,Sold,,,http://www.redfin.com/TX/Dallas/4742-Crown-Point-Cir-75232/home/30953949,NTREIS,14025816,N,Y,32.6867379,-96.8367121
PAST SALE,January-11-2019,Single Family Residential,816 Courtland Dr,Mesquite,TX,75150,230900,4,2.0,Palos Verdes 07,2117,9453,1981,88,109,,Sold,,,http://www.redfin.com/TX/Mesquite/816-Courtland-Dr-75150/home/31872258,NTREIS,13880450,N,Y,32.830438,-96.6078533
PAST SALE,January-11-2019,Condo/Co-op,4402 Holland Ave #201,Dallas,TX,75219,240000,2,2.5,Holland Ave Condo 4402,1202,9714,1983,88,200,315,Sold,,,http://www.redfin.com/TX/Dallas/4402-Holland-Ave-75219/unit-201/home/31172554,NTREIS,13859870,N,Y,32.8195853,-96.8105779
PAST SALE,March-29-2019,Single Family Residential,2046 Chevella Dr,Dallas,TX,75232,262500,4,4.0,Enchanted Villas,3243,6665,2004,11,81,40,Sold,,,http://www.redfin.com/TX/Dallas/2046-Chevella-Dr-75232/home/32259180,NTREIS,14028487,N,Y,32.6579511,-96.8518934
PAST SALE,March-11-2019,Single Family Residential,10339 Black Walnut Dr,Dallas,TX,75243,249900,3,2.0,Walnut Creek Estates,1731,7841,1977,29,144,,Sold,,,http://www.redfin.com/TX/Dallas/10339-Black-Walnut-Dr-75243/home/31102724,NTREIS,14013029,N,Y,32.9098583,-96.7058601
PAST SALE,April-5-2019,Single Family Residential,7813 Fairport Rd,Dallas,TX,75217,225000,4,2.0,Meadow Wood Add,1839,7841,2019,4,122,,Sold,,,http://www.redfin.com/TX/Dallas/7813-Fairport-Rd-75217/home/31053895,NTREIS,14006091,N,Y,32.705419,-96.685862
PAST SALE,January-29-2019,Single Family Residential,2125 Province Ln,Dallas,TX,75228,255000,3,2.0,Ferguson Heights Add 03 Rev,1411,8973,1958,70,181,,Sold,,,http://www.redfin.com/TX/Dallas/2125-Province-Ln-75228/home/31014558,NTREIS,13930550,N,Y,32.8233158,-96.6792452
PAST SALE,February-19-2019,Single Family Residential,3206 Ruidosa Ave,Dallas,TX,75228,239000,3,2.0,Linda Heights Rep,2030,10629,1959,49,118,,Sold,,,http://www.redfin.com/TX/Dallas/3206-Ruidosa-Ave-75228/home/31026346,NTREIS,14005754,N,Y,32.8458656,-96.6619118
PAST SALE,April-3-2019,Single Family Residential,10709 Cotillion Dr,Dallas,TX,75228,235000,4,2.0,Country Club Park 01,1385,9365,1954,6,170,,Sold,,,http://www.redfin.com/TX/Dallas/10709-Cotillion-Dr-75228/home/28938343,NTREIS,14004908,N,Y,32.8377257,-96.6632064
PAST SALE,January-11-2019,Single Family Residential,601 Granada Dr,Garland,TX,75043,266900,4,2.5,La Prada 01,2121,13199,1977,88,126,,Sold,,,http://www.redfin.com/TX/Garland/601-Granada-Dr-75043/home/31415133,NTREIS,13981089,N,Y,32.8522746,-96.6295964
PAST SALE,March-14-2019,Condo/Co-op,2502 Live Oak St #219,Dallas,TX,75204,259000,1,1.0,Live Oak Lofts Condo,1027,65122,1998,26,252,325,Sold,,,http://www.redfin.com/TX/Dallas/2502-Live-Oak-St-75204/unit-219/home/30731366,NTREIS,13952201,N,Y,32.7866012,-96.7915715
PAST SALE,March-14-2019,Condo/Co-op,4221 Cole Ave #204,Dallas,TX,75205,242800,2,2.0,Cole Ave Condo 4221,1030,17990,1983,26,236,328,Sold,,,http://www.redfin.com/TX/Dallas/4221-Cole-Ave-75205/unit-204/home/31166703,NTREIS,14009795,N,Y,32.8169521,-96.7924407
PAST SALE,April-4-2019,Condo/Co-op,3105 San Jacinto St #103,Dallas,TX,75204,249900,2,2.0,Bryan Place Condo,1098,87468,1981,5,228,434,Sold,,,http://www.redfin.com/TX/Dallas/3105-San-Jacinto-St-75204/unit-103/home/31125325,NTREIS,14033396,N,Y,32.7927475,-96.7906205
PAST SALE,April-5-2019,Condo/Co-op,4006 Holland Ave Unit B,Dallas,TX,75219,289900,2,2.5,Timberline Condo Ph 02,1344,8015,1978,4,216,200,Sold,,,http://www.redfin.com/TX/Dallas/4006-Holland-Ave-75219/unit-B/home/30799872,NTREIS,13962928,N,Y,32.8157559,-96.8058135
PAST SALE,February-15-2019,Condo/Co-op,1505 Elm St #1104,Dallas,TX,75201,284900,1,1.5,1505 ELM STREET,1482,10019,1957,53,192,1100,Sold,,,http://www.redfin.com/TX/Dallas/1505-Elm-St-75201/unit-1104/home/30745220,NTREIS,13927854,N,Y,32.7814834,-96.7997122
PAST SALE,March-15-2019,Multi-Family (2-4 Unit),6330 Winton St,Dallas,TX,75214,275000,2,2.0,Bel Air,1190,3615,1983,25,231,,Sold,,,http://www.redfin.com/TX/Dallas/6330-Winton-St-75214/home/31127400,NTREIS,14010400,N,Y,32.835247,-96.753747
PAST SALE,January-23-2019,Single Family Residential,4011 Briarbend Rd,Dallas,TX,75287,272000,3,2.5,Highlands Pkwy,1697,5227,1995,76,160,,Sold,,,http://www.redfin.com/TX/Dallas/4011-Briarbend-Rd-75287/home/32018517,NTREIS,13951005,N,Y,33.0066864,-96.8429098
PAST SALE,March-20-2019,Single Family Residential,17013 Planters Row,Addison,TX,75001,279900,3,2.0,Addison Place Rev,1571,2570,1982,20,178,100,Sold,,,http://www.redfin.com/TX/Addison/17013-Planters-Row-75001/home/31193539,NTREIS,14026992,N,Y,32.9837641,-96.8377171
PAST SALE,January-14-2019,Single Family Residential,3146 Myra Ln,Farmers Branch,TX,75234,245000,3,2.0,Chapel Hill 02,1279,7536,1958,85,192,,Sold,,,http://www.redfin.com/TX/Farmers-Branch/3146-Myra-Ln-75234/home/31332880,NTREIS,13931126,N,Y,32.9161116,-96.8711631
PAST SALE,March-15-2019,Single Family Residential,2300 Doty Ln,Balch Springs,TX,75180,235000,4,2.0,Matias Estates,1890,,2019,25,124,150,Sold,,,http://www.redfin.com/TX/Balch-Springs/2300-Doty-Ln-75180/home/145333226,NTREIS,14022406,N,Y,32.7363544,-96.6360593
PAST SALE,March-29-2019,Single Family Residential,2413 Doty Ln,Balch Springs,TX,75180,235000,4,2.0,Matias Estates,1890,,2019,11,124,13,Sold,,,http://www.redfin.com/TX/Balch-Springs/2413-Doty-Ln-75180/home/145337854,NTREIS,14048879,N,Y,32.7357946,-96.636273
PAST SALE,February-8-2019,Single Family Residential,3621 Pisa Mews,Dallas,TX,75236,250700,3,2.0,Capella Park,1445,4400,2018,60,173,93,Sold,,,http://www.redfin.com/TX/Dallas/3621-Pisa-Mews-75236/home/146883174,NTREIS,13922418,N,Y,32.699795,-96.94447
PAST SALE,March-27-2019,Single Family Residential,4047 S Ledbetter Dr,Dallas,TX,75236,264900,3,2.0,Ledbetter Hills,2000,13286,2018,13,132,,Sold,,,http://www.redfin.com/TX/Dallas/4047-S-Ledbetter-Dr-75236/home/148162203,NTREIS,13974540,N,Y,32.693603,-96.923542
PAST SALE,March-28-2019,Single Family Residential,105 S Tatum Ave,Dallas,TX,75211,234000,4,2.5,Arcadia Park,1750,8799,2018,12,134,,Sold,,,http://www.redfin.com/TX/Dallas/105-S-Tatum-Ave-75211/home/148440935,NTREIS,13985568,N,Y,32.7458034,-96.9153581
PAST SALE,February-26-2019,Single Family Residential,11750 Featherbrook Dr,Dallas,TX,75228,255000,3,2.0,Briorwood Estates,1731,7971,1979,42,147,,Sold,,,http://www.redfin.com/TX/Dallas/11750-Featherbrook-Dr-75228/home/31109027,NTREIS,13996581,N,Y,32.8499623,-96.664877
PAST SALE,April-9-2019,Single Family Residential,8956 Whitewing Ln,Dallas,TX,75238,229000,3,2.0,Highland Meadows 10,1344,11761,1972,1,170,,Sold,,,http://www.redfin.com/TX/Dallas/8956-Whitewing-Ln-75238/home/31023683,NTREIS,14012282,N,Y,32.8714306,-96.6866395
PAST SALE,March-21-2019,Multi-Family (2-4 Unit),3416 Wendelkin St,Dallas,TX,75215,250000,2,2.0,Doerrings W C,2940,8712,1966,19,85,,Sold,,,http://www.redfin.com/TX/Dallas/3416-Wendelkin-St-75215/home/30795609,NTREIS,14006545,N,Y,32.7595718,-96.7720434
PAST SALE,February-26-2019,Single Family Residential,9523 E Lake Highlands Dr,Dallas,TX,75218,269000,3,2.0,Lake Highlands Rev,1759,18774,1941,42,153,,Sold,,,http://www.redfin.com/TX/Dallas/9523-E-Lake-Highlands-Dr-75218/home/30867091,NTREIS,14008987,N,Y,32.842335,-96.7074899
PAST SALE,March-12-2019,Single Family Residential,141 Leda Dr,Dallas,TX,75218,275000,3,2.0,Lake Highland Estates 7,1113,7928,1953,28,247,,Sold,,,http://www.redfin.com/TX/Dallas/141-Leda-Dr-75218/home/30969711,NTREIS,13991094,N,Y,32.8627479,-96.7095795
PAST SALE,March-28-2019,Single Family Residential,2667 San Paula Ave,Dallas,TX,75228,269900,4,2.0,Casa View Oaks 04 Rev,1494,8668,1954,12,181,,Sold,,,http://www.redfin.com/TX/Dallas/2667-San-Paula-Ave-75228/home/30969096,NTREIS,14027122,N,Y,32.832276,-96.6683434
PAST SALE,March-28-2019,Single Family Residential,11517 Mid Surrey Ct,Dallas,TX,75229,289900,4,3.0,Park Frst Add Instl #3,2286,11369,1959,12,127,,Sold,,,http://www.redfin.com/TX/Dallas/11517-Mid-Surrey-Ct-75229/home/30932083,NTREIS,14029008,N,Y,32.9056865,-96.8618814
PAST SALE,January-11-2019,Single Family Residential,3010 Citation Dr,Dallas,TX,75229,280000,4,3.0,Chapel Downs 3rd Sec,2437,11369,1962,88,115,,Sold,,,http://www.redfin.com/TX/Dallas/3010-Citation-Dr-75229/home/30929848,NTREIS,13973050,N,Y,32.8822039,-96.8728949
PAST SALE,January-25-2019,Single Family Residential,1311 Bold Forbes Dr,Grand Prairie,TX,75052,239000,3,2.0,Country Club Park 05,1830,6882,1992,74,131,,Sold,,,http://www.redfin.com/TX/Grand-Prairie/1311-Bold-Forbes-Dr-75052/home/31525122,NTREIS,13968891,N,Y,32.6790232,-96.9878866
PAST SALE,February-19-2019,Single Family Residential,1622 Whitedove Dr,Dallas,TX,75224,245000,3,2.0,Oak Park Estates,2052,10585,1967,49,119,,Sold,,,http://www.redfin.com/TX/Dallas/1622-Whitedove-Dr-75224/home/30900082,NTREIS,13992528,N,Y,32.6921335,-96.848103
PAST SALE,February-22-2019,Single Family Residential,821 Glen Oaks Blvd,Dallas,TX,75232,227500,3,2.0,Glen Oaks,1963,10977,1964,46,116,,Sold,,,http://www.redfin.com/TX/Dallas/821-Glen-Oaks-Blvd-75232/home/30953075,NTREIS,13970848,N,Y,32.6758172,-96.836419
PAST SALE,March-1-2019,Single Family Residential,2547 Delmac Dr,Dallas,TX,75233,270000,3,2.0,Kiestwood Estates,1776,11064,1955,39,152,,Sold,,,http://www.redfin.com/TX/Dallas/2547-Delmac-Dr-75233/home/30900660,NTREIS,13984439,N,Y,32.7040409,-96.8619049
PAST SALE,March-28-2019,Townhouse,8502 Brittania Way,Dallas,TX,75243,228000,2,2.5,Copperfield Add,1450,2178,1982,12,157,388,Sold,,,http://www.redfin.com/TX/Dallas/8502-Brittania-Way-75243/home/31152657,NTREIS,14029680,N,Y,32.89611,-96.725206
PAST SALE,March-28-2019,Single Family Residential,9217 Crestlake Dr,Dallas,TX,75238,250000,3,2.0,Lake Ridge Estates,1674,9583,1959,12,149,,Sold,,,http://www.redfin.com/TX/Dallas/9217-Crestlake-Dr-75238/home/31031982,NTREIS,14052690,N,Y,32.8734641,-96.717437
PAST SALE,February-19-2019,Single Family Residential,1805 Westminister Dr,Rowlett,TX,75088,260000,3,3.0,Toler Bay,2408,9453,1980,49,108,,Sold,,,http://www.redfin.com/TX/Rowlett/1805-Westminster-Dr-75088/home/32025471,NTREIS,14003446,N,Y,32.8802608,-96.5742098
PAST SALE,February-25-2019,Single Family Residential,6809 Fawn Valley Pl,Rowlett,TX,75089,254900,3,3.0,Lakeview Meadows Estates,2437,4487,1976,43,105,,Sold,,,http://www.redfin.com/TX/Rowlett/6809-Fawn-Valley-Pl-75089/home/32005348,NTREIS,13965979,N,Y,32.9135348,-96.5370828
PAST SALE,January-16-2019,Condo/Co-op,17725 Windflower Way #103,Dallas,TX,75252,245000,3,2.5,Preston Village #3,1719,,1985,83,143,315,Sold,,,http://www.redfin.com/TX/Dallas/17725-Windflower-Way-75252/unit-103/home/32197944,NTREIS,13970800,N,Y,32.9943527,-96.8026205
PAST SALE,February-22-2019,Condo/Co-op,4411 Bowser Ave #109,Dallas,TX,75219,259000,1,1.5,Nikko Condominiums,1218,24002,2008,46,213,303,Sold,,,http://www.redfin.com/TX/Dallas/4411-Bowser-Ave-75219/unit-109/home/35537710,NTREIS,13998077,N,Y,32.8186982,-96.8118316
PAST SALE,February-28-2019,Single Family Residential,12131 Sunland St,Dallas,TX,75218,269000,3,2.0,Lochwood Estates,1257,10106,1961,40,214,,Sold,,,http://www.redfin.com/TX/Dallas/12131-Sunland-St-75218/home/31047083,NTREIS,13948145,N,Y,32.86121,-96.6875168
PAST SALE,March-27-2019,Single Family Residential,6408 Everglade Rd,Dallas,TX,75227,270000,4,2.5,Everglade Park 5th Sec,2578,8015,1999,13,105,,Sold,,,http://www.redfin.com/TX/Dallas/6408-Everglade-Rd-75227/home/31139622,NTREIS,13931334,N,Y,32.7867445,-96.6927811
PAST SALE,January-25-2019,Single Family Residential,2534 Alco Ave,Dallas,TX,75211,259900,4,3.0,Kessler Plaza,2248,8015,1937,74,116,,Sold,,,http://www.redfin.com/TX/Dallas/2534-Alco-Ave-75211/home/30847145,NTREIS,13977027,N,Y,32.7466998,-96.8602918
PAST SALE,February-12-2019,Single Family Residential,1123 Pioneer Dr,Dallas,TX,75224,269000,2,1.0,Elmwood,1280,7623,1947,56,210,,Sold,,,http://www.redfin.com/TX/Dallas/1123-Pioneer-Dr-75224/home/30842614,NTREIS,13974615,N,Y,32.7283061,-96.8410253
PAST SALE,March-15-2019,Single Family Residential,1225 W Illinois Ave,Dallas,TX,75224,239900,3,2.0,Mays,1292,6665,1946,25,186,,Sold,,,http://www.redfin.com/TX/Dallas/1225-W-Illinois-Ave-75224/home/30898500,NTREIS,13986915,N,Y,32.7206404,-96.8431192
PAST SALE,March-11-2019,Single Family Residential,3525 Cripple Creek Dr,Dallas,TX,75224,249999,3,2.0,Oak Park Estates,2056,9670,1956,29,122,,Sold,,,http://www.redfin.com/TX/Dallas/3525-Cripple-Creek-Dr-75224/home/30899653,NTREIS,14026877,N,Y,32.7049642,-96.8455482
PAST SALE,January-11-2019,Single Family Residential,12822 Pennystone Dr,Farmers Branch,TX,75244,289000,4,2.0,Country Club Estates,2200,13421,1964,88,131,,Sold,,,http://www.redfin.com/TX/Farmers-Branch/12822-Pennystone-Dr-75244/home/31333732,NTREIS,13949265,N,Y,32.9205169,-96.854982
PAST SALE,February-15-2019,Single Family Residential,4141 Rosser Sq,Dallas,TX,75244,239000,2,2.0,Rosser Village Rev,1208,6839,1981,53,198,142,Sold,,,http://www.redfin.com/TX/Dallas/4141-Rosser-Sq-75244/home/31095555,NTREIS,13782453,N,Y,32.9222589,-96.844037
PAST SALE,February-19-2019,Single Family Residential,4216 Rosser Sq,Dallas,TX,75244,279900,3,2.5,Rosser Village Rev,1387,4356,1982,49,202,133,Sold,,,http://www.redfin.com/TX/Dallas/4216-Rosser-Sq-75244/home/31095484,NTREIS,13990550,N,Y,32.9209809,-96.8449096
PAST SALE,March-1-2019,Single Family Residential,1303 S Montreal Ave,Dallas,TX,75208,325000,3,2.0,Hampton Hills Add,1714,8451,1950,39,190,,Sold,,,http://www.redfin.com/TX/Dallas/1303-S-Montreal-Ave-75208/home/30838541,NTREIS,13968107,N,Y,32.731446,-96.854667
PAST SALE,March-27-2019,Single Family Residential,2539 Gladstone Dr,Dallas,TX,75211,235000,2,2.0,Sunset Summit,964,7492,1920,13,244,,Sold,,,http://www.redfin.com/TX/Dallas/2539-Gladstone-Dr-75211/home/30831427,NTREIS,14023432,N,Y,32.7404832,-96.8607945
PAST SALE,January-11-2019,Condo/Co-op,1122 Jackson St #606,Dallas,TX,75202,235000,1,1.0,Soco Urban Loft Condo,1028,42863,1925,88,229,390,Sold,,,http://www.redfin.com/TX/Dallas/1122-Jackson-St-75202/unit-606/home/30765392,NTREIS,13987865,N,Y,32.7782672,-96.8024429
PAST SALE,January-17-2019,Condo/Co-op,3901 Travis St #211,Dallas,TX,75204,289000,1,1.5,Parks on Travis Condos,1245,,1985,82,232,346,Sold,,,http://www.redfin.com/TX/Dallas/3901-Travis-St-75204/unit-211/home/30738406,NTREIS,13951884,N,Y,32.8111845,-96.7970239
PAST SALE,January-18-2019,Condo/Co-op,3815 Holland Ave #4,Dallas,TX,75219,265000,3,2.0,Holland House Condo,1194,8015,1981,81,222,200,Sold,,,http://www.redfin.com/TX/Dallas/3815-Holland-Ave-75219/unit-4/home/31125265,NTREIS,13975024,N,Y,32.8134745,-96.8039374
PAST SALE,February-20-2019,Condo/Co-op,4111 Cole Ave #25,Dallas,TX,75204,249900,2,2.0,4111 Cole Condos,1034,40859,1985,48,242,358,Sold,,,http://www.redfin.com/TX/Dallas/4111-Cole-Ave-75204/unit-25/home/30764685,NTREIS,13923961,N,Y,32.8148087,-96.7935541
PAST SALE,April-2-2019,Condo/Co-op,4303 Buena Vista St #310,Dallas,TX,75205,225000,2,2.0,Buena Vista Villa Condo,921,22433,1983,7,244,386,Sold,,,http://www.redfin.com/TX/Dallas/4303-Buena-Vista-St-75205/unit-310/home/31163986,NTREIS,14027114,N,Y,32.8190312,-96.7941486
PAST SALE,January-30-2019,Single Family Residential,5402 Peninsula Way,Garland,TX,75043,244500,3,2.0,Anchor Point,1785,9757,1983,69,137,,Sold,,,http://www.redfin.com/TX/Garland/5402-Peninsula-Way-75043/home/31347939,NTREIS,13962917,N,Y,32.8506638,-96.5502134
PAST SALE,January-11-2019,Single Family Residential,4305 Greenwood Trl,Rowlett,TX,75088,273000,4,3.0,Lakeshore Park Estates,2780,6098,1994,88,98,,Sold,,,http://www.redfin.com/TX/Rowlett/4305-Greenwood-Trl-75088/home/33930569,NTREIS,13939330,N,Y,32.9008492,-96.5172045
PAST SALE,February-8-2019,Single Family Residential,2218 Dana Dr,Rowlett,TX,75088,255000,3,2.5,Lakecrest 111 & 04 Add Rep,2367,7797,1991,60,108,,Sold,,,http://www.redfin.com/TX/Rowlett/2218-Dana-Dr-75088/home/32003135,NTREIS,13961003,N,Y,32.8839879,-96.5201629
PAST SALE,February-28-2019,Single Family Residential,2902 Preston Trl,Rockwall,TX,75087,249900,3,2.0,Lakeside Village #2,1670,6490,1999,40,150,150,Sold,,,http://www.redfin.com/TX/Rockwall/2902-Preston-Trl-75087/home/33912685,NTREIS,13968602,N,Y,32.901888,-96.471125
PAST SALE,March-15-2019,Townhouse,5583 Canada Ct,Rockwall,TX,75032,270000,3,2.5,Chandlers Landing #17,2667,4922,1985,25,101,106,Sold,,,http://www.redfin.com/TX/Rockwall/5583-Canada-Ct-75032/home/33901451,NTREIS,13895578,N,Y,32.881631,-96.484851
PAST SALE,February-8-2019,Condo/Co-op,4229 Cole Ave #101,Dallas,TX,75205,289000,2,1.5,Cole Ave Condo 4229,953,27007,1982,60,303,223,Sold,,,http://www.redfin.com/TX/Dallas/4229-Cole-Ave-75205/unit-101/home/31166690,NTREIS,13994951,N,Y,32.8170952,-96.7923598
PAST SALE,March-29-2019,Condo/Co-op,3225 Turtle Creek Blvd Ph 1617,Dallas,TX,75219,235000,1,1.0,Renaissance On Turtle Creek Condo,933,154028,1998,11,252,540,Sold,,,http://www.redfin.com/TX/Dallas/3225-Turtle-Creek-Blvd-75219/unit-1617/home/30746112,NTREIS,13988721,N,Y,32.8066148,-96.8038366
PAST SALE,January-15-2019,Condo/Co-op,1122 Jackson St #718,Dallas,TX,75202,255000,1,1.0,Soco Urban Loft Condo,1156,42863,1925,84,221,450,Sold,,,http://www.redfin.com/TX/Dallas/1122-Jackson-St-75202/unit-718/home/30765427,NTREIS,13989301,N,Y,32.7782672,-96.8024429
PAST SALE,March-1-2019,Condo/Co-op,3225 Turtle Creek Blvd #934,Dallas,TX,75219,235000,1,1.0,Renaissance On Turtle Creek Condo,816,154028,1998,39,288,471,Sold,,,http://www.redfin.com/TX/Dallas/3225-Turtle-Creek-Blvd-75219/unit-934/home/30746413,NTREIS,13960297,N,Y,32.8066148,-96.8038366
PAST SALE,February-26-2019,Single Family Residential,4858 Hazelhurst Ln,Dallas,TX,75227,260000,4,2.5,Buckner Terrace Add 06 Sec 01,2083,8451,1970,42,125,,Sold,,,http://www.redfin.com/TX/Dallas/4858-Hazelhurst-Ln-75227/home/30907602,NTREIS,14009321,N,Y,32.7830099,-96.7084511
PAST SALE,January-16-2019,Vacant Land,3772 Manana Dr,Dallas,TX,75220,289900,0,,Marsha Lane Add Sec 01,,10062,1950,83,,,Sold,,,http://www.redfin.com/TX/Dallas/3772-Manana-Dr-75220/home/30912454,NTREIS,13980651,N,Y,32.8737328,-96.8530812
PAST SALE,February-25-2019,Single Family Residential,17419 Energy Ln,Dallas,TX,75252,250000,2,2.0,Energy Lane Add,1472,3398,2004,43,170,,Sold,,,http://www.redfin.com/TX/Dallas/17419-Energy-Ln-75252/home/31595168,NTREIS,14000877,N,Y,32.9885093,-96.7779884
PAST SALE,March-26-2019,Single Family Residential,13542 Purple Sage Rd,Dallas,TX,75240,259500,4,2.0,Spring Valley Park 02,1571,8799,1960,14,165,,Sold,,,http://www.redfin.com/TX/Dallas/13542-Purple-Sage-Rd-75240/home/31025174,NTREIS,13990860,N,Y,32.9320307,-96.7733866
PAST SALE,March-8-2019,Condo/Co-op,5937 E University Blvd #129,Dallas,TX,75206,229000,2,2.0,Bella Gardens Condos,1065,145055,1964,32,215,,Sold,,,http://www.redfin.com/TX/Dallas/5937-E-University-Blvd-75206/unit-129/home/30729524,NTREIS,13997500,N,Y,32.84605,-96.7647224
PAST SALE,January-25-2019,Single Family Residential,2540 Blue Myrtle Way,Dallas,TX,75212,299900,4,3.0,Greenleaf Village Ph 02,3294,6011,2002,74,91,17,Sold,,,http://www.redfin.com/TX/Dallas/2540-Blue-Myrtle-Way-75212/home/32258943,NTREIS,13944284,N,Y,32.7905867,-96.8634336
PAST SALE,February-7-2019,Single Family Residential,1514 Homeland St,Dallas,TX,75212,269000,3,2.0,Homestead Gardens,1600,4966,2018,61,168,,Sold,,,http://www.redfin.com/TX/Dallas/1514-Homeland-St-75212/home/30974700,NTREIS,13987046,N,Y,32.787488,-96.844699
PAST SALE,February-19-2019,Single Family Residential,2006 Wilbur St,Dallas,TX,75224,245000,3,1.0,Elmwood Add,1098,7492,1951,49,223,,Sold,,,http://www.redfin.com/TX/Dallas/2006-Wilbur-St-75224/home/30849793,NTREIS,13985141,N,Y,32.7221321,-96.8527317
PAST SALE,March-27-2019,Condo/Co-op,3225 Turtle Creek Blvd #1645,Dallas,TX,75219,269500,1,1.5,Renaissance On Turtle Creek Condo,917,154028,1998,13,294,530,Sold,,,http://www.redfin.com/TX/Dallas/3225-Turtle-Creek-Blvd-75219/unit-1645/home/30746139,NTREIS,14031230,N,Y,32.8066148,-96.8038366
PAST SALE,January-18-2019,Single Family Residential,4331 Trippie St,Lancaster,TX,75134,249900,4,2.5,Cedardale Highlands,2087,10324,2018,81,120,,Sold,,,http://www.redfin.com/TX/Lancaster/4331-Trippie-St-75134/home/32058170,NTREIS,13984298,N,Y,32.63947,-96.785192
PAST SALE,February-12-2019,Single Family Residential,7616 La Risa Dr,Dallas,TX,75248,325000,4,2.5,Richardson Heights Estates West Re,1946,9017,1969,56,167,,Sold,,,http://www.redfin.com/TX/Dallas/7616-La-Risa-Dr-75248/home/31081149,NTREIS,13963746,N,Y,32.9623721,-96.7769844
PAST SALE,March-6-2019,Townhouse,1529 Seegar St,Dallas,TX,75215,273000,2,2.5,Seegar Row Twnhms,1352,2222,2005,34,202,,Sold,,,http://www.redfin.com/TX/Dallas/1529-Seegar-St-75215/home/30794080,NTREIS,13955354,N,Y,32.768817,-96.787088
PAST SALE,April-5-2019,Condo/Co-op,5609 Smu Blvd #307,Dallas,TX,75206,276900,2,2.0,Shelby Residences,1025,28793,2008,4,270,262,Sold,,,http://www.redfin.com/TX/Dallas/5609-SMU-Blvd-75206/unit-307/home/108591558,NTREIS,14030131,N,Y,32.842467,-96.7722361
PAST SALE,February-22-2019,Single Family Residential,10104 Branwood Ln,Dallas,TX,75243,259000,3,2.0,Richland Meadows,1929,13504,1977,46,134,,Sold,,,http://www.redfin.com/TX/Dallas/10104-Branwood-Ln-75243/home/31102186,NTREIS,13926793,N,Y,32.9195548,-96.7109796
PAST SALE,February-1-2019,Single Family Residential,19036 Bilbrook Ln,Dallas,TX,75287,255000,3,2.0,Twin Creek Estate 1,1986,8276,1983,67,128,,Sold,,,http://www.redfin.com/TX/Dallas/19036-Bilbrook-Ln-75287/home/33073099,NTREIS,13915420,N,Y,33.0109398,-96.8643133
PAST SALE,March-4-2019,Single Family Residential,3058 Harbinger Ln,Dallas,TX,75287,240000,2,2.5,Old Mill Court Ph 2-C,1536,3615,1984,36,156,53,Sold,,,http://www.redfin.com/TX/Dallas/3058-Harbinger-Ln-75287/home/33152807,NTREIS,13995558,N,Y,32.9949342,-96.8647741
PAST SALE,February-4-2019,Single Family Residential,13160 Pennystone Dr,Farmers Branch,TX,75244,250000,3,2.0,Crestpark Club Estates,1830,9975,1969,64,137,,Sold,,,http://www.redfin.com/TX/Farmers-Branch/13160-Pennystone-Dr-75244/home/31334709,NTREIS,13993849,N,Y,32.9240009,-96.852421
PAST SALE,March-29-2019,Single Family Residential,11621 Sonnet,Dallas,TX,75229,265000,3,2.0,PARK FOREST 3RD INST,1723,12197,1959,11,154,,Sold,,,http://www.redfin.com/TX/Dallas/11621-Sonnet-Dr-75229/home/30932103,NTREIS,13993164,N,Y,32.9073451,-96.8604145
PAST SALE,January-18-2019,Single Family Residential,2423 Kingsridge Dr,Dallas,TX,75287,265000,3,2.0,Morningside 3,1707,8364,1983,81,155,,Sold,,,http://www.redfin.com/TX/Dallas/2423-Kingsridge-Dr-75287/home/32982362,NTREIS,13971333,N,Y,32.9932565,-96.8705975
PAST SALE,March-1-2019,Single Family Residential,2619 Seedling Ln,Dallas,TX,75287,265000,3,2.0,Morningside 2,1693,7841,1982,39,157,,Sold,,,http://www.redfin.com/TX/Dallas/2619-Seedling-Ln-75287/home/32971137,NTREIS,14006269,N,Y,32.9915121,-96.8680837
PAST SALE,March-1-2019,Condo/Co-op,2407 Stutz Dr Unit B4,Dallas,TX,75235,275000,2,2.5,Stutz Road Condos,1218,17511,2006,39,226,247,Sold,,,http://www.redfin.com/TX/Dallas/2407-Stutz-Dr-75235/unit-B4/home/30783507,NTREIS,13993671,N,Y,32.8224296,-96.8394759
PAST SALE,March-22-2019,Single Family Residential,9104 Woodshore Dr,Dallas,TX,75243,225000,3,1.5,Northwood Estates,1132,8102,1960,18,199,,Sold,,,http://www.redfin.com/TX/Dallas/9104-Woodshore-Dr-75243/home/31027635,NTREIS,14021322,N,Y,32.9008652,-96.7549352
PAST SALE,April-2-2019,Single Family Residential,9069 Woodshore Dr,Dallas,TX,75243,269000,4,2.0,Northwood Estates,1644,10759,1960,7,164,,Sold,,,http://www.redfin.com/TX/Dallas/9069-Woodshore-Dr-75243/home/31027763,NTREIS,13997278,N,Y,32.9010935,-96.7555211
PAST SALE,January-23-2019,Single Family Residential,12235 Treeview Ln,Farmers Branch,TX,75234,239900,6,2.5,Crestbrook Estates,2465,10019,1963,76,97,,Sold,,,http://www.redfin.com/TX/Farmers-Branch/12235-Treeview-Ln-75234/home/31333926,NTREIS,13998933,N,Y,32.9161281,-96.8776365
PAST SALE,February-19-2019,Condo/Co-op,8610 Turtle Creek Blvd #306,Dallas,TX,75225,258000,2,2.0,Le Parc Condo,1381,31668,1984,49,187,446,Sold,,,http://www.redfin.com/TX/Dallas/8610-Turtle-Creek-Blvd-75225/unit-306/home/31174549,NTREIS,14009414,N,Y,32.8657299,-96.7894867
PAST SALE,March-13-2019,Condo/Co-op,2305 Worthington St #327,Dallas,TX,75204,249900,1,1.0,Belvedere Condos,852,72527,1999,27,293,374,Sold,,,http://www.redfin.com/TX/Dallas/2305-Worthington-St-75204/unit-327/home/32218125,NTREIS,13968716,N,Y,32.7957775,-96.7982216
PAST SALE,April-2-2019,Condo/Co-op,2950 Mckinney Ave #205,Dallas,TX,75204,250000,1,1.5,Mercer Square Condo,878,65558,2006,7,285,297,Sold,,,http://www.redfin.com/TX/Dallas/2950-McKinney-Ave-75204/unit-205/home/30776427,NTREIS,14012640,N,Y,32.8007306,-96.8005621
PAST SALE,February-8-2019,Single Family Residential,1508 Windchime Dr,Dallas,TX,75224,289500,4,2.0,Oak Park Estates,2284,17990,1966,60,127,,Sold,,,http://www.redfin.com/TX/Dallas/1508-Windchime-Dr-75224/home/30900070,NTREIS,13975252,N,Y,32.6943218,-96.847035
PAST SALE,February-22-2019,Multi-Family (2-4 Unit),633 Centre St,Dallas,TX,75208,269000,2,1.0,Dallas Land & Loan 03,1460,4922,1945,46,184,,Sold,,,http://www.redfin.com/TX/Dallas/633-Centre-St-75208/home/30827011,NTREIS,14004303,N,Y,32.742508,-96.833616
PAST SALE,March-22-2019,Single Family Residential,1242 Hollywood Ave,Dallas,TX,75208,249000,2,2.0,Hampton Terrace,1068,7536,1945,18,233,,Sold,,,http://www.redfin.com/TX/Dallas/1242-Hollywood-Ave-75208/home/30838104,NTREIS,13985043,N,Y,32.7317403,-96.8552611
PAST SALE,January-11-2019,Single Family Residential,5414 Alton Ave,Dallas,TX,75214,255000,4,2.0,East Columbia Place,1548,9627,1913,88,165,,Sold,,,http://www.redfin.com/TX/Dallas/5414-Alton-Ave-75214/home/30793297,NTREIS,13934179,N,Y,32.7982669,-96.7560696
PAST SALE,March-28-2019,Single Family Residential,9118 Angora St,Dallas,TX,75218,265000,2,1.0,Broadvu Anx Add,1537,9278,1941,12,172,,Sold,,,http://www.redfin.com/TX/Dallas/9118-Angora-St-75218/home/30861475,NTREIS,14003546,N,Y,32.8279373,-96.7068631
PAST SALE,March-8-2019,Single Family Residential,2718 Crest Ridge Dr,Dallas,TX,75228,250000,3,2.0,Casa View Heights 09,1345,7623,1954,32,186,,Sold,,,http://www.redfin.com/TX/Dallas/2718-Crest-Ridge-Dr-75228/home/31003636,NTREIS,14004462,N,Y,32.8300943,-96.6672993
PAST SALE,March-11-2019,Townhouse,9417 Timberleaf Dr,Dallas,TX,75243,247500,3,3.0,Timberleaf Lane Twnhms,2004,2875,1971,29,124,80,Sold,,,http://www.redfin.com/TX/Dallas/9417-Timberleaf-Dr-75243/home/31071333,NTREIS,14004665,N,Y,32.9071172,-96.7356727
PAST SALE,March-8-2019,Condo/Co-op,5938 Sandhurst #105,Dallas,TX,75206,255000,2,2.0,Tuscany Condos,1050,,1967,32,243,226,Sold,,,http://www.redfin.com/TX/Dallas/5938-Sandhurst-Ln-75206/unit-105/home/30746862,NTREIS,14017364,N,Y,32.8439418,-96.7642647
PAST SALE,March-29-2019,Single Family Residential,2313 Bombay Ave,Dallas,TX,75235,239900,5,3.0,Brookdale,2452,5314,1943,11,98,,Sold,,,http://www.redfin.com/TX/Dallas/2313-Bombay-Ave-75235/home/30855104,NTREIS,13996173,N,Y,32.8348109,-96.8560593
PAST SALE,March-22-2019,Condo/Co-op,2201 Wolf St #7105,Dallas,TX,75201,250000,1,1.0,Topaz Twnhms Condo,956,158297,1995,18,262,267,Sold,,,http://www.redfin.com/TX/Dallas/2201-Wolf-St-75201/unit-7105/home/30772767,NTREIS,13983842,N,Y,32.796745,-96.8089748
PAST SALE,March-21-2019,Condo/Co-op,2722 Knight St Unit 415B,Dallas,TX,75219,245000,2,2.0,Knight Street Condo,1090,111078,1964,19,225,339,Sold,,,http://www.redfin.com/TX/Dallas/2722-Knight-St-75219/unit-415B/home/30765775,NTREIS,14023367,N,Y,32.8094619,-96.814579
PAST SALE,March-4-2019,Single Family Residential,8707 Boundbrook Ave,Dallas,TX,75243,255000,3,3.0,Northwood Estates,1557,11108,1956,36,164,,Sold,,,http://www.redfin.com/TX/Dallas/8707-Boundbrook-Ave-75243/home/31028405,NTREIS,13974070,N,Y,32.8948141,-96.7548052
PAST SALE,January-31-2019,Single Family Residential,1422 Lansford Ave,Dallas,TX,75224,245900,3,2.0,Elmwood 02,1522,8189,1948,68,162,,Sold,,,http://www.redfin.com/TX/Dallas/1422-Lansford-Ave-75224/home/30843090,NTREIS,13920202,N,Y,32.730361,-96.8452494
PAST SALE,January-23-2019,Single Family Residential,2018 Atlantic St,Dallas,TX,75208,279000,3,3.0,Hampton Plaza,2001,8712,1955,76,139,,Sold,,,http://www.redfin.com/TX/Dallas/2018-Atlantic-St-75208/home/30850455,NTREIS,13939593,N,Y,32.7619584,-96.8548799
PAST SALE,February-19-2019,Single Family Residential,3511 Furey St,Dallas,TX,75212,265000,3,2.0,Westmoreland Park 02,1845,19602,2017,49,144,,Sold,,,http://www.redfin.com/TX/Dallas/3511-Furey-St-75212/home/30978438,NTREIS,13962729,N,Y,32.784211,-96.8771188
PAST SALE,February-19-2019,Single Family Residential,4040 Esmalda St,Dallas,TX,75212,249900,3,2.0,Olive-Dale,1644,6447,2018,49,152,,Sold,,,http://www.redfin.com/TX/Dallas/4040-Esmalda-Dr-75212/home/30978523,NTREIS,13951948,N,Y,32.7910361,-96.8810324
PAST SALE,January-11-2019,Single Family Residential,4317 Munger Ave,Dallas,TX,75204,275000,3,2.0,Eastside Ph 02,1144,2919,1999,88,240,,Sold,,,http://www.redfin.com/TX/Dallas/4317-Munger-Ave-75204/home/32194854,NTREIS,13983382,N,Y,32.8035313,-96.7836363
PAST SALE,March-13-2019,Condo/Co-op,4147 Newton Ave Unit D,Dallas,TX,75219,230000,2,2.0,La Siete Condo,910,9191,1974,27,253,300,Sold,,,http://www.redfin.com/TX/Dallas/4147-Newton-Ave-75219/unit-D/home/31174031,NTREIS,14004105,N,Y,32.8189528,-96.8050611
PAST SALE,January-11-2019,Condo/Co-op,3818 N Hall St #128,Dallas,TX,75219,269000,2,1.5,Tall Tree Condo,984,51009,1980,88,273,229,Sold,,,http://www.redfin.com/TX/Dallas/3818-N-Hall-St-75219/unit-128/home/30795884,NTREIS,13966272,N,Y,32.810369,-96.8077975
PAST SALE,March-21-2019,Single Family Residential,18075 Whispering Gables Ln,Dallas,TX,75287,229900,2,2.0,Bent Tree Gables,1083,4792,1983,19,212,121,Sold,,,http://www.redfin.com/TX/Dallas/18075-Whispering-Gables-Ln-75287/home/32186218,NTREIS,14011046,N,Y,32.995622,-96.840424
PAST SALE,March-29-2019,Condo/Co-op,5565 Preston Oaks Rd #114,Dallas,TX,75254,245000,2,2.0,Springstead Condos,1402,331317,1983,11,175,345,Sold,,,http://www.redfin.com/TX/Dallas/5565-Preston-Oaks-Rd-75254/unit-114/home/31186540,NTREIS,14026863,N,Y,32.9432503,-96.812969
PAST SALE,March-29-2019,Single Family Residential,9636 Park Highlands Dr,Dallas,TX,75238,269990,3,2.5,Kingsley Crossing,1772,3790,1983,11,152,,Sold,,,http://www.redfin.com/TX/Dallas/9636-Park-Highlands-Dr-75238/home/31151878,NTREIS,14028647,N,Y,32.8785761,-96.6989651
PAST SALE,January-25-2019,Single Family Residential,8501 Liberty Ln,Rowlett,TX,75089,249998,4,2.5,Spinnaker Cove Sec 02,2006,8451,1986,74,125,,Sold,,,http://www.redfin.com/TX/Rowlett/8501-Liberty-Ln-75089/home/32019273,NTREIS,13977849,N,Y,32.9356294,-96.5177462
PAST SALE,February-28-2019,Single Family Residential,103 Ashe Bend Dr,Rowlett,TX,75087,279000,3,2.5,Point Royal,2701,16074,1985,40,103,,Sold,,,http://www.redfin.com/TX/Rockwall/103-Ashe-Bend-Dr-75087/home/33918257,NTREIS,13970485,N,Y,32.9115758,-96.50908
PAST SALE,January-18-2019,Single Family Residential,4514 Westlake Dr,Garland,TX,75043,225000,3,2.0,Hills Westlake,1987,7971,1985,81,113,,Sold,,,http://www.redfin.com/TX/Garland/4514-Westlake-Dr-75043/home/31406118,NTREIS,13993623,N,Y,32.840729,-96.563243
PAST SALE,January-29-2019,Single Family Residential,3405 Oxford Dr,Rowlett,TX,75088,275000,3,2.5,Toler Bay,2241,8799,1979,70,123,6,Sold,,,http://www.redfin.com/TX/Rowlett/3405-Oxford-Dr-75088/home/32025437,NTREIS,13977626,N,Y,32.8799449,-96.5702063
PAST SALE,April-1-2019,Single Family Residential,809 W 8th St,Dallas,TX,75208,260000,2,2.0,Geroge J. Bryans Rev,1098,5793,1930,8,237,,Sold,,,http://www.redfin.com/TX/Dallas/809-W-Eighth-St-75208/home/30827131,NTREIS,13941739,N,Y,32.7482773,-96.8362569
PAST SALE,March-15-2019,Single Family Residential,3340 Citation Dr,Dallas,TX,75229,255000,3,2.0,Chapel Downs 1st Sec,1975,10019,1961,25,129,,Sold,,,http://www.redfin.com/TX/Dallas/3340-Citation-Dr-75229/home/30930048,NTREIS,14033810,N,Y,32.8828023,-96.8663806
PAST SALE,March-6-2019,Single Family Residential,12223 Sunland St,Dallas,TX,75218,239900,3,2.0,Lochwood Estates,1310,8102,1961,34,183,,Sold,,,http://www.redfin.com/TX/Dallas/12223-Sunland-St-75218/home/31046894,NTREIS,14023248,N,Y,32.862348,-96.6875586
PAST SALE,January-15-2019,Single Family Residential,2535 Catherine St,Dallas,TX,75211,265000,2,2.0,Winnetka Summit,1090,7492,1920,84,243,,Sold,,,http://www.redfin.com/TX/Dallas/2535-Catherine-St-75211/home/30831293,NTREIS,13975938,N,Y,32.7383437,-96.860585
PAST SALE,February-22-2019,Single Family Residential,14158 Stallion Ridge Dr,Dallas,TX,75253,236900,5,2.5,Shady Oaks,2571,5489,2018,46,92,25,Sold,,,http://www.redfin.com/TX/Dallas/14158-Ridge-Dr-75253/home/146948840,NTREIS,13967644,N,Y,32.677182,-96.588114
PAST SALE,March-4-2019,Single Family Residential,1609 S Woody Rd,Dallas,TX,75253,269900,3,2.0,Sorrels Add,1462,43560,1989,36,185,,Sold,,,http://www.redfin.com/TX/Dallas/1609-S-Woody-Rd-75253/home/31159466,NTREIS,13960453,N,Y,32.6753822,-96.5932924
PAST SALE,March-11-2019,Single Family Residential,843 S Belt Line Rd,Dallas,TX,75253,289900,3,1.0,,1620,40467,1977,29,179,,Sold,,,http://www.redfin.com/TX/Dallas/843-S-Beltline-Rd-75253/home/31121418,NTREIS,13963398,N,Y,32.6894739,-96.5868266
PAST SALE,January-17-2019,Single Family Residential,1903 Viewcrest Dr,Dallas,TX,75228,255000,3,2.0,Crest View Park,1377,8843,1956,82,185,,Sold,,,http://www.redfin.com/TX/Dallas/1903-Viewcrest-Dr-75228/home/31012862,NTREIS,13963074,N,Y,32.8206874,-96.6824618
PAST SALE,January-25-2019,Single Family Residential,8920 Vinewood Dr,Dallas,TX,75228,275000,3,2.0,Westglen Park 01,1641,9409,1956,74,168,,Sold,,,http://www.redfin.com/TX/Dallas/8920-Vinewood-Dr-75228/home/30999418,NTREIS,13989948,N,Y,32.816582,-96.7001769
PAST SALE,February-8-2019,Single Family Residential,8459 Freeport Dr,Dallas,TX,75228,259900,5,2.5,Hillview Terrace Sec 01,2232,8102,1964,60,116,,Sold,,,http://www.redfin.com/TX/Dallas/8459-Freeport-Dr-75228/home/31011342,NTREIS,13857280,N,Y,32.8094062,-96.6784516
PAST SALE,February-14-2019,Single Family Residential,9139 Bretshire Dr,Dallas,TX,75228,265000,3,2.0,Eastwood 01,1694,9627,1965,54,156,,Sold,,,http://www.redfin.com/TX/Dallas/9139-Bretshire-Dr-75228/home/31012659,NTREIS,13994328,N,Y,32.8117505,-96.6920708
PAST SALE,March-1-2019,Single Family Residential,11069 Strayhorn Dr,Dallas,TX,75228,265000,3,3.0,Saint Andrews Add,2183,19776,1958,39,121,,Sold,,,http://www.redfin.com/TX/Dallas/11069-Strayhorn-Dr-75228/home/31009020,NTREIS,13977212,N,Y,32.8383591,-96.6504702
PAST SALE,March-29-2019,Single Family Residential,1706 Lakeland Dr,Dallas,TX,75218,262000,2,1.0,Lakeland Terrace,932,8451,1946,11,281,,Sold,,,http://www.redfin.com/TX/Dallas/1706-Lakeland-Dr-75218/home/30859936,NTREIS,14011482,N,Y,32.8182559,-96.7083263
PAST SALE,March-29-2019,Single Family Residential,4400 Ivy Dr,Mesquite,TX,75150,230000,5,2.5,St Andrews 07,2170,16248,1963,11,106,,Sold,,,http://www.redfin.com/TX/Mesquite/4400-Ivy-Dr-75150/home/31887056,NTREIS,14019398,N,Y,32.8344174,-96.6470464
PAST SALE,April-4-2019,Single Family Residential,2361 Fenestra Dr,Dallas,TX,75228,289900,3,2.0,Claremont Park 01,2096,9278,1960,5,138,,Sold,,,http://www.redfin.com/TX/Dallas/2361-Fenestra-Dr-75228/home/30968356,NTREIS,14036769,N,Y,32.8086667,-96.7005112
PAST SALE,March-11-2019,Single Family Residential,8413 Commodore Dr,Rowlett,TX,75088,255000,4,3.0,Cambridge Meadow Estates,2252,10237,1997,29,113,,Sold,,,http://www.redfin.com/TX/Rowlett/8413-Commodore-Dr-75088/home/31991346,NTREIS,14006843,N,Y,32.8939146,-96.5194337
PAST SALE,April-2-2019,Single Family Residential,6714 Lakeshore Dr,Rowlett,TX,75089,269900,4,3.0,Lakeview Meadows Estates,2075,13809,1977,7,130,,Sold,,,http://www.redfin.com/TX/Rowlett/6714-Lakeshore-Dr-75089/home/32005111,NTREIS,14040026,N,Y,32.9122712,-96.5373537
PAST SALE,February-14-2019,Single Family Residential,1942 Beach Dr,Dallas,TX,75051,245000,5,3.5,Mountain Crk Lake Instl 2,2324,5489,2011,54,105,,Sold,,,http://www.redfin.com/TX/Grand-Prairie/1942-Beach-Dr-75051/home/32396125,NTREIS,13998741,N,Y,32.71756,-96.9747089
PAST SALE,February-7-2019,Single Family Residential,1637 Chapman St,Cedar Hill,TX,75104,234000,5,2.5,Bradford Park At High Pointe Ph 02,2857,4182,1991,61,82,,Sold,,,http://www.redfin.com/TX/Cedar-Hill/1637-Chapman-St-75104/home/31233491,NTREIS,13990189,N,Y,32.6266501,-96.9557024
PAST SALE,February-14-2019,Single Family Residential,5755 Mountain Hollow Dr,Dallas,TX,75249,254900,3,2.0,Mountain Hollow 01,1832,8059,2017,54,139,23,Sold,,,http://www.redfin.com/TX/Dallas/5755-Mountain-Hollow-Dr-75249/home/30782259,NTREIS,13984578,N,Y,32.659384,-96.963599
PAST SALE,March-18-2019,Single Family Residential,8778 Timber Falls Dr,Dallas,TX,75249,249999,3,2.0,Summit Parc Ph 05,1878,7536,2010,22,133,25,Sold,,,http://www.redfin.com/TX/Dallas/8778-Timber-Falls-Dr-75249/home/30774533,NTREIS,14018518,N,Y,32.6478462,-96.9505846
PAST SALE,January-10-2019,Single Family Residential,8409 Miramax Trl,Dallas,TX,75249,259900,4,2.5,Summit Parc Ph 02,2314,13809,2004,89,112,28,Sold,,,http://www.redfin.com/TX/Dallas/8409-Miramax-Trl-75249/home/30731156,NTREIS,13979729,N,Y,32.6599764,-96.9439895
PAST SALE,April-2-2019,Single Family Residential,6566 Compass Ridge Dr,Dallas,TX,75249,230000,3,2.0,Harbor Glen Ph 02,1932,5314,2008,7,119,17,Sold,,,http://www.redfin.com/TX/Dallas/6566-Compass-Ridge-Dr-75249/home/30774526,NTREIS,14003283,N,Y,32.6467837,-96.9733032
